dataset/facility_timing/facility_Facility-Magadan2/Magadan2-To-KinoSat_111110.csv

Acces,Start Time (UTCG),Stop Time (UTCG),Duration (sec)
1,1 Jun 2027 01:02:17.032,1 Jun 2027 01:06:12.180,235.148
2,1 Jun 2027 02:33:57.295,1 Jun 2027 02:41:42.636,465.342
3,1 Jun 2027 04:06:26.274,1 Jun 2027 04:17:48.430,682.156
4,1 Jun 2027 05:40:56.336,1 Jun 2027 05:53:51.061,774.725
5,1 Jun 2027 07:18:02.507,1 Jun 2027 07:29:30.413,687.906
6,1 Jun 2027 09:00:24.227,1 Jun 2027 09:02:28.433,124.206
7,1 Jun 2027 17:16:40.998,1 Jun 2027 17:26:11.128,570.130
8,1 Jun 2027 18:51:56.242,1 Jun 2027 19:04:41.349,765.107
9,1 Jun 2027 20:27:52.611,1 Jun 2027 20:40:10.816,738.205
10,1 Jun 2027 22:03:59.158,1 Jun 2027 22:13:25.261,566.103
11,1 Jun 2027 23:39:54.566,1 Jun 2027 23:45:08.999,314.432
12,2 Jun 2027 01:13:50.174,2 Jun 2027 01:18:03.994,253.820
13,2 Jun 2027 02:45:27.605,2 Jun 2027 02:53:44.813,497.208
14,2 Jun 2027 04:18:09.570,2 Jun 2027 04:29:51.205,701.635
15,2 Jun 2027 05:52:57.134,2 Jun 2027 06:05:52.277,775.143
16,2 Jun 2027 07:30:26.857,2 Jun 2027 07:41:25.888,659.031
17,2 Jun 2027 17:28:32.123,2 Jun 2027 17:38:45.564,613.441
18,2 Jun 2027 19:03:56.507,2 Jun 2027 19:16:47.963,771.455
19,2 Jun 2027 20:39:55.148,2 Jun 2027 20:51:58.776,723.628
20,2 Jun 2027 22:16:01.811,2 Jun 2027 22:24:58.584,536.774
21,2 Jun 2027 23:51:52.079,2 Jun 2027 23:56:37.728,285.649
22,3 Jun 2027 01:25:20.820,3 Jun 2027 01:29:58.771,277.951
23,3 Jun 2027 02:56:59.135,3 Jun 2027 03:05:47.251,528.115
24,3 Jun 2027 04:29:54.863,3 Jun 2027 04:41:53.896,719.033
25,3 Jun 2027 06:05:00.413,3 Jun 2027 06:17:53.117,772.704
26,3 Jun 2027 07:42:55.255,3 Jun 2027 07:53:19.771,624.517
27,3 Jun 2027 17:40:25.481,3 Jun 2027 17:51:15.214,649.733
28,3 Jun 2027 19:15:57.232,3 Jun 2027 19:28:51.973,774.741
29,3 Jun 2027 20:51:57.800,3 Jun 2027 21:03:44.657,706.857
30,3 Jun 2027 22:28:04.293,3 Jun 2027 22:36:30.493,506.200
31,4 Jun 2027 00:03:47.545,4 Jun 2027 00:08:07.847,260.302
32,4 Jun 2027 01:36:49.848,4 Jun 2027 01:41:55.777,305.929
33,4 Jun 2027 03:08:32.032,4 Jun 2027 03:17:49.869,557.837
34,4 Jun 2027 04:41:42.216,4 Jun 2027 04:53:56.468,734.252
35,4 Jun 2027 06:17:06.273,4 Jun 2027 06:29:53.520,767.247
36,4 Jun 2027 07:55:28.252,4 Jun 2027 08:05:11.604,583.352
37,4 Jun 2027 17:52:20.545,4 Jun 2027 18:03:40.685,680.140
38,4 Jun 2027 19:27:58.347,4 Jun 2027 19:40:53.476,775.129
39,4 Jun 2027 21:04:00.551,4 Jun 2027 21:15:28.521,687.969
40,4 Jun 2027 22:40:06.543,4 Jun 2027 22:48:01.152,474.609
41,5 Jun 2027 00:15:40.263,5 Jun 2027 00:19:40.203,239.939
42,5 Jun 2027 01:48:17.997,5 Jun 2027 01:53:54.426,336.429
43,5 Jun 2027 03:20:06.435,5 Jun 2027 03:29:52.613,586.178
44,5 Jun 2027 04:53:31.680,5 Jun 2027 05:05:58.901,747.220
45,5 Jun 2027 06:29:14.804,5 Jun 2027 06:41:53.413,758.609
46,5 Jun 2027 08:08:06.631,5 Jun 2027 08:17:00.649,534.019
47,5 Jun 2027 16:30:25.514,5 Jun 2027 16:34:49.280,263.767
48,5 Jun 2027 18:04:16.951,5 Jun 2027 18:16:02.392,705.441
49,5 Jun 2027 19:39:59.795,5 Jun 2027 19:52:52.557,772.762
50,5 Jun 2027 21:16:03.367,5 Jun 2027 21:27:10.425,667.058
51,5 Jun 2027 22:52:08.468,5 Jun 2027 22:59:30.730,442.262
52,6 Jun 2027 00:27:29.469,6 Jun 2027 00:31:15.737,226.268
53,6 Jun 2027 01:59:45.852,6 Jun 2027 02:05:54.266,368.414
54,6 Jun 2027 03:31:42.449,6 Jun 2027 03:41:55.430,612.980
55,6 Jun 2027 05:05:23.312,6 Jun 2027 05:18:01.153,757.842
56,6 Jun 2027 06:41:26.146,6 Jun 2027 06:53:52.698,746.551
57,6 Jun 2027 08:20:51.671,6 Jun 2027 08:28:45.724,474.053
58,6 Jun 2027 16:41:47.569,6 Jun 2027 16:48:03.747,376.178
59,6 Jun 2027 18:16:14.441,6 Jun 2027 18:28:20.657,726.216
60,6 Jun 2027 19:52:01.541,6 Jun 2027 20:04:49.273,767.732
61,6 Jun 2027 21:28:06.212,6 Jun 2027 21:38:50.437,644.225
62,6 Jun 2027 23:04:09.952,6 Jun 2027 23:10:59.448,409.496
63,7 Jun 2027 00:39:14.505,7 Jun 2027 00:42:55.255,220.750
64,7 Jun 2027 02:11:13.870,7 Jun 2027 02:17:54.988,401.117
65,7 Jun 2027 03:43:20.187,7 Jun 2027 03:53:58.290,638.103
66,7 Jun 2027 05:17:17.163,7 Jun 2027 05:30:03.204,766.041
67,7 Jun 2027 06:53:40.440,7 Jun 2027 07:05:51.278,730.838
68,7 Jun 2027 08:33:45.738,7 Jun 2027 08:40:24.561,398.823
69,7 Jun 2027 16:53:24.185,7 Jun 2027 17:01:00.759,456.574
70,7 Jun 2027 18:28:12.820,7 Jun 2027 18:40:35.732,742.912
71,7 Jun 2027 20:04:03.529,7 Jun 2027 20:16:43.705,760.176
72,7 Jun 2027 21:40:09.067,7 Jun 2027 21:50:28.625,619.557
73,7 Jun 2027 23:16:10.839,7 Jun 2027 23:22:27.575,376.735
74,8 Jun 2027 00:50:55.101,8 Jun 2027 00:54:39.187,224.087
75,8 Jun 2027 02:22:42.399,8 Jun 2027 02:29:56.344,433.944
76,8 Jun 2027 03:54:59.726,8 Jun 2027 04:06:01.147,661.421
77,8 Jun 2027 05:29:13.293,8 Jun 2027 05:42:05.014,771.722
78,8 Jun 2027 07:05:57.871,8 Jun 2027 07:17:49.006,711.134
79,8 Jun 2027 08:46:54.420,8 Jun 2027 08:51:51.652,297.232
80,8 Jun 2027 17:05:07.958,8 Jun 2027 17:13:47.811,519.852
81,8 Jun 2027 18:40:11.942,8 Jun 2027 18:52:47.807,755.865
82,8 Jun 2027 20:16:05.735,8 Jun 2027 20:28:35.898,750.163
83,8 Jun 2027 21:52:11.898,8 Jun 2027 22:02:05.082,593.184
84,8 Jun 2027 23:28:10.913,8 Jun 2027 23:33:55.448,344.535
85,9 Jun 2027 01:02:31.554,9 Jun 2027 01:06:27.400,235.846
86,9 Jun 2027 02:34:11.725,9 Jun 2027 02:41:58.178,466.453
87,9 Jun 2027 04:06:41.137,9 Jun 2027 04:18:03.978,682.841
88,9 Jun 2027 05:41:11.758,9 Jun 2027 05:54:06.547,774.789
89,9 Jun 2027 07:18:18.674,9 Jun 2027 07:29:45.707,687.033
90,9 Jun 2027 09:00:45.760,9 Jun 2027 09:02:39.057,113.298
91,9 Jun 2027 17:16:56.143,9 Jun 2027 17:26:27.735,571.592
92,9 Jun 2027 18:52:11.689,9 Jun 2027 19:04:57.042,765.354
93,9 Jun 2027 20:28:08.119,9 Jun 2027 20:40:25.913,737.793
94,9 Jun 2027 22:04:14.655,9 Jun 2027 22:13:39.888,565.233
95,9 Jun 2027 23:40:09.878,9 Jun 2027 23:45:23.492,313.614
96,10 Jun 2027 01:14:04.613,10 Jun 2027 01:18:19.319,254.706
97,10 Jun 2027 02:45:42.077,10 Jun 2027 02:54:00.361,498.284
98,10 Jun 2027 04:18:24.489,10 Jun 2027 04:30:06.747,702.258
99,10 Jun 2027 05:53:12.635,10 Jun 2027 06:06:07.749,775.114
100,10 Jun 2027 07:30:43.155,10 Jun 2027 07:41:41.130,657.975
101,10 Jun 2027 17:28:47.343,10 Jun 2027 17:39:02.007,614.664
102,10 Jun 2027 19:04:11.967,10 Jun 2027 19:17:03.567,771.600
103,10 Jun 2027 20:40:10.658,10 Jun 2027 20:52:13.801,723.143
104,10 Jun 2027 22:16:17.297,10 Jun 2027 22:25:13.170,535.872
105,10 Jun 2027 23:52:07.324,10 Jun 2027 23:56:52.261,284.937
106,11 Jun 2027 01:25:35.203,11 Jun 2027 01:30:14.166,278.963
107,11 Jun 2027 02:57:13.651,11 Jun 2027 03:06:02.803,529.152
108,11 Jun 2027 04:30:09.853,11 Jun 2027 04:42:09.430,719.577
109,11 Jun 2027 06:05:15.999,11 Jun 2027 06:18:08.569,772.570
110,11 Jun 2027 07:43:11.692,11 Jun 2027 07:53:34.953,623.262
111,11 Jun 2027 17:40:40.760,11 Jun 2027 17:51:31.516,650.756
112,11 Jun 2027 19:16:12.703,11 Jun 2027 19:29:07.496,774.793
113,11 Jun 2027 20:52:13.309,11 Jun 2027 21:03:59.618,706.308
114,11 Jun 2027 22:28:19.768,11 Jun 2027 22:36:45.039,505.271
115,12 Jun 2027 00:04:02.702,12 Jun 2027 00:08:22.448,259.745
116,12 Jun 2027 01:37:04.200,12 Jun 2027 01:42:11.223,307.023
117,12 Jun 2027 03:08:46.597,12 Jun 2027 03:18:05.422,558.825
118,12 Jun 2027 04:41:57.273,12 Jun 2027 04:54:11.991,734.718
119,12 Jun 2027 06:17:21.944,12 Jun 2027 06:30:08.953,767.010
120,12 Jun 2027 07:55:44.851,12 Jun 2027 08:05:26.703,581.853
121,12 Jun 2027 17:52:35.867,12 Jun 2027 18:03:56.862,680.995
122,12 Jun 2027 19:28:13.825,12 Jun 2027 19:41:08.920,775.094
123,12 Jun 2027 21:04:16.060,12 Jun 2027 21:15:43.418,687.358
124,12 Jun 2027 22:40:22.003,12 Jun 2027 22:48:15.666,473.663
125,13 Jun 2027 00:15:55.308,13 Jun 2027 00:19:54.901,239.592
126,13 Jun 2027 01:48:32.338,13 Jun 2027 01:54:09.909,337.571
127,13 Jun 2027 03:20:21.052,13 Jun 2027 03:30:08.166,587.114
128,13 Jun 2027 04:53:46.807,13 Jun 2027 05:06:14.419,747.612
129,13 Jun 2027 06:29:30.562,13 Jun 2027 06:42:08.825,758.263
130,13 Jun 2027 08:08:23.425,13 Jun 2027 08:17:15.636,532.211
131,13 Jun 2027 16:30:39.416,13 Jun 2027 16:35:07.481,268.065
132,13 Jun 2027 18:04:32.308,13 Jun 2027 18:16:18.455,706.147
133,13 Jun 2027 19:40:15.280,13 Jun 2027 19:53:07.925,772.645
134,13 Jun 2027 21:16:18.873,13 Jun 2027 21:27:25.263,666.390
135,13 Jun 2027 22:52:23.909,13 Jun 2027 22:59:45.218,441.308
