dataset/facility_timing/facility_Facility-Magadan2/Magadan2-To-KinoSat_111610.csv

Acces,Start Time (UTCG),Stop Time (UTCG),Duration (sec)
1,1 Jun 2027 00:45:01.532,1 Jun 2027 00:52:51.365,469.833
2,1 Jun 2027 02:20:37.626,1 Jun 2027 02:24:27.643,230.017
3,1 Jun 2027 03:53:12.813,1 Jun 2027 03:58:44.309,331.496
4,1 Jun 2027 05:24:59.593,1 Jun 2027 05:34:44.484,584.891
5,1 Jun 2027 06:58:24.646,1 Jun 2027 07:10:51.679,747.033
6,1 Jun 2027 08:34:08.038,1 Jun 2027 08:46:46.867,758.830
7,1 Jun 2027 10:13:00.084,1 Jun 2027 10:21:54.994,534.909
8,1 Jun 2027 18:35:12.476,1 Jun 2027 18:39:49.316,276.840
9,1 Jun 2027 20:09:09.164,1 Jun 2027 20:20:56.724,707.560
10,1 Jun 2027 21:44:53.055,1 Jun 2027 21:57:45.530,772.475
11,1 Jun 2027 23:20:57.477,1 Jun 2027 23:32:02.160,664.683
12,2 Jun 2027 00:57:03.861,2 Jun 2027 01:04:20.711,436.850
13,2 Jun 2027 02:32:27.127,2 Jun 2027 02:36:03.046,215.919
14,2 Jun 2027 04:04:40.333,2 Jun 2027 04:10:44.719,364.386
15,2 Jun 2027 05:36:35.618,2 Jun 2027 05:46:47.644,612.026
16,2 Jun 2027 07:10:16.446,2 Jun 2027 07:22:54.213,757.767
17,2 Jun 2027 08:46:19.654,2 Jun 2027 08:58:46.422,746.767
18,2 Jun 2027 10:25:45.480,2 Jun 2027 10:33:40.365,474.885
19,2 Jun 2027 18:46:36.802,2 Jun 2027 18:53:01.954,385.153
20,2 Jun 2027 20:21:06.997,2 Jun 2027 20:33:15.037,728.040
21,2 Jun 2027 21:56:55.093,2 Jun 2027 22:09:42.264,767.172
22,2 Jun 2027 23:33:00.643,2 Jun 2027 23:43:42.085,641.442
23,3 Jun 2027 01:09:05.771,3 Jun 2027 01:15:49.173,403.402
24,3 Jun 2027 02:44:12.211,3 Jun 2027 02:47:42.691,210.480
25,3 Jun 2027 04:16:08.084,3 Jun 2027 04:22:45.964,397.880
26,3 Jun 2027 05:48:13.393,3 Jun 2027 05:58:50.829,637.436
27,3 Jun 2027 07:22:10.491,3 Jun 2027 07:34:56.542,766.050
28,3 Jun 2027 08:58:34.262,3 Jun 2027 09:10:45.262,731.000
29,3 Jun 2027 10:38:39.926,3 Jun 2027 10:45:19.500,399.574
30,3 Jun 2027 18:58:14.557,3 Jun 2027 19:05:58.257,463.700
31,3 Jun 2027 20:33:05.710,3 Jun 2027 20:45:30.142,744.432
32,3 Jun 2027 22:08:57.381,3 Jun 2027 22:21:36.686,759.305
33,3 Jun 2027 23:45:03.821,3 Jun 2027 23:55:20.158,616.337
34,4 Jun 2027 01:21:07.102,4 Jun 2027 01:27:17.006,369.904
35,4 Jun 2027 02:55:52.575,4 Jun 2027 02:59:27.037,214.462
36,4 Jun 2027 04:27:36.402,4 Jun 2027 04:34:47.807,431.405
37,4 Jun 2027 05:59:53.000,4 Jun 2027 06:10:54.002,661.002
38,4 Jun 2027 07:34:06.840,4 Jun 2027 07:46:58.624,771.784
39,4 Jun 2027 09:10:52.034,4 Jun 2027 09:22:43.246,711.212
40,4 Jun 2027 10:51:49.008,4 Jun 2027 10:56:46.899,297.892
41,4 Jun 2027 19:09:59.110,4 Jun 2027 19:18:44.936,525.826
42,4 Jun 2027 20:45:05.157,4 Jun 2027 20:57:42.245,757.088
43,4 Jun 2027 22:20:59.882,4 Jun 2027 22:33:28.856,748.974
44,4 Jun 2027 23:57:06.983,5 Jun 2027 00:06:56.476,589.493
45,5 Jun 2027 01:33:07.645,5 Jun 2027 01:38:44.562,336.917
46,5 Jun 2027 03:07:28.593,5 Jun 2027 03:11:15.886,227.292
47,5 Jun 2027 04:39:05.578,5 Jun 2027 04:46:50.084,464.506
48,5 Jun 2027 06:11:34.520,5 Jun 2027 06:22:57.143,682.623
49,5 Jun 2027 07:46:05.551,5 Jun 2027 07:59:00.425,774.874
50,5 Jun 2027 09:23:13.204,5 Jun 2027 09:34:40.195,686.990
51,5 Jun 2027 11:05:40.664,5 Jun 2027 11:07:34.721,114.057
52,5 Jun 2027 19:21:47.913,5 Jun 2027 19:31:24.636,576.723
53,5 Jun 2027 20:57:05.223,5 Jun 2027 21:09:51.492,766.269
54,5 Jun 2027 22:33:02.567,5 Jun 2027 22:45:18.822,736.256
55,6 Jun 2027 00:09:10.081,6 Jun 2027 00:18:31.118,561.037
56,6 Jun 2027 01:45:07.095,6 Jun 2027 01:50:12.275,305.180
57,6 Jun 2027 03:19:01.112,6 Jun 2027 03:23:08.545,247.433
58,6 Jun 2027 04:50:35.832,6 Jun 2027 04:58:52.685,496.853
59,6 Jun 2027 06:23:18.008,6 Jun 2027 06:35:00.213,702.205
60,6 Jun 2027 07:58:06.701,6 Jun 2027 08:11:01.892,775.191
61,6 Jun 2027 09:35:38.088,6 Jun 2027 09:46:35.858,657.770
62,6 Jun 2027 19:33:39.636,6 Jun 2027 19:43:58.759,619.123
63,6 Jun 2027 21:09:05.816,6 Jun 2027 21:21:58.014,772.198
64,6 Jun 2027 22:45:05.408,6 Jun 2027 22:57:06.641,721.234
65,7 Jun 2027 00:21:13.074,7 Jun 2027 00:30:04.210,531.136
66,7 Jun 2027 01:57:05.024,7 Jun 2027 02:01:40.707,275.683
67,7 Jun 2027 03:30:31.164,7 Jun 2027 03:35:04.150,272.986
68,7 Jun 2027 05:02:07.354,7 Jun 2027 05:10:55.520,528.166
69,7 Jun 2027 06:35:03.529,7 Jun 2027 06:47:03.188,719.659
70,7 Jun 2027 08:10:10.365,7 Jun 2027 08:23:02.971,772.606
71,7 Jun 2027 09:48:07.066,7 Jun 2027 09:58:29.911,622.845
72,7 Jun 2027 19:45:33.516,7 Jun 2027 19:56:28.164,654.648
73,7 Jun 2027 21:21:06.863,7 Jun 2027 21:34:01.925,775.063
74,7 Jun 2027 22:57:08.364,7 Jun 2027 23:08:52.366,704.002
75,8 Jun 2027 00:33:15.908,8 Jun 2027 00:41:35.866,499.957
76,8 Jun 2027 02:09:00.848,8 Jun 2027 02:13:10.600,249.752
77,8 Jun 2027 03:41:59.680,8 Jun 2027 03:47:01.923,302.243
78,8 Jun 2027 05:13:40.289,8 Jun 2027 05:22:58.511,558.221
79,8 Jun 2027 06:46:51.141,8 Jun 2027 06:59:06.039,734.897
80,8 Jun 2027 08:22:16.636,8 Jun 2027 08:35:03.608,766.972
81,8 Jun 2027 10:00:40.712,8 Jun 2027 10:10:21.867,581.155
82,8 Jun 2027 18:24:52.541,8 Jun 2027 18:26:05.839,73.298
83,8 Jun 2027 19:57:29.048,8 Jun 2027 20:08:53.419,684.371
84,8 Jun 2027 21:33:08.295,8 Jun 2027 21:46:03.315,775.020
85,8 Jun 2027 23:09:11.424,8 Jun 2027 23:20:36.054,684.630
86,9 Jun 2027 00:45:18.521,9 Jun 2027 00:53:06.252,467.731
87,9 Jun 2027 02:20:53.794,9 Jun 2027 02:24:42.871,229.077
88,9 Jun 2027 03:53:27.414,9 Jun 2027 03:59:01.264,333.850
89,9 Jun 2027 05:25:14.775,9 Jun 2027 05:35:01.608,586.833
90,9 Jun 2027 06:58:40.895,9 Jun 2027 07:11:08.744,747.849
91,9 Jun 2027 08:34:25.611,9 Jun 2027 08:47:03.728,758.117
92,9 Jun 2027 10:13:19.832,9 Jun 2027 10:22:10.977,531.145
93,9 Jun 2027 18:35:26.311,9 Jun 2027 18:40:11.844,285.533
94,9 Jun 2027 20:09:25.885,9 Jun 2027 20:21:14.936,709.051
95,9 Jun 2027 21:45:10.056,9 Jun 2027 21:58:02.268,772.212
96,9 Jun 2027 23:21:14.549,9 Jun 2027 23:32:17.762,663.213
97,10 Jun 2027 00:57:20.820,10 Jun 2027 01:04:35.539,434.719
98,10 Jun 2027 02:32:43.005,10 Jun 2027 02:36:18.540,215.535
99,10 Jun 2027 04:04:54.950,10 Jun 2027 04:11:01.730,366.780
100,10 Jun 2027 05:36:50.913,10 Jun 2027 05:47:04.762,613.849
101,10 Jun 2027 07:10:32.844,10 Jun 2027 07:23:11.261,758.417
102,10 Jun 2027 08:46:37.430,10 Jun 2027 08:59:03.232,745.802
103,10 Jun 2027 10:26:05.754,10 Jun 2027 10:33:56.007,470.253
104,10 Jun 2027 18:46:51.943,10 Jun 2027 18:53:22.976,391.033
105,10 Jun 2027 20:21:23.778,10 Jun 2027 20:33:33.025,729.246
106,10 Jun 2027 21:57:12.113,10 Jun 2027 22:09:58.840,766.727
107,10 Jun 2027 23:33:17.709,10 Jun 2027 23:43:57.559,639.850
108,11 Jun 2027 01:09:22.693,11 Jun 2027 01:16:03.953,401.260
109,11 Jun 2027 02:44:27.769,11 Jun 2027 02:47:58.503,210.733
110,11 Jun 2027 04:16:22.739,11 Jun 2027 04:23:03.013,400.274
111,11 Jun 2027 05:48:28.812,11 Jun 2027 05:59:07.947,639.134
112,11 Jun 2027 07:22:27.042,11 Jun 2027 07:35:13.571,766.529
113,11 Jun 2027 08:58:52.245,11 Jun 2027 09:11:02.013,729.768
114,11 Jun 2027 10:39:00.964,11 Jun 2027 10:45:34.566,393.603
115,11 Jun 2027 18:58:30.272,11 Jun 2027 19:06:18.509,468.237
116,11 Jun 2027 20:33:22.541,11 Jun 2027 20:45:47.922,745.381
117,11 Jun 2027 22:09:14.414,11 Jun 2027 22:21:53.108,758.694
118,11 Jun 2027 23:45:20.882,11 Jun 2027 23:55:35.511,614.629
119,12 Jun 2027 01:21:23.970,12 Jun 2027 01:27:31.763,367.794
120,12 Jun 2027 02:56:07.824,12 Jun 2027 02:59:43.159,215.335
121,12 Jun 2027 04:27:51.113,12 Jun 2027 04:35:04.882,433.769
122,12 Jun 2027 06:00:08.548,12 Jun 2027 06:11:11.114,662.566
123,12 Jun 2027 07:34:23.551,12 Jun 2027 07:47:15.632,772.080
124,12 Jun 2027 09:11:10.236,12 Jun 2027 09:22:59.929,709.693
125,12 Jun 2027 10:52:11.483,12 Jun 2027 10:57:00.727,289.244
126,12 Jun 2027 19:10:15.160,12 Jun 2027 19:19:04.661,529.501
127,12 Jun 2027 20:45:22.029,12 Jun 2027 20:57:59.828,757.799
128,12 Jun 2027 22:21:16.923,12 Jun 2027 22:33:45.129,748.206
129,12 Jun 2027 23:57:24.036,13 Jun 2027 00:07:11.716,587.681
130,13 Jun 2027 01:33:24.438,13 Jun 2027 01:38:59.326,334.888
131,13 Jun 2027 03:07:43.582,13 Jun 2027 03:11:32.281,228.700
132,13 Jun 2027 04:39:20.360,13 Jun 2027 04:47:07.177,466.817
133,13 Jun 2027 06:11:50.200,13 Jun 2027 06:23:14.246,684.046
134,13 Jun 2027 07:46:22.424,13 Jun 2027 07:59:17.409,774.984
135,13 Jun 2027 09:23:31.652,13 Jun 2027 09:34:56.795,685.143
136,13 Jun 2027 11:06:12.335,13 Jun 2027 11:07:39.554,87.219
137,13 Jun 2027 19:22:04.186,13 Jun 2027 19:31:43.954,579.768
138,13 Jun 2027 20:57:22.130,13 Jun 2027 21:10:08.884,766.754
139,13 Jun 2027 22:33:19.616,13 Jun 2027 22:45:34.949,735.334
