dataset/facility_timing/facility_Facility-Magadan2/Magadan2-To-KinoSat_110605.csv

Acces,Start Time (UTCG),Stop Time (UTCG),Duration (sec)
1,1 Jun 2027 00:29:23.976,1 Jun 2027 00:38:19.286,535.310
2,1 Jun 2027 02:02:22.860,1 Jun 2027 02:14:25.416,722.556
3,1 Jun 2027 03:37:32.108,1 Jun 2027 03:50:23.852,771.744
4,1 Jun 2027 05:15:32.252,1 Jun 2027 05:25:48.477,616.225
5,1 Jun 2027 15:12:55.700,1 Jun 2027 15:23:50.680,654.980
6,1 Jun 2027 16:48:28.177,1 Jun 2027 17:01:23.127,774.951
7,1 Jun 2027 18:24:28.674,1 Jun 2027 18:36:12.721,704.047
8,1 Jun 2027 20:00:34.525,1 Jun 2027 20:08:56.554,502.029
9,1 Jun 2027 21:36:14.925,1 Jun 2027 21:40:35.275,260.350
10,1 Jun 2027 23:09:12.948,1 Jun 2027 23:14:27.815,314.867
11,2 Jun 2027 00:40:57.200,2 Jun 2027 00:50:21.739,564.539
12,2 Jun 2027 02:14:10.572,2 Jun 2027 02:26:27.803,737.231
13,2 Jun 2027 03:49:38.376,2 Jun 2027 04:02:24.014,765.638
14,2 Jun 2027 05:28:06.093,2 Jun 2027 05:37:39.659,573.567
15,2 Jun 2027 13:52:16.314,2 Jun 2027 13:53:28.122,71.808
16,2 Jun 2027 15:24:50.865,2 Jun 2027 15:36:15.320,684.455
17,2 Jun 2027 17:00:29.206,2 Jun 2027 17:13:24.098,774.892
18,2 Jun 2027 18:36:31.275,2 Jun 2027 18:47:56.202,684.927
19,2 Jun 2027 20:12:36.517,2 Jun 2027 20:20:27.071,470.555
20,2 Jun 2027 21:48:06.785,2 Jun 2027 21:52:08.314,241.528
21,2 Jun 2027 23:20:41.184,2 Jun 2027 23:26:26.418,345.234
22,3 Jun 2027 00:52:31.929,3 Jun 2027 01:02:24.315,592.386
23,3 Jun 2027 02:26:00.394,3 Jun 2027 02:38:30.051,749.657
24,3 Jun 2027 04:01:47.324,3 Jun 2027 04:14:23.647,756.322
25,3 Jun 2027 05:40:45.516,3 Jun 2027 05:49:27.862,522.346
26,3 Jun 2027 14:02:49.256,3 Jun 2027 14:07:33.825,284.569
27,3 Jun 2027 15:36:47.321,3 Jun 2027 15:48:36.270,708.949
28,3 Jun 2027 17:12:30.558,3 Jun 2027 17:25:22.672,772.114
29,3 Jun 2027 18:48:33.937,3 Jun 2027 18:59:37.747,663.810
30,3 Jun 2027 20:24:38.154,3 Jun 2027 20:31:56.566,438.412
31,3 Jun 2027 21:59:55.072,3 Jun 2027 22:03:44.622,229.549
32,3 Jun 2027 23:32:09.196,3 Jun 2027 23:38:26.170,376.974
33,4 Jun 2027 01:04:08.281,4 Jun 2027 01:14:26.963,618.682
34,4 Jun 2027 02:37:52.379,4 Jun 2027 02:50:32.115,759.735
35,4 Jun 2027 04:13:59.097,4 Jun 2027 04:26:22.661,743.564
36,4 Jun 2027 05:53:31.949,4 Jun 2027 06:01:11.759,459.810
37,4 Jun 2027 14:14:14.417,4 Jun 2027 14:20:44.341,389.924
38,4 Jun 2027 15:48:44.824,4 Jun 2027 16:00:53.839,729.015
39,4 Jun 2027 17:24:32.201,4 Jun 2027 17:37:18.909,766.708
40,4 Jun 2027 19:00:36.619,4 Jun 2027 19:11:17.425,640.806
41,4 Jun 2027 20:36:39.317,4 Jun 2027 20:43:25.265,405.949
42,4 Jun 2027 22:11:39.214,4 Jun 2027 22:15:24.916,225.703
43,4 Jun 2027 23:43:37.420,4 Jun 2027 23:50:26.771,409.350
44,5 Jun 2027 01:15:46.352,5 Jun 2027 01:26:29.652,643.300
45,5 Jun 2027 02:49:46.583,5 Jun 2027 03:02:33.976,767.393
46,5 Jun 2027 04:26:13.844,5 Jun 2027 04:38:20.943,727.099
47,5 Jun 2027 06:06:28.126,5 Jun 2027 06:12:48.687,380.561
48,5 Jun 2027 14:25:52.286,5 Jun 2027 14:33:39.290,467.003
49,5 Jun 2027 16:00:43.190,5 Jun 2027 16:13:08.260,745.071
50,5 Jun 2027 17:36:34.080,5 Jun 2027 17:49:12.874,758.793
51,5 Jun 2027 19:12:39.302,5 Jun 2027 19:22:55.307,616.006
52,5 Jun 2027 20:48:39.829,5 Jun 2027 20:54:53.446,373.616
53,5 Jun 2027 22:23:19.056,5 Jun 2027 22:27:09.514,230.458
54,5 Jun 2027 23:55:06.184,6 Jun 2027 00:02:27.991,441.807
55,6 Jun 2027 01:27:26.220,6 Jun 2027 01:38:32.336,666.117
56,6 Jun 2027 03:01:43.062,6 Jun 2027 03:14:35.583,772.522
57,6 Jun 2027 04:38:31.755,6 Jun 2027 04:50:18.345,706.590
58,6 Jun 2027 06:19:41.081,6 Jun 2027 06:24:11.723,270.642
59,6 Jun 2027 14:37:36.719,6 Jun 2027 14:46:24.895,528.175
60,6 Jun 2027 16:12:42.275,6 Jun 2027 16:25:19.732,757.457
61,6 Jun 2027 17:48:36.165,6 Jun 2027 18:01:04.634,748.469
62,6 Jun 2027 19:24:41.949,6 Jun 2027 19:34:31.491,589.542
63,6 Jun 2027 21:00:39.471,6 Jun 2027 21:06:21.466,341.995
64,6 Jun 2027 22:34:54.974,6 Jun 2027 22:38:58.207,243.233
65,7 Jun 2027 00:06:35.774,7 Jun 2027 00:14:29.668,473.894
66,7 Jun 2027 01:39:07.966,7 Jun 2027 01:50:34.994,687.029
67,7 Jun 2027 03:13:41.875,7 Jun 2027 03:26:36.911,775.036
68,7 Jun 2027 04:50:53.073,7 Jun 2027 05:02:14.679,681.606
69,7 Jun 2027 14:49:25.293,7 Jun 2027 14:59:03.679,578.386
70,7 Jun 2027 16:24:41.968,7 Jun 2027 16:37:28.396,766.428
71,7 Jun 2027 18:00:38.424,7 Jun 2027 18:12:54.233,735.809
72,7 Jun 2027 19:36:44.506,7 Jun 2027 19:46:06.055,561.549
73,7 Jun 2027 21:12:37.929,7 Jun 2027 21:17:49.763,311.833
74,7 Jun 2027 22:46:27.717,7 Jun 2027 22:50:50.411,262.694
75,8 Jun 2027 00:18:06.410,8 Jun 2027 00:26:31.694,505.284
76,8 Jun 2027 01:50:51.646,8 Jun 2027 02:02:37.586,705.940
77,8 Jun 2027 03:25:43.103,8 Jun 2027 03:38:37.897,774.795
78,8 Jun 2027 05:03:18.119,8 Jun 2027 05:14:09.684,651.565
79,8 Jun 2027 15:01:16.727,8 Jun 2027 15:11:36.989,620.262
80,8 Jun 2027 16:36:42.177,8 Jun 2027 16:49:34.380,772.204
81,8 Jun 2027 18:12:40.830,8 Jun 2027 18:24:41.729,720.899
82,8 Jun 2027 19:48:46.944,8 Jun 2027 19:57:39.133,532.189
83,8 Jun 2027 21:24:34.778,8 Jun 2027 21:29:18.901,284.123
84,8 Jun 2027 22:57:58.173,8 Jun 2027 23:02:45.381,287.207
85,9 Jun 2027 00:29:38.267,9 Jun 2027 00:38:33.971,535.704
86,9 Jun 2027 02:02:37.331,9 Jun 2027 02:14:40.095,722.764
87,9 Jun 2027 03:37:46.816,9 Jun 2027 03:50:38.501,771.685
88,9 Jun 2027 05:15:47.299,9 Jun 2027 05:26:03.018,615.720
89,9 Jun 2027 15:13:10.281,9 Jun 2027 15:24:05.661,655.380
90,9 Jun 2027 16:48:42.831,9 Jun 2027 17:01:37.799,774.968
91,9 Jun 2027 18:24:43.343,9 Jun 2027 18:36:27.175,703.832
92,9 Jun 2027 20:00:49.185,9 Jun 2027 20:09:10.840,501.656
93,9 Jun 2027 21:36:29.458,9 Jun 2027 21:40:49.589,260.132
94,9 Jun 2027 23:09:27.171,9 Jun 2027 23:14:42.455,315.284
95,10 Jun 2027 00:41:11.507,10 Jun 2027 00:50:36.424,564.918
96,10 Jun 2027 02:14:25.072,10 Jun 2027 02:26:42.479,737.407
97,10 Jun 2027 03:49:53.117,10 Jun 2027 04:02:38.654,765.536
98,10 Jun 2027 05:28:21.205,10 Jun 2027 05:37:54.164,572.959
99,10 Jun 2027 13:52:28.031,10 Jun 2027 13:53:46.207,78.176
100,10 Jun 2027 15:25:05.463,10 Jun 2027 15:36:30.247,684.784
101,10 Jun 2027 17:00:43.865,10 Jun 2027 17:13:38.738,774.874
102,10 Jun 2027 18:36:45.946,10 Jun 2027 18:48:10.628,684.682
103,10 Jun 2027 20:12:51.169,10 Jun 2027 20:20:41.347,470.178
104,10 Jun 2027 21:48:21.271,10 Jun 2027 21:52:22.668,241.397
105,10 Jun 2027 23:20:55.402,10 Jun 2027 23:26:41.074,345.672
106,11 Jun 2027 00:52:46.256,11 Jun 2027 01:02:39.001,592.745
107,11 Jun 2027 02:26:14.921,11 Jun 2027 02:38:44.724,749.803
108,11 Jun 2027 04:02:02.100,11 Jun 2027 04:14:38.277,756.177
109,11 Jun 2027 05:41:00.708,11 Jun 2027 05:49:42.318,521.610
110,11 Jun 2027 14:03:03.351,11 Jun 2027 14:07:49.491,286.141
111,11 Jun 2027 15:37:01.933,11 Jun 2027 15:48:51.153,709.220
112,11 Jun 2027 17:12:45.220,11 Jun 2027 17:25:37.282,772.063
113,11 Jun 2027 18:48:48.607,11 Jun 2027 18:59:52.150,663.543
114,11 Jun 2027 20:24:52.798,11 Jun 2027 20:32:10.833,438.035
115,11 Jun 2027 22:00:09.504,11 Jun 2027 22:03:59.027,229.523
116,11 Jun 2027 23:32:23.415,11 Jun 2027 23:38:40.837,377.422
117,12 Jun 2027 01:04:22.629,12 Jun 2027 01:14:41.648,619.020
118,12 Jun 2027 02:38:06.933,12 Jun 2027 02:50:46.784,759.851
119,12 Jun 2027 04:14:13.910,12 Jun 2027 04:26:37.283,743.373
120,12 Jun 2027 05:53:47.246,12 Jun 2027 06:01:26.143,458.897
121,12 Jun 2027 14:14:28.744,12 Jun 2027 14:20:59.738,390.993
122,12 Jun 2027 15:48:59.447,12 Jun 2027 16:01:08.681,729.234
123,12 Jun 2027 17:24:46.864,12 Jun 2027 17:37:33.490,766.626
124,12 Jun 2027 19:00:51.287,12 Jun 2027 19:11:31.806,640.518
125,12 Jun 2027 20:36:53.949,12 Jun 2027 20:43:39.527,405.578
126,12 Jun 2027 22:11:53.583,12 Jun 2027 22:15:39.379,225.796
127,12 Jun 2027 23:43:51.645,12 Jun 2027 23:50:41.446,409.801
128,13 Jun 2027 01:16:00.722,13 Jun 2027 01:26:44.337,643.615
129,13 Jun 2027 02:50:01.165,13 Jun 2027 03:02:48.642,767.477
130,13 Jun 2027 04:26:28.695,13 Jun 2027 04:38:35.552,726.857
131,13 Jun 2027 06:06:43.582,13 Jun 2027 06:13:02.948,379.365
132,13 Jun 2027 14:26:06.716,13 Jun 2027 14:33:54.546,467.829
133,13 Jun 2027 16:00:57.821,13 Jun 2027 16:13:23.063,745.242
134,13 Jun 2027 17:36:48.745,13 Jun 2027 17:49:27.427,758.682
135,13 Jun 2027 19:12:53.967,13 Jun 2027 19:23:09.667,615.700
136,13 Jun 2027 20:48:54.448,13 Jun 2027 20:55:07.707,373.260
137,13 Jun 2027 22:23:33.372,13 Jun 2027 22:27:24.033,230.661
138,13 Jun 2027 23:55:20.417,14 Jun 2027 00:00:01.000,280.583
