dataset/facility_timing/facility_Facility-Magadan2/Magadan2-To-KinoSat_110204.csv

Acces,Start Time (UTCG),Stop Time (UTCG),Duration (sec)
1,1 Jun 2027 00:53:33.365,1 Jun 2027 01:06:28.331,774.966
2,1 Jun 2027 02:31:05.801,1 Jun 2027 02:42:00.911,655.110
3,1 Jun 2027 12:29:07.835,1 Jun 2027 12:39:24.428,616.594
4,1 Jun 2027 14:04:32.616,1 Jun 2027 14:17:24.414,771.798
5,1 Jun 2027 15:40:31.162,1 Jun 2027 15:52:33.559,722.397
6,1 Jun 2027 17:16:37.420,1 Jun 2027 17:25:32.284,534.864
7,1 Jun 2027 18:52:26.196,1 Jun 2027 18:57:12.026,285.829
8,1 Jun 2027 20:25:52.261,1 Jun 2027 20:30:35.809,283.548
9,1 Jun 2027 21:57:31.767,1 Jun 2027 22:06:24.048,532.281
10,1 Jun 2027 23:30:29.270,1 Jun 2027 23:42:30.298,721.027
11,2 Jun 2027 01:05:36.837,2 Jun 2027 01:18:29.014,772.177
12,2 Jun 2027 02:43:34.554,2 Jun 2027 02:53:54.480,619.927
13,2 Jun 2027 12:41:01.241,2 Jun 2027 12:51:53.567,652.326
14,2 Jun 2027 14:16:33.265,2 Jun 2027 14:29:28.107,774.841
15,2 Jun 2027 15:52:33.704,2 Jun 2027 16:04:19.215,705.510
16,2 Jun 2027 17:28:39.736,2 Jun 2027 17:37:04.101,504.365
17,2 Jun 2027 19:04:21.210,2 Jun 2027 19:08:42.460,261.250
18,2 Jun 2027 20:37:21.333,2 Jun 2027 20:42:32.759,311.426
19,2 Jun 2027 22:09:04.848,2 Jun 2027 22:18:26.528,561.679
20,2 Jun 2027 23:42:16.808,2 Jun 2027 23:54:32.732,735.924
21,3 Jun 2027 01:17:42.890,3 Jun 2027 01:30:29.253,766.363
22,3 Jun 2027 02:56:07.968,3 Jun 2027 03:05:45.930,577.962
23,3 Jun 2027 12:52:56.315,3 Jun 2027 13:04:18.569,682.254
24,3 Jun 2027 14:28:34.298,3 Jun 2027 14:41:29.309,775.011
25,3 Jun 2027 16:04:36.342,3 Jun 2027 16:16:02.868,686.526
26,3 Jun 2027 17:40:41.807,3 Jun 2027 17:48:34.698,472.891
27,3 Jun 2027 19:16:13.428,3 Jun 2027 19:20:15.197,241.770
28,3 Jun 2027 20:48:49.576,3 Jun 2027 20:54:31.308,341.731
29,3 Jun 2027 22:20:39.432,3 Jun 2027 22:30:29.136,589.704
30,3 Jun 2027 23:54:06.451,4 Jun 2027 00:06:35.029,748.579
31,4 Jun 2027 01:29:51.615,4 Jun 2027 01:42:28.976,757.361
32,4 Jun 2027 03:08:46.864,4 Jun 2027 03:17:34.495,527.631
33,4 Jun 2027 11:30:58.091,4 Jun 2027 11:35:32.073,273.982
34,4 Jun 2027 13:04:52.706,4 Jun 2027 13:16:39.853,707.147
35,4 Jun 2027 14:40:35.659,4 Jun 2027 14:53:28.106,772.447
36,4 Jun 2027 16:16:39.041,4 Jun 2027 16:27:44.579,665.538
37,4 Jun 2027 17:52:43.538,4 Jun 2027 18:00:04.245,440.707
38,4 Jun 2027 19:28:02.118,4 Jun 2027 19:31:51.147,229.029
39,4 Jun 2027 21:00:17.556,4 Jun 2027 21:06:31.031,373.476
40,4 Jun 2027 22:32:15.632,4 Jun 2027 22:42:31.817,616.185
41,5 Jun 2027 00:05:58.254,5 Jun 2027 00:18:37.145,758.891
42,5 Jun 2027 01:42:03.157,5 Jun 2027 01:54:28.083,744.927
43,5 Jun 2027 03:21:32.596,5 Jun 2027 03:29:18.912,466.316
44,5 Jun 2027 11:42:21.669,5 Jun 2027 11:48:44.496,382.827
45,5 Jun 2027 13:16:50.162,5 Jun 2027 13:28:57.729,727.566
46,5 Jun 2027 14:52:37.315,5 Jun 2027 15:05:24.553,767.238
47,5 Jun 2027 16:28:41.764,5 Jun 2027 16:39:24.413,642.649
48,5 Jun 2027 18:04:44.811,5 Jun 2027 18:11:32.969,408.158
49,5 Jun 2027 19:39:46.672,5 Jun 2027 19:43:31.057,224.385
50,5 Jun 2027 21:11:45.717,5 Jun 2027 21:18:31.623,405.906
51,5 Jun 2027 22:43:53.548,5 Jun 2027 22:54:34.544,640.997
52,6 Jun 2027 00:17:52.274,6 Jun 2027 00:30:39.062,766.788
53,6 Jun 2027 01:54:17.656,6 Jun 2027 02:06:26.474,728.817
54,6 Jun 2027 03:34:27.724,6 Jun 2027 03:40:56.718,388.994
55,6 Jun 2027 11:53:58.861,6 Jun 2027 12:01:40.435,461.573
56,6 Jun 2027 13:28:48.495,6 Jun 2027 13:41:12.441,743.946
57,6 Jun 2027 15:04:39.209,6 Jun 2027 15:17:18.731,759.522
58,6 Jun 2027 16:40:44.492,6 Jun 2027 16:51:02.441,617.950
59,6 Jun 2027 18:16:45.453,6 Jun 2027 18:23:01.144,375.691
60,6 Jun 2027 19:51:26.888,6 Jun 2027 19:55:15.298,228.410
61,6 Jun 2027 21:23:14.400,6 Jun 2027 21:30:32.844,438.445
62,6 Jun 2027 22:55:33.257,6 Jun 2027 23:06:37.270,664.013
63,7 Jun 2027 00:29:48.566,7 Jun 2027 00:42:40.727,772.161
64,7 Jun 2027 02:06:35.306,7 Jun 2027 02:18:23.998,708.692
65,7 Jun 2027 03:47:38.549,7 Jun 2027 03:52:21.704,283.154
66,7 Jun 2027 12:05:42.914,7 Jun 2027 12:14:26.725,523.810
67,7 Jun 2027 13:40:47.559,7 Jun 2027 13:53:24.178,756.619
68,7 Jun 2027 15:16:41.317,7 Jun 2027 15:29:10.685,749.368
69,7 Jun 2027 16:52:47.189,7 Jun 2027 17:02:38.757,591.568
70,7 Jun 2027 18:28:45.254,7 Jun 2027 18:34:29.114,343.860
71,7 Jun 2027 20:03:03.097,7 Jun 2027 20:07:03.699,240.602
72,7 Jun 2027 21:34:43.884,7 Jun 2027 21:42:34.542,470.658
73,7 Jun 2027 23:07:14.837,7 Jun 2027 23:18:39.968,685.131
74,8 Jun 2027 00:41:47.191,8 Jun 2027 00:54:42.119,774.928
75,8 Jun 2027 02:18:56.339,8 Jun 2027 02:30:20.476,684.137
76,8 Jun 2027 04:01:46.816,8 Jun 2027 04:02:52.216,65.400
77,8 Jun 2027 12:17:31.241,8 Jun 2027 12:27:06.042,574.801
78,8 Jun 2027 13:52:47.240,8 Jun 2027 14:05:33.097,765.856
79,8 Jun 2027 15:28:43.601,8 Jun 2027 15:41:00.475,736.873
80,8 Jun 2027 17:04:49.807,8 Jun 2027 17:14:13.442,563.635
81,8 Jun 2027 18:40:43.907,8 Jun 2027 18:45:57.310,313.402
82,8 Jun 2027 20:14:36.039,8 Jun 2027 20:18:55.693,259.654
83,8 Jun 2027 21:46:14.398,8 Jun 2027 21:54:36.590,502.192
84,8 Jun 2027 23:18:58.352,8 Jun 2027 23:30:42.604,704.252
85,9 Jun 2027 00:53:48.228,9 Jun 2027 01:06:43.177,774.948
86,9 Jun 2027 02:31:21.070,9 Jun 2027 02:42:15.651,654.581
87,9 Jun 2027 12:29:22.516,9 Jun 2027 12:39:39.798,617.281
88,9 Jun 2027 14:04:47.445,9 Jun 2027 14:17:39.324,771.879
89,9 Jun 2027 15:40:46.037,9 Jun 2027 15:52:48.152,722.116
90,9 Jun 2027 17:16:52.303,9 Jun 2027 17:25:46.625,534.322
91,9 Jun 2027 18:52:40.997,9 Jun 2027 18:57:26.292,285.295
92,9 Jun 2027 20:26:06.610,9 Jun 2027 20:30:50.524,283.914
93,9 Jun 2027 21:57:46.135,9 Jun 2027 22:06:38.897,532.761
94,9 Jun 2027 23:30:43.872,9 Jun 2027 23:42:45.159,721.287
95,10 Jun 2027 01:05:51.742,10 Jun 2027 01:18:43.849,772.107
96,10 Jun 2027 02:43:49.899,10 Jun 2027 02:54:09.193,619.294
97,10 Jun 2027 12:41:15.957,10 Jun 2027 12:52:08.858,652.901
98,10 Jun 2027 14:16:48.103,10 Jun 2027 14:29:42.973,774.870
99,10 Jun 2027 15:52:48.580,10 Jun 2027 16:04:33.773,705.193
100,10 Jun 2027 17:28:54.616,10 Jun 2027 17:37:18.418,503.802
101,10 Jun 2027 19:04:35.972,10 Jun 2027 19:08:56.756,260.784
102,10 Jun 2027 20:37:35.656,10 Jun 2027 20:42:47.512,311.856
103,10 Jun 2027 22:09:19.239,10 Jun 2027 22:18:41.382,562.143
104,10 Jun 2027 23:42:31.442,10 Jun 2027 23:54:47.593,736.151
105,11 Jun 2027 01:17:57.839,11 Jun 2027 01:30:44.081,766.242
106,11 Jun 2027 02:56:23.392,11 Jun 2027 03:06:00.602,577.210
107,11 Jun 2027 11:21:03.362,11 Jun 2027 11:21:18.148,14.786
108,11 Jun 2027 12:53:11.058,11 Jun 2027 13:04:33.792,682.734
109,11 Jun 2027 14:28:49.143,11 Jun 2027 14:41:44.133,774.990
110,11 Jun 2027 16:04:51.220,11 Jun 2027 16:16:17.392,686.172
111,11 Jun 2027 17:40:56.684,11 Jun 2027 17:48:48.995,472.312
112,11 Jun 2027 19:16:28.136,11 Jun 2027 19:20:29.540,241.404
113,11 Jun 2027 20:49:03.884,11 Jun 2027 20:54:46.090,342.205
114,11 Jun 2027 22:20:53.847,11 Jun 2027 22:30:43.994,590.147
115,11 Jun 2027 23:54:21.120,12 Jun 2027 00:06:49.889,748.769
116,12 Jun 2027 01:30:06.611,12 Jun 2027 01:42:43.795,757.184
117,12 Jun 2027 03:09:02.395,12 Jun 2027 03:17:49.111,526.716
118,12 Jun 2027 11:31:12.053,12 Jun 2027 11:35:48.393,276.341
119,12 Jun 2027 13:05:07.477,12 Jun 2027 13:16:55.015,707.538
120,12 Jun 2027 14:40:50.511,12 Jun 2027 14:53:42.889,772.378
121,12 Jun 2027 16:16:53.920,12 Jun 2027 16:27:59.070,665.150
122,12 Jun 2027 17:52:58.408,12 Jun 2027 18:00:18.526,440.117
123,12 Jun 2027 19:28:16.759,12 Jun 2027 19:32:05.552,228.792
124,12 Jun 2027 21:00:31.858,12 Jun 2027 21:06:45.836,373.978
125,12 Jun 2027 22:32:30.074,12 Jun 2027 22:42:46.679,616.605
126,13 Jun 2027 00:06:12.961,13 Jun 2027 00:18:52.002,759.042
127,13 Jun 2027 01:42:18.200,13 Jun 2027 01:54:42.892,744.692
128,13 Jun 2027 03:21:48.259,13 Jun 2027 03:29:33.444,465.185
129,13 Jun 2027 11:42:35.998,13 Jun 2027 11:49:00.401,384.403
130,13 Jun 2027 13:17:04.947,13 Jun 2027 13:29:12.834,727.887
131,13 Jun 2027 14:52:52.172,13 Jun 2027 15:05:39.297,767.125
132,13 Jun 2027 16:28:56.644,13 Jun 2027 16:39:38.873,642.228
133,13 Jun 2027 18:04:59.673,13 Jun 2027 18:11:47.237,407.564
134,13 Jun 2027 19:40:01.237,13 Jun 2027 19:43:45.537,224.300
135,13 Jun 2027 21:12:00.022,13 Jun 2027 21:18:46.445,406.423
136,13 Jun 2027 22:44:08.018,13 Jun 2027 22:54:49.409,641.390
