dataset/facility_timing/facility_Facility-Magadan2/Magadan2-To-KinoSat_110104.csv

Acces,Start Time (UTCG),Stop Time (UTCG),Duration (sec)
1,1 Jun 2027 00:58:47.968,1 Jun 2027 01:11:14.347,746.379
2,1 Jun 2027 02:38:13.714,1 Jun 2027 02:46:06.973,473.259
3,1 Jun 2027 10:59:10.273,1 Jun 2027 11:05:24.643,374.370
4,1 Jun 2027 12:33:36.409,1 Jun 2027 12:45:42.261,725.852
5,1 Jun 2027 14:09:23.260,1 Jun 2027 14:22:11.094,767.834
6,1 Jun 2027 15:45:27.694,1 Jun 2027 15:56:12.497,644.804
7,1 Jun 2027 17:21:31.040,1 Jun 2027 17:28:21.952,410.912
8,1 Jun 2027 18:56:34.947,1 Jun 2027 19:00:18.471,223.524
9,1 Jun 2027 20:28:35.130,1 Jun 2027 20:35:17.414,402.284
10,1 Jun 2027 22:00:41.811,1 Jun 2027 22:11:20.297,638.486
11,1 Jun 2027 23:34:38.886,1 Jun 2027 23:47:24.981,766.095
12,2 Jun 2027 01:11:02.192,2 Jun 2027 01:23:12.843,730.651
13,2 Jun 2027 02:51:07.743,2 Jun 2027 02:57:45.667,397.925
14,2 Jun 2027 11:10:46.625,2 Jun 2027 11:18:21.756,455.131
15,2 Jun 2027 12:45:34.693,2 Jun 2027 12:57:57.294,742.601
16,2 Jun 2027 14:21:25.162,2 Jun 2027 14:34:05.503,760.341
17,2 Jun 2027 15:57:30.457,2 Jun 2027 16:07:50.696,620.238
18,2 Jun 2027 17:33:31.805,2 Jun 2027 17:39:50.141,378.336
19,2 Jun 2027 19:08:15.585,2 Jun 2027 19:12:02.305,226.721
20,2 Jun 2027 20:40:03.729,2 Jun 2027 20:47:18.625,434.896
21,2 Jun 2027 22:12:21.342,2 Jun 2027 22:23:23.055,661.713
22,2 Jun 2027 23:46:34.967,2 Jun 2027 23:59:26.705,771.738
23,3 Jun 2027 01:23:19.545,3 Jun 2027 01:35:10.490,710.945
24,3 Jun 2027 03:04:16.443,3 Jun 2027 03:09:12.552,296.109
25,3 Jun 2027 11:22:30.208,3 Jun 2027 11:31:08.842,518.634
26,3 Jun 2027 12:57:33.722,3 Jun 2027 13:10:09.332,755.610
27,3 Jun 2027 14:33:27.282,3 Jun 2027 14:45:57.679,750.398
28,3 Jun 2027 16:09:33.194,3 Jun 2027 16:19:27.170,593.975
29,3 Jun 2027 17:45:31.752,3 Jun 2027 17:51:18.083,346.331
30,3 Jun 2027 19:19:52.140,3 Jun 2027 19:23:50.358,238.218
31,3 Jun 2027 20:51:33.109,3 Jun 2027 20:59:20.324,467.215
32,3 Jun 2027 22:24:02.741,3 Jun 2027 22:35:25.790,683.049
33,3 Jun 2027 23:58:33.377,4 Jun 2027 00:11:28.155,774.779
34,4 Jun 2027 01:35:40.261,4 Jun 2027 01:47:07.112,686.852
35,4 Jun 2027 03:18:08.475,4 Jun 2027 03:19:59.067,110.591
36,4 Jun 2027 11:34:18.233,4 Jun 2027 11:43:48.774,570.540
37,4 Jun 2027 13:09:33.377,4 Jun 2027 13:22:18.536,765.158
38,4 Jun 2027 14:45:29.581,4 Jun 2027 14:57:47.684,738.103
39,4 Jun 2027 16:21:35.859,4 Jun 2027 16:31:02.000,566.141
40,4 Jun 2027 17:57:30.590,4 Jun 2027 18:02:46.199,315.609
41,4 Jun 2027 19:31:25.331,4 Jun 2027 19:35:42.085,256.754
42,4 Jun 2027 21:03:03.501,4 Jun 2027 21:11:22.381,498.880
43,4 Jun 2027 22:35:46.070,4 Jun 2027 22:47:28.467,702.397
44,5 Jun 2027 00:10:34.190,5 Jun 2027 00:23:29.277,775.087
45,5 Jun 2027 01:48:04.640,5 Jun 2027 01:59:02.459,657.819
46,5 Jun 2027 11:46:09.302,5 Jun 2027 11:56:23.040,613.737
47,5 Jun 2027 13:21:33.565,5 Jun 2027 13:34:25.033,771.468
48,5 Jun 2027 14:57:32.033,5 Jun 2027 15:09:35.568,723.536
49,5 Jun 2027 16:33:38.406,5 Jun 2027 16:42:35.312,536.906
50,5 Jun 2027 18:09:27.912,5 Jun 2027 18:14:15.039,287.127
51,5 Jun 2027 19:42:56.058,5 Jun 2027 19:47:36.728,280.670
52,5 Jun 2027 21:14:35.103,5 Jun 2027 21:23:24.705,529.602
53,5 Jun 2027 22:47:31.401,5 Jun 2027 22:59:31.059,719.658
54,6 Jun 2027 00:22:37.483,6 Jun 2027 00:35:30.018,772.536
55,6 Jun 2027 02:00:33.076,6 Jun 2027 02:10:56.210,623.134
56,6 Jun 2027 11:58:02.596,6 Jun 2027 12:08:52.541,649.946
57,6 Jun 2027 13:33:34.213,6 Jun 2027 13:46:28.941,774.727
58,6 Jun 2027 15:09:34.600,6 Jun 2027 15:21:21.384,706.784
59,6 Jun 2027 16:45:40.781,6 Jun 2027 16:54:07.218,506.437
60,6 Jun 2027 18:21:23.178,6 Jun 2027 18:25:45.286,262.108
61,6 Jun 2027 19:54:25.183,6 Jun 2027 19:59:33.594,308.410
62,6 Jun 2027 21:26:08.062,6 Jun 2027 21:35:27.211,559.149
63,6 Jun 2027 22:59:18.780,6 Jun 2027 23:11:33.534,734.755
64,7 Jun 2027 00:34:43.347,7 Jun 2027 00:47:30.326,766.979
65,7 Jun 2027 02:13:06.117,7 Jun 2027 02:22:47.891,581.775
66,7 Jun 2027 12:09:57.589,7 Jun 2027 12:21:17.868,680.280
67,7 Jun 2027 13:45:35.248,7 Jun 2027 13:58:30.349,775.101
68,7 Jun 2027 15:21:37.265,7 Jun 2027 15:33:05.197,687.932
69,7 Jun 2027 16:57:42.918,7 Jun 2027 17:05:37.887,474.969
70,7 Jun 2027 18:33:15.700,7 Jun 2027 18:37:17.775,242.076
71,7 Jun 2027 20:05:53.431,7 Jun 2027 20:11:32.091,338.659
72,7 Jun 2027 21:37:42.520,7 Jun 2027 21:47:29.848,587.327
73,7 Jun 2027 23:11:08.264,7 Jun 2027 23:23:35.876,747.612
74,8 Jun 2027 00:46:51.877,8 Jun 2027 00:59:30.123,758.246
75,8 Jun 2027 02:25:44.559,8 Jun 2027 02:34:36.762,532.203
76,8 Jun 2027 10:48:02.553,8 Jun 2027 10:52:26.757,264.204
77,8 Jun 2027 12:21:53.922,8 Jun 2027 12:33:39.448,705.526
78,8 Jun 2027 13:57:36.616,8 Jun 2027 14:10:29.343,772.727
79,8 Jun 2027 15:33:39.993,8 Jun 2027 15:44:47.056,667.063
80,8 Jun 2027 17:09:44.724,8 Jun 2027 17:17:07.486,442.762
81,8 Jun 2027 18:45:04.731,8 Jun 2027 18:48:53.413,228.683
82,8 Jun 2027 20:17:21.384,8 Jun 2027 20:23:31.796,370.412
83,8 Jun 2027 21:49:18.582,8 Jun 2027 21:59:32.560,613.979
84,8 Jun 2027 23:22:59.907,8 Jun 2027 23:35:38.042,758.135
85,9 Jun 2027 00:59:03.215,9 Jun 2027 01:11:29.317,746.102
86,9 Jun 2027 02:38:29.699,9 Jun 2027 02:46:21.620,471.920
87,9 Jun 2027 10:59:24.611,9 Jun 2027 11:05:40.995,376.384
88,9 Jun 2027 12:33:51.337,9 Jun 2027 12:45:57.594,726.258
89,9 Jun 2027 14:09:38.283,9 Jun 2027 14:22:25.984,767.701
90,9 Jun 2027 15:45:42.749,9 Jun 2027 15:56:27.031,644.282
91,9 Jun 2027 17:21:46.083,9 Jun 2027 17:28:36.236,410.153
92,9 Jun 2027 18:56:49.641,9 Jun 2027 19:00:32.993,223.352
93,9 Jun 2027 20:28:49.480,9 Jun 2027 20:35:32.376,402.895
94,9 Jun 2027 22:00:56.356,9 Jun 2027 22:11:35.322,638.966
95,9 Jun 2027 23:34:53.762,9 Jun 2027 23:47:39.999,766.237
96,10 Jun 2027 01:11:17.495,10 Jun 2027 01:23:27.798,730.302
97,10 Jun 2027 02:51:23.955,10 Jun 2027 02:58:00.150,396.196
98,10 Jun 2027 11:11:01.166,10 Jun 2027 11:18:37.841,456.675
99,10 Jun 2027 12:45:49.641,10 Jun 2027 12:58:12.563,742.922
100,10 Jun 2027 14:21:40.191,10 Jun 2027 14:34:20.342,760.150
101,10 Jun 2027 15:57:45.514,10 Jun 2027 16:08:05.190,619.676
102,10 Jun 2027 17:33:46.837,10 Jun 2027 17:40:04.418,377.581
103,10 Jun 2027 19:08:30.189,10 Jun 2027 19:12:16.924,226.735
104,10 Jun 2027 20:40:18.092,10 Jun 2027 20:47:33.606,435.515
105,10 Jun 2027 22:12:35.928,10 Jun 2027 22:23:38.082,662.154
106,10 Jun 2027 23:46:49.894,10 Jun 2027 23:59:41.720,771.826
107,11 Jun 2027 01:23:34.920,11 Jun 2027 01:35:25.425,710.505
108,11 Jun 2027 03:04:33.065,11 Jun 2027 03:09:26.682,293.617
109,11 Jun 2027 11:22:44.875,11 Jun 2027 11:31:24.744,519.870
110,11 Jun 2027 12:57:48.685,11 Jun 2027 13:10:24.539,755.854
111,11 Jun 2027 14:33:42.316,11 Jun 2027 14:46:12.472,750.156
112,11 Jun 2027 16:09:48.252,11 Jun 2027 16:19:41.628,593.376
113,11 Jun 2027 17:45:46.766,11 Jun 2027 17:51:32.356,345.589
114,11 Jun 2027 19:20:06.658,11 Jun 2027 19:24:05.068,238.410
115,11 Jun 2027 20:51:47.486,11 Jun 2027 20:59:35.319,467.833
116,11 Jun 2027 22:24:17.363,11 Jun 2027 22:35:40.819,683.456
117,11 Jun 2027 23:58:48.353,12 Jun 2027 00:11:43.166,774.813
118,12 Jun 2027 01:35:55.708,12 Jun 2027 01:47:22.025,686.317
119,12 Jun 2027 03:18:27.544,12 Jun 2027 03:20:10.815,103.271
120,12 Jun 2027 11:34:32.981,12 Jun 2027 11:44:04.541,571.560
121,12 Jun 2027 13:09:48.355,12 Jun 2027 13:22:33.684,765.329
122,12 Jun 2027 14:45:44.620,12 Jun 2027 14:58:02.431,737.811
123,12 Jun 2027 16:21:50.916,12 Jun 2027 16:31:16.424,565.509
124,12 Jun 2027 17:57:45.580,12 Jun 2027 18:03:00.478,314.898
125,12 Jun 2027 19:31:39.780,12 Jun 2027 19:35:56.872,257.091
126,12 Jun 2027 21:03:17.898,12 Jun 2027 21:11:37.387,499.489
127,12 Jun 2027 22:36:00.733,12 Jun 2027 22:47:43.494,702.761
128,13 Jun 2027 00:10:49.217,13 Jun 2027 00:23:44.282,775.065
129,13 Jun 2027 01:48:20.168,13 Jun 2027 01:59:17.344,657.177
130,13 Jun 2027 11:46:24.108,13 Jun 2027 11:56:38.697,614.589
131,13 Jun 2027 13:21:48.555,13 Jun 2027 13:34:40.126,771.571
132,13 Jun 2027 14:57:47.077,13 Jun 2027 15:09:50.272,723.195
133,13 Jun 2027 16:33:53.462,13 Jun 2027 16:42:49.706,536.243
134,13 Jun 2027 18:09:42.869,13 Jun 2027 18:14:29.337,286.468
135,13 Jun 2027 19:43:10.458,13 Jun 2027 19:47:51.577,281.119
136,13 Jun 2027 21:14:49.524,13 Jun 2027 21:23:39.720,530.196
137,13 Jun 2027 22:47:46.105,13 Jun 2027 22:59:46.090,719.985
