dataset/facility_timing/facility_Facility-Magadan2/Magadan2-To-KinoSat_110806.csv

Acces,Start Time (UTCG),Stop Time (UTCG),Duration (sec)
1,1 Jun 2027 00:15:00.098,1 Jun 2027 00:20:17.178,317.080
2,1 Jun 2027 01:46:44.667,1 Jun 2027 01:56:11.817,567.150
3,1 Jun 2027 03:19:59.459,1 Jun 2027 03:32:17.979,738.520
4,1 Jun 2027 04:55:29.141,1 Jun 2027 05:08:14.035,764.894
5,1 Jun 2027 06:33:59.733,1 Jun 2027 06:43:28.787,569.054
6,1 Jun 2027 14:57:45.665,1 Jun 2027 14:59:42.794,117.129
7,1 Jun 2027 16:30:40.338,1 Jun 2027 16:42:07.703,687.365
8,1 Jun 2027 18:06:19.330,1 Jun 2027 18:19:14.058,774.728
9,1 Jun 2027 19:42:21.644,1 Jun 2027 19:53:44.323,682.679
10,1 Jun 2027 21:18:26.955,1 Jun 2027 21:26:13.764,466.808
11,1 Jun 2027 22:53:56.328,1 Jun 2027 22:57:55.158,238.830
12,2 Jun 2027 00:26:28.245,2 Jun 2027 00:32:15.994,347.749
13,2 Jun 2027 01:58:19.548,2 Jun 2027 02:08:14.448,594.901
14,2 Jun 2027 03:31:49.511,2 Jun 2027 03:44:20.247,750.736
15,2 Jun 2027 05:07:38.395,2 Jun 2027 05:20:13.649,755.254
16,2 Jun 2027 06:46:39.817,2 Jun 2027 06:55:16.678,516.861
17,2 Jun 2027 15:08:34.219,2 Jun 2027 15:13:32.649,298.430
18,2 Jun 2027 16:42:36.949,2 Jun 2027 16:54:28.317,711.368
19,2 Jun 2027 18:18:20.751,2 Jun 2027 18:31:12.405,771.654
20,2 Jun 2027 19:54:24.350,2 Jun 2027 20:05:25.672,661.322
21,2 Jun 2027 21:30:28.597,2 Jun 2027 21:37:43.143,434.547
22,2 Jun 2027 23:05:44.246,2 Jun 2027 23:09:31.830,227.584
23,3 Jun 2027 00:37:56.220,3 Jun 2027 00:44:15.909,379.689
24,3 Jun 2027 02:09:56.067,3 Jun 2027 02:20:17.146,621.079
25,3 Jun 2027 03:43:41.735,3 Jun 2027 03:56:22.332,760.597
26,3 Jun 2027 05:19:50.490,3 Jun 2027 05:32:12.632,742.142
27,3 Jun 2027 06:59:27.106,3 Jun 2027 07:07:00.067,452.961
28,3 Jun 2027 15:20:01.405,3 Jun 2027 15:26:40.919,399.515
29,3 Jun 2027 16:54:34.593,3 Jun 2027 17:06:45.571,730.978
30,3 Jun 2027 18:30:22.458,3 Jun 2027 18:43:08.420,765.962
31,3 Jun 2027 20:06:27.073,3 Jun 2027 20:17:05.160,638.087
32,3 Jun 2027 21:42:29.753,3 Jun 2027 21:49:11.746,401.993
33,3 Jun 2027 23:17:27.956,3 Jun 2027 23:21:12.573,224.617
34,4 Jun 2027 00:49:24.450,4 Jun 2027 00:56:16.643,412.193
35,4 Jun 2027 02:21:34.316,4 Jun 2027 02:32:19.875,645.558
36,4 Jun 2027 03:55:36.183,4 Jun 2027 04:08:24.199,768.016
37,4 Jun 2027 05:32:05.581,4 Jun 2027 05:44:10.866,725.286
38,4 Jun 2027 07:12:24.556,4 Jun 2027 07:18:36.103,371.547
39,4 Jun 2027 15:31:40.220,4 Jun 2027 15:39:34.694,474.474
40,4 Jun 2027 17:06:33.078,4 Jun 2027 17:18:59.706,746.628
41,4 Jun 2027 18:42:24.395,4 Jun 2027 18:55:02.169,757.774
42,4 Jun 2027 20:18:29.794,4 Jun 2027 20:28:42.864,613.070
43,4 Jun 2027 21:54:30.247,4 Jun 2027 22:00:39.870,369.622
44,4 Jun 2027 23:29:07.358,4 Jun 2027 23:32:57.650,230.292
45,5 Jun 2027 01:00:53.268,5 Jun 2027 01:08:17.973,444.706
46,5 Jun 2027 02:33:14.382,5 Jun 2027 02:44:22.605,668.223
47,5 Jun 2027 04:07:32.922,5 Jun 2027 04:20:25.821,772.899
48,5 Jun 2027 05:44:23.867,5 Jun 2027 05:56:08.200,704.333
49,5 Jun 2027 07:25:40.104,5 Jun 2027 07:29:56.920,256.816
50,5 Jun 2027 15:43:25.238,5 Jun 2027 15:52:19.507,534.269
51,5 Jun 2027 17:18:32.265,5 Jun 2027 17:31:10.897,758.632
52,5 Jun 2027 18:54:26.538,5 Jun 2027 19:06:53.708,747.170
53,5 Jun 2027 20:30:32.477,5 Jun 2027 20:40:18.864,586.387
54,5 Jun 2027 22:06:29.842,5 Jun 2027 22:12:07.856,338.014
55,5 Jun 2027 23:40:42.868,5 Jun 2027 23:44:46.804,243.936
56,6 Jun 2027 01:12:22.931,6 Jun 2027 01:20:19.750,476.820
57,6 Jun 2027 02:44:56.328,6 Jun 2027 02:56:25.296,688.968
58,6 Jun 2027 04:19:32.004,6 Jun 2027 04:32:27.151,775.148
59,6 Jun 2027 05:56:45.586,6 Jun 2027 06:08:04.448,678.862
60,6 Jun 2027 15:55:14.215,6 Jun 2027 16:04:57.680,583.466
61,6 Jun 2027 17:30:32.054,6 Jun 2027 17:43:19.295,767.241
62,6 Jun 2027 19:06:28.851,6 Jun 2027 19:18:43.093,734.242
63,6 Jun 2027 20:42:35.066,6 Jun 2027 20:51:53.258,558.192
64,6 Jun 2027 22:18:28.217,6 Jun 2027 22:23:36.178,307.961
65,6 Jun 2027 23:52:15.284,6 Jun 2027 23:56:39.404,264.120
66,7 Jun 2027 01:23:53.671,7 Jun 2027 01:32:21.858,508.187
67,7 Jun 2027 02:56:40.221,7 Jun 2027 03:08:27.919,707.698
68,7 Jun 2027 04:31:33.512,7 Jun 2027 04:44:28.136,774.624
69,7 Jun 2027 06:09:11.075,7 Jun 2027 06:19:59.337,648.262
70,7 Jun 2027 16:07:05.949,7 Jun 2027 16:17:30.487,624.537
71,7 Jun 2027 17:42:32.350,7 Jun 2027 17:55:25.023,772.673
72,7 Jun 2027 19:18:31.309,7 Jun 2027 19:30:30.377,719.068
73,7 Jun 2027 20:54:37.530,7 Jun 2027 21:03:26.173,528.643
74,7 Jun 2027 22:30:24.931,7 Jun 2027 22:35:05.403,280.472
75,8 Jun 2027 00:03:45.502,8 Jun 2027 00:08:34.700,289.198
76,8 Jun 2027 01:35:25.653,8 Jun 2027 01:44:24.205,538.552
77,8 Jun 2027 03:08:26.130,8 Jun 2027 03:20:30.455,724.326
78,8 Jun 2027 04:43:37.514,8 Jun 2027 04:56:28.731,771.217
79,8 Jun 2027 06:21:40.751,8 Jun 2027 06:31:52.507,611.755
80,8 Jun 2027 16:18:59.741,8 Jun 2027 16:29:58.724,658.984
81,8 Jun 2027 17:54:33.085,8 Jun 2027 18:07:28.192,775.107
82,8 Jun 2027 19:30:33.869,8 Jun 2027 19:42:15.614,701.744
83,8 Jun 2027 21:06:39.794,8 Jun 2027 21:14:57.729,497.935
84,8 Jun 2027 22:42:19.406,8 Jun 2027 22:46:36.265,256.860
85,9 Jun 2027 00:15:14.342,9 Jun 2027 00:20:32.035,317.693
86,9 Jun 2027 01:46:59.039,9 Jun 2027 01:56:26.720,567.681
87,9 Jun 2027 03:20:14.102,9 Jun 2027 03:32:32.866,738.764
88,9 Jun 2027 04:55:44.120,9 Jun 2027 05:08:28.867,764.747
89,9 Jun 2027 06:34:15.232,9 Jun 2027 06:43:43.423,568.191
90,9 Jun 2027 14:57:58.167,9 Jun 2027 15:00:00.670,122.503
91,9 Jun 2027 16:30:55.120,9 Jun 2027 16:42:22.924,687.803
92,9 Jun 2027 18:06:34.192,9 Jun 2027 18:19:28.889,774.697
93,9 Jun 2027 19:42:36.519,9 Jun 2027 19:53:58.861,682.342
94,9 Jun 2027 21:18:41.798,9 Jun 2027 21:26:28.101,466.303
95,9 Jun 2027 22:54:10.925,9 Jun 2027 22:58:09.623,238.698
96,10 Jun 2027 00:26:42.486,10 Jun 2027 00:32:30.865,348.378
97,10 Jun 2027 01:58:33.949,10 Jun 2027 02:08:29.350,595.401
98,10 Jun 2027 03:32:04.192,10 Jun 2027 03:44:35.128,750.936
99,10 Jun 2027 05:07:53.422,10 Jun 2027 05:20:28.469,755.047
100,10 Jun 2027 06:46:55.429,10 Jun 2027 06:55:31.244,515.815
101,10 Jun 2027 15:08:48.371,10 Jun 2027 15:13:48.824,300.453
102,10 Jun 2027 16:42:51.753,10 Jun 2027 16:54:43.477,711.724
103,10 Jun 2027 18:18:35.615,10 Jun 2027 18:31:27.195,771.580
104,10 Jun 2027 19:54:39.222,10 Jun 2027 20:05:40.177,660.954
105,10 Jun 2027 21:30:43.428,10 Jun 2027 21:37:57.469,434.041
106,10 Jun 2027 23:05:58.767,10 Jun 2027 23:09:46.365,227.598
107,11 Jun 2027 00:38:10.466,11 Jun 2027 00:44:30.792,380.326
108,11 Jun 2027 02:10:10.498,11 Jun 2027 02:20:32.046,621.548
109,11 Jun 2027 03:43:56.454,11 Jun 2027 03:56:37.208,760.754
110,11 Jun 2027 05:20:05.568,11 Jun 2027 05:32:27.437,741.869
111,11 Jun 2027 06:59:42.868,11 Jun 2027 07:07:14.529,451.660
112,11 Jun 2027 15:20:15.838,11 Jun 2027 15:26:56.763,400.925
113,11 Jun 2027 16:54:49.407,11 Jun 2027 17:07:00.676,731.270
114,11 Jun 2027 18:30:37.324,11 Jun 2027 18:43:23.170,765.845
115,11 Jun 2027 20:06:41.943,11 Jun 2027 20:17:19.635,637.692
116,11 Jun 2027 21:42:44.568,11 Jun 2027 21:49:26.064,401.496
117,11 Jun 2027 23:17:42.398,11 Jun 2027 23:21:27.186,224.788
118,12 Jun 2027 00:49:38.706,12 Jun 2027 00:56:31.533,412.828
119,12 Jun 2027 02:21:48.779,12 Jun 2027 02:32:34.774,645.995
120,12 Jun 2027 03:55:50.941,12 Jun 2027 04:08:39.068,768.127
121,12 Jun 2027 05:32:20.713,12 Jun 2027 05:44:25.654,724.941
122,12 Jun 2027 07:12:40.549,12 Jun 2027 07:18:50.381,369.832
123,12 Jun 2027 15:31:54.784,12 Jun 2027 15:39:50.355,475.571
124,12 Jun 2027 17:06:47.903,12 Jun 2027 17:19:14.758,746.856
125,12 Jun 2027 18:42:39.263,12 Jun 2027 18:55:16.880,757.617
126,12 Jun 2027 20:18:44.660,12 Jun 2027 20:28:57.311,612.650
127,12 Jun 2027 21:54:45.043,12 Jun 2027 22:00:54.189,369.146
128,12 Jun 2027 23:29:21.726,12 Jun 2027 23:33:12.338,230.612
129,13 Jun 2027 01:01:07.537,13 Jun 2027 01:08:32.870,445.333
130,13 Jun 2027 02:33:28.878,13 Jun 2027 02:44:37.502,668.624
131,13 Jun 2027 04:07:47.721,13 Jun 2027 04:20:40.681,772.960
132,13 Jun 2027 05:44:39.057,13 Jun 2027 05:56:22.968,703.910
133,13 Jun 2027 07:25:56.599,13 Jun 2027 07:30:10.746,254.146
134,13 Jun 2027 15:43:39.881,13 Jun 2027 15:52:35.041,535.160
135,13 Jun 2027 17:18:47.099,13 Jun 2027 17:31:25.899,758.800
136,13 Jun 2027 18:54:41.407,13 Jun 2027 19:07:08.382,746.975
137,13 Jun 2027 20:30:47.338,13 Jun 2027 20:40:33.285,585.946
138,13 Jun 2027 22:06:44.611,13 Jun 2027 22:12:22.185,337.574
139,13 Jun 2027 23:40:57.176,13 Jun 2027 23:45:01.556,244.380
