dataset/facility_timing/facility_Facility-Magadan2/Magadan2-To-KinoSat_110303.csv

Acces,Start Time (UTCG),Stop Time (UTCG),Duration (sec)
1,1 Jun 2027 00:58:31.733,1 Jun 2027 01:11:18.709,766.976
2,1 Jun 2027 02:34:57.670,1 Jun 2027 02:47:05.964,728.295
3,1 Jun 2027 04:15:08.993,1 Jun 2027 04:21:35.416,386.423
4,1 Jun 2027 12:34:38.172,1 Jun 2027 12:42:21.117,462.945
5,1 Jun 2027 14:09:28.096,1 Jun 2027 14:21:52.325,744.228
6,1 Jun 2027 15:45:18.824,1 Jun 2027 15:57:58.164,759.341
7,1 Jun 2027 17:21:24.051,1 Jun 2027 17:31:41.544,617.493
8,1 Jun 2027 18:57:24.820,1 Jun 2027 19:03:40.161,375.341
9,1 Jun 2027 20:32:05.544,1 Jun 2027 20:35:54.951,229.407
10,1 Jun 2027 22:03:53.071,1 Jun 2027 22:11:12.640,439.568
11,1 Jun 2027 23:36:12.315,1 Jun 2027 23:47:16.986,664.672
12,2 Jun 2027 01:10:28.077,2 Jun 2027 01:23:20.348,772.271
13,2 Jun 2027 02:47:15.385,2 Jun 2027 02:59:03.438,708.053
14,2 Jun 2027 04:28:20.428,2 Jun 2027 04:32:59.817,279.388
15,2 Jun 2027 12:46:22.314,2 Jun 2027 12:55:07.213,524.899
16,2 Jun 2027 14:21:27.153,2 Jun 2027 14:34:03.979,756.826
17,2 Jun 2027 15:57:20.913,2 Jun 2027 16:09:50.059,749.146
18,2 Jun 2027 17:33:26.720,2 Jun 2027 17:43:17.826,591.105
19,2 Jun 2027 19:09:24.555,2 Jun 2027 19:15:08.157,343.602
20,2 Jun 2027 20:43:41.681,2 Jun 2027 20:47:43.415,241.734
21,2 Jun 2027 22:15:22.594,2 Jun 2027 22:23:14.314,471.721
22,2 Jun 2027 23:47:53.941,2 Jun 2027 23:59:19.659,685.718
23,3 Jun 2027 01:22:26.749,3 Jun 2027 01:35:21.709,774.960
24,3 Jun 2027 02:59:36.489,3 Jun 2027 03:10:59.863,683.375
25,3 Jun 2027 04:42:36.920,3 Jun 2027 04:43:22.130,45.211
26,3 Jun 2027 12:58:10.695,3 Jun 2027 13:07:46.377,575.682
27,3 Jun 2027 14:33:26.825,3 Jun 2027 14:46:12.820,765.995
28,3 Jun 2027 16:09:23.178,3 Jun 2027 16:21:39.793,736.615
29,3 Jun 2027 17:45:29.308,3 Jun 2027 17:54:52.480,563.172
30,3 Jun 2027 19:21:23.132,3 Jun 2027 19:26:36.395,313.262
31,3 Jun 2027 20:55:14.584,3 Jun 2027 20:59:35.444,260.860
32,3 Jun 2027 22:26:53.147,3 Jun 2027 22:35:16.338,503.191
33,3 Jun 2027 23:59:37.501,4 Jun 2027 00:11:22.269,704.768
34,4 Jun 2027 01:34:27.830,4 Jun 2027 01:47:22.732,774.902
35,4 Jun 2027 03:12:01.300,4 Jun 2027 03:22:54.978,653.678
36,4 Jun 2027 13:10:01.993,4 Jun 2027 13:20:20.003,618.010
37,4 Jun 2027 14:45:27.018,4 Jun 2027 14:58:18.975,771.956
38,4 Jun 2027 16:21:25.590,4 Jun 2027 16:33:27.418,721.828
39,4 Jun 2027 17:57:31.771,4 Jun 2027 18:06:25.638,533.867
40,4 Jun 2027 19:33:20.133,4 Jun 2027 19:38:05.434,285.302
41,4 Jun 2027 21:06:45.142,4 Jun 2027 21:11:30.286,285.145
42,4 Jun 2027 22:38:24.925,4 Jun 2027 22:47:18.619,533.694
43,5 Jun 2027 00:11:23.063,5 Jun 2027 00:23:24.798,721.735
44,5 Jun 2027 01:46:31.396,5 Jun 2027 01:59:23.376,771.981
45,5 Jun 2027 03:24:30.215,5 Jun 2027 03:34:48.449,618.234
46,5 Jun 2027 13:21:55.450,5 Jun 2027 13:32:48.950,653.500
47,5 Jun 2027 14:57:27.663,5 Jun 2027 15:10:22.553,774.890
48,5 Jun 2027 16:33:28.114,5 Jun 2027 16:45:12.989,704.874
49,5 Jun 2027 18:09:34.049,5 Jun 2027 18:17:57.415,503.366
50,5 Jun 2027 19:45:15.004,5 Jun 2027 19:49:35.973,260.969
51,5 Jun 2027 21:18:14.193,5 Jun 2027 21:23:27.272,313.080
52,5 Jun 2027 22:49:58.071,5 Jun 2027 22:59:21.079,563.008
53,6 Jun 2027 00:23:10.678,6 Jun 2027 00:35:27.206,736.527
54,6 Jun 2027 01:58:37.541,6 Jun 2027 02:11:23.574,766.033
55,6 Jun 2027 03:37:03.812,6 Jun 2027 03:46:39.771,575.959
56,6 Jun 2027 12:01:30.724,6 Jun 2027 12:02:10.792,40.068
57,6 Jun 2027 13:33:50.558,6 Jun 2027 13:45:13.781,683.224
58,6 Jun 2027 15:09:28.688,6 Jun 2027 15:22:23.647,774.960
59,6 Jun 2027 16:45:30.731,6 Jun 2027 16:56:56.561,685.830
60,6 Jun 2027 18:21:36.077,6 Jun 2027 18:29:27.977,471.899
61,6 Jun 2027 19:57:07.053,6 Jun 2027 20:01:08.849,241.795
62,6 Jun 2027 21:29:42.438,6 Jun 2027 21:35:25.834,343.395
63,6 Jun 2027 23:01:32.721,6 Jun 2027 23:11:23.665,590.944
64,7 Jun 2027 00:35:00.399,7 Jun 2027 00:47:29.473,749.074
65,7 Jun 2027 02:10:46.362,7 Jun 2027 02:23:23.251,756.890
66,7 Jun 2027 03:49:42.942,7 Jun 2027 03:58:28.168,525.225
67,7 Jun 2027 12:11:50.837,7 Jun 2027 12:16:29.499,278.662
68,7 Jun 2027 13:45:46.972,7 Jun 2027 13:57:34.910,707.938
69,7 Jun 2027 15:21:30.039,7 Jun 2027 15:34:22.341,772.302
70,7 Jun 2027 16:57:33.407,7 Jun 2027 17:08:38.196,664.790
71,7 Jun 2027 18:33:37.759,7 Jun 2027 18:40:57.502,439.743
72,7 Jun 2027 20:08:55.556,7 Jun 2027 20:12:44.960,229.403
73,7 Jun 2027 21:41:10.437,7 Jun 2027 21:47:25.560,375.123
74,7 Jun 2027 23:13:08.989,7 Jun 2027 23:23:26.324,617.335
75,8 Jun 2027 00:46:52.281,8 Jun 2027 00:59:31.559,759.278
76,8 Jun 2027 02:22:58.002,8 Jun 2027 02:35:22.311,744.309
77,8 Jun 2027 04:02:28.979,8 Jun 2027 04:10:12.344,463.365
78,8 Jun 2027 12:23:15.120,8 Jun 2027 12:29:41.060,385.940
79,8 Jun 2027 13:57:44.443,8 Jun 2027 14:09:52.643,728.201
80,8 Jun 2027 15:33:31.683,8 Jun 2027 15:46:18.689,767.006
81,8 Jun 2027 17:09:36.105,8 Jun 2027 17:20:17.960,641.855
82,8 Jun 2027 18:45:38.974,8 Jun 2027 18:52:26.217,407.243
83,8 Jun 2027 20:20:39.922,8 Jun 2027 20:24:25.041,225.120
84,8 Jun 2027 21:52:38.630,8 Jun 2027 21:59:26.146,407.516
85,8 Jun 2027 23:24:46.974,8 Jun 2027 23:35:29.027,642.054
86,9 Jun 2027 00:58:46.380,9 Jun 2027 01:11:33.441,767.061
87,9 Jun 2027 02:35:12.606,9 Jun 2027 02:47:20.646,728.040
88,9 Jun 2027 04:15:24.568,9 Jun 2027 04:21:49.755,385.187
89,9 Jun 2027 12:34:52.605,9 Jun 2027 12:42:36.551,463.946
90,9 Jun 2027 14:09:42.784,9 Jun 2027 14:22:07.222,744.438
91,9 Jun 2027 15:45:33.563,9 Jun 2027 15:58:12.772,759.209
92,9 Jun 2027 17:21:38.806,9 Jun 2027 17:31:55.923,617.117
93,9 Jun 2027 18:57:39.549,9 Jun 2027 19:03:54.399,374.850
94,9 Jun 2027 20:32:19.971,9 Jun 2027 20:36:09.438,229.467
95,9 Jun 2027 22:04:07.353,9 Jun 2027 22:11:27.356,440.003
96,9 Jun 2027 23:36:26.754,9 Jun 2027 23:47:31.729,664.975
97,10 Jun 2027 01:10:42.752,10 Jun 2027 01:23:35.079,772.327
98,10 Jun 2027 02:47:30.367,10 Jun 2027 02:59:18.110,707.742
99,10 Jun 2027 04:28:36.324,10 Jun 2027 04:33:13.876,277.552
100,10 Jun 2027 12:46:36.822,10 Jun 2027 12:55:22.531,525.709
101,10 Jun 2027 14:21:41.851,10 Jun 2027 14:34:18.835,756.983
102,10 Jun 2027 15:57:35.655,10 Jun 2027 16:10:04.636,748.980
103,10 Jun 2027 17:33:41.474,10 Jun 2027 17:43:32.180,590.705
104,10 Jun 2027 19:09:39.271,10 Jun 2027 19:15:22.395,343.125
105,10 Jun 2027 20:43:56.051,10 Jun 2027 20:47:57.962,241.911
106,10 Jun 2027 22:15:36.886,10 Jun 2027 22:23:29.039,472.153
107,10 Jun 2027 23:48:08.406,10 Jun 2027 23:59:34.402,685.995
108,11 Jun 2027 01:22:41.457,11 Jun 2027 01:35:36.436,774.979
109,11 Jun 2027 02:59:51.521,11 Jun 2027 03:11:14.518,682.997
110,11 Jun 2027 04:42:59.064,11 Jun 2027 04:43:29.974,30.910
111,11 Jun 2027 12:58:25.254,11 Jun 2027 13:08:01.605,576.352
112,11 Jun 2027 14:33:41.532,11 Jun 2027 14:46:27.636,766.104
113,11 Jun 2027 16:09:37.923,11 Jun 2027 16:21:54.339,736.417
114,11 Jun 2027 17:45:44.060,11 Jun 2027 17:55:06.812,562.752
115,11 Jun 2027 19:21:37.828,11 Jun 2027 19:26:50.640,312.812
116,11 Jun 2027 20:55:28.909,11 Jun 2027 20:59:50.040,261.131
117,11 Jun 2027 22:27:07.453,11 Jun 2027 22:35:31.069,503.616
118,11 Jun 2027 23:59:51.993,12 Jun 2027 00:11:37.011,705.019
119,12 Jun 2027 01:34:42.572,12 Jun 2027 01:47:37.454,774.882
120,12 Jun 2027 03:12:16.388,12 Jun 2027 03:23:09.613,653.225
121,12 Jun 2027 13:10:16.590,12 Jun 2027 13:20:35.159,618.569
122,12 Jun 2027 14:45:41.733,12 Jun 2027 14:58:33.753,772.020
123,12 Jun 2027 16:21:40.337,12 Jun 2027 16:33:41.934,721.597
124,12 Jun 2027 17:57:46.521,12 Jun 2027 18:06:39.950,533.428
125,12 Jun 2027 19:33:34.802,12 Jun 2027 19:38:19.696,284.894
126,12 Jun 2027 21:06:59.435,12 Jun 2027 21:11:44.923,285.488
127,12 Jun 2027 22:38:39.248,12 Jun 2027 22:47:33.356,534.108
128,13 Jun 2027 00:11:37.583,13 Jun 2027 00:23:39.540,721.957
129,13 Jun 2027 01:46:46.174,13 Jun 2027 01:59:38.093,771.919
130,13 Jun 2027 03:24:45.364,13 Jun 2027 03:35:03.056,617.692
131,13 Jun 2027 13:22:10.075,13 Jun 2027 13:33:04.042,653.968
132,13 Jun 2027 14:57:42.384,13 Jun 2027 15:10:37.296,774.911
133,13 Jun 2027 16:33:42.863,13 Jun 2027 16:45:27.477,704.614
134,13 Jun 2027 18:09:48.796,13 Jun 2027 18:18:11.708,502.912
135,13 Jun 2027 19:45:29.637,13 Jun 2027 19:49:50.264,260.627
136,13 Jun 2027 21:18:28.466,13 Jun 2027 21:23:41.940,313.473
137,13 Jun 2027 22:50:12.413,13 Jun 2027 22:59:35.820,563.406
