dataset/facility_timing/facility_Facility-Magadan2/Magadan2-To-KinoSat_111904.csv

Acces,Start Time (UTCG),Stop Time (UTCG),Duration (sec)
1,1 Jun 2027 00:00:01.000,1 Jun 2027 00:07:08.182,427.182
2,1 Jun 2027 01:31:07.375,1 Jun 2027 01:40:13.002,545.627
3,1 Jun 2027 03:07:03.528,1 Jun 2027 03:11:50.304,286.776
4,1 Jun 2027 04:40:44.770,1 Jun 2027 04:44:58.744,253.975
5,1 Jun 2027 06:12:18.200,1 Jun 2027 06:20:48.065,509.865
6,1 Jun 2027 07:45:06.277,1 Jun 2027 07:56:56.327,710.049
7,1 Jun 2027 09:20:03.142,1 Jun 2027 09:32:57.606,774.464
8,1 Jun 2027 10:57:45.829,1 Jun 2027 11:08:29.033,643.204
9,1 Jun 2027 20:55:30.941,1 Jun 2027 21:06:08.655,637.714
10,1 Jun 2027 22:31:01.263,1 Jun 2027 22:43:55.323,774.060
11,2 Jun 2027 00:07:02.247,2 Jun 2027 00:18:55.040,712.793
12,2 Jun 2027 01:43:10.518,2 Jun 2027 01:51:45.327,514.809
13,2 Jun 2027 03:19:00.919,2 Jun 2027 03:23:19.058,258.140
14,2 Jun 2027 04:52:13.729,2 Jun 2027 04:56:55.826,282.096
15,2 Jun 2027 06:23:50.295,2 Jun 2027 06:32:51.197,540.902
16,2 Jun 2027 07:56:52.800,2 Jun 2027 08:08:59.421,726.621
17,2 Jun 2027 09:32:08.098,2 Jun 2027 09:44:58.651,770.553
18,2 Jun 2027 11:10:17.014,2 Jun 2027 11:20:22.375,605.362
19,2 Jun 2027 21:07:25.844,2 Jun 2027 21:18:36.142,670.299
20,2 Jun 2027 22:43:02.664,2 Jun 2027 22:55:58.108,775.444
21,3 Jun 2027 00:19:05.426,3 Jun 2027 00:30:39.812,694.386
22,3 Jun 2027 01:55:13.479,3 Jun 2027 02:03:16.275,482.796
23,3 Jun 2027 03:30:55.851,3 Jun 2027 03:34:49.690,233.840
24,3 Jun 2027 05:03:41.549,3 Jun 2027 05:08:54.756,313.207
25,3 Jun 2027 06:35:23.892,3 Jun 2027 06:44:54.446,570.554
26,3 Jun 2027 08:08:41.451,3 Jun 2027 08:21:02.376,740.925
27,3 Jun 2027 09:44:15.727,3 Jun 2027 09:56:59.217,763.490
28,3 Jun 2027 11:22:53.203,3 Jun 2027 11:32:13.322,560.119
29,3 Jun 2027 19:45:48.245,3 Jun 2027 19:49:19.622,211.377
30,3 Jun 2027 21:19:22.218,3 Jun 2027 21:30:59.680,697.462
31,3 Jun 2027 22:55:04.422,3 Jun 2027 23:07:58.402,773.979
32,4 Jun 2027 00:31:08.696,4 Jun 2027 00:42:22.558,673.862
33,4 Jun 2027 02:07:16.198,4 Jun 2027 02:14:46.010,449.812
34,4 Jun 2027 03:42:47.446,4 Jun 2027 03:46:23.230,215.784
35,4 Jun 2027 05:15:08.914,4 Jun 2027 05:20:55.005,346.091
36,4 Jun 2027 06:46:59.106,4 Jun 2027 06:56:57.779,598.673
37,4 Jun 2027 08:20:32.284,4 Jun 2027 08:33:05.163,752.879
38,4 Jun 2027 09:56:26.130,4 Jun 2027 10:08:59.222,753.092
39,4 Jun 2027 11:35:35.406,4 Jun 2027 11:44:00.949,505.542
40,4 Jun 2027 19:57:01.091,4 Jun 2027 20:02:45.432,344.341
41,4 Jun 2027 21:31:19.762,4 Jun 2027 21:43:19.635,719.873
42,4 Jun 2027 23:07:06.490,4 Jun 2027 23:19:56.281,769.790
43,5 Jun 2027 00:43:12.025,5 Jun 2027 00:54:03.339,651.314
44,5 Jun 2027 02:19:18.563,5 Jun 2027 02:26:14.718,416.155
45,5 Jun 2027 03:54:34.813,5 Jun 2027 03:58:00.751,205.937
46,5 Jun 2027 05:26:36.333,5 Jun 2027 05:32:56.192,379.859
47,5 Jun 2027 06:58:36.047,5 Jun 2027 07:09:01.140,625.093
48,5 Jun 2027 08:32:25.352,5 Jun 2027 08:45:07.754,762.401
49,5 Jun 2027 10:08:39.458,5 Jun 2027 10:20:58.569,739.111
50,5 Jun 2027 11:48:25.335,5 Jun 2027 11:55:43.628,438.293
51,5 Jun 2027 20:08:34.571,5 Jun 2027 20:15:47.636,433.065
52,5 Jun 2027 21:43:18.264,5 Jun 2027 21:55:36.268,738.004
53,5 Jun 2027 23:19:08.836,5 Jun 2027 23:31:51.801,762.965
54,6 Jun 2027 00:55:15.378,6 Jun 2027 01:05:42.226,626.848
55,6 Jun 2027 02:31:20.445,6 Jun 2027 02:37:42.655,382.211
56,6 Jun 2027 04:06:17.367,6 Jun 2027 04:09:42.999,205.632
57,6 Jun 2027 05:38:04.213,6 Jun 2027 05:44:58.058,413.845
58,6 Jun 2027 07:10:14.805,6 Jun 2027 07:21:04.504,649.699
59,6 Jun 2027 08:44:20.712,6 Jun 2027 08:57:10.109,769.397
60,6 Jun 2027 10:20:55.876,6 Jun 2027 10:32:57.123,721.248
61,6 Jun 2027 12:01:26.542,6 Jun 2027 12:07:17.895,351.354
62,6 Jun 2027 20:20:16.830,6 Jun 2027 20:28:38.181,501.351
63,6 Jun 2027 21:55:17.561,6 Jun 2027 22:07:49.803,752.242
64,6 Jun 2027 23:31:11.405,6 Jun 2027 23:43:45.027,753.622
65,7 Jun 2027 01:07:18.735,7 Jun 2027 01:17:19.300,600.564
66,7 Jun 2027 02:43:21.665,7 Jun 2027 02:49:10.115,348.449
67,7 Jun 2027 04:17:55.159,7 Jun 2027 04:21:30.085,214.926
68,7 Jun 2027 05:49:32.846,7 Jun 2027 05:57:00.404,447.558
69,7 Jun 2027 07:21:55.452,7 Jun 2027 07:33:07.844,672.393
70,7 Jun 2027 08:56:18.422,7 Jun 2027 09:09:12.200,773.778
71,7 Jun 2027 10:33:15.600,7 Jun 2027 10:44:54.731,699.131
72,7 Jun 2027 12:14:49.799,7 Jun 2027 12:18:33.087,223.288
73,7 Jun 2027 20:32:04.190,7 Jun 2027 20:41:20.844,556.654
74,7 Jun 2027 22:07:17.521,7 Jun 2027 22:20:00.401,762.880
75,7 Jun 2027 23:43:14.177,7 Jun 2027 23:55:36.010,741.833
76,8 Jun 2027 01:19:22.058,8 Jun 2027 01:28:54.636,572.578
77,8 Jun 2027 02:55:21.961,8 Jun 2027 03:00:37.489,315.528
78,8 Jun 2027 04:29:28.913,8 Jun 2027 04:33:21.447,232.534
79,8 Jun 2027 06:01:02.491,8 Jun 2027 06:09:03.109,480.618
80,8 Jun 2027 07:33:38.059,8 Jun 2027 07:45:11.121,693.061
81,8 Jun 2027 09:08:18.544,8 Jun 2027 09:21:13.984,775.440
82,8 Jun 2027 10:45:38.884,8 Jun 2027 10:56:51.183,672.299
83,8 Jun 2027 20:43:54.946,8 Jun 2027 20:53:57.405,602.459
84,8 Jun 2027 22:19:18.051,8 Jun 2027 22:32:08.213,770.162
85,8 Jun 2027 23:55:17.116,9 Jun 2027 00:07:24.816,727.700
86,9 Jun 2027 01:31:25.306,9 Jun 2027 01:40:28.355,543.049
87,9 Jun 2027 03:07:20.967,9 Jun 2027 03:12:05.294,284.326
88,9 Jun 2027 04:40:59.690,9 Jun 2027 04:45:16.199,256.509
89,9 Jun 2027 06:12:33.348,9 Jun 2027 06:21:06.067,512.719
90,9 Jun 2027 07:45:22.686,9 Jun 2027 07:57:14.309,711.623
91,9 Jun 2027 09:20:21.164,9 Jun 2027 09:33:15.400,774.236
92,9 Jun 2027 10:58:06.094,9 Jun 2027 11:08:46.186,640.091
93,9 Jun 2027 20:55:48.145,9 Jun 2027 21:06:28.912,640.767
94,9 Jun 2027 22:31:19.067,9 Jun 2027 22:44:13.358,774.291
95,10 Jun 2027 00:07:20.192,10 Jun 2027 00:19:11.487,711.295
96,10 Jun 2027 01:43:28.433,10 Jun 2027 01:52:00.556,512.122
97,10 Jun 2027 03:19:18.162,10 Jun 2027 03:23:34.187,256.026
98,10 Jun 2027 04:52:28.531,10 Jun 2027 04:57:13.453,284.922
99,10 Jun 2027 06:24:05.569,10 Jun 2027 06:33:09.206,543.638
100,10 Jun 2027 07:57:09.395,10 Jun 2027 08:09:17.389,727.994
101,10 Jun 2027 09:32:26.351,10 Jun 2027 09:45:16.403,770.052
102,10 Jun 2027 11:10:37.692,10 Jun 2027 11:20:39.339,601.648
103,10 Jun 2027 21:07:43.186,10 Jun 2027 21:18:56.037,672.851
104,10 Jun 2027 22:43:20.496,10 Jun 2027 22:56:15.921,775.426
105,11 Jun 2027 00:19:23.382,11 Jun 2027 00:30:56.079,692.697
106,11 Jun 2027 01:55:31.370,11 Jun 2027 02:03:31.394,480.024
107,11 Jun 2027 03:31:12.824,11 Jun 2027 03:35:05.043,232.219
108,11 Jun 2027 05:03:56.298,11 Jun 2027 05:09:12.505,316.207
109,11 Jun 2027 06:35:39.309,11 Jun 2027 06:45:12.459,573.150
110,11 Jun 2027 08:08:58.238,11 Jun 2027 08:21:20.326,742.088
111,11 Jun 2027 09:44:34.221,11 Jun 2027 09:57:16.920,762.699
112,11 Jun 2027 11:23:14.366,11 Jun 2027 11:32:30.033,555.667
113,11 Jun 2027 19:46:00.198,11 Jun 2027 19:49:46.583,226.385
114,11 Jun 2027 21:19:39.669,11 Jun 2027 21:31:19.249,699.580
115,11 Jun 2027 22:55:22.280,11 Jun 2027 23:08:16.001,773.721
116,12 Jun 2027 00:31:26.655,12 Jun 2027 00:42:38.652,671.997
117,12 Jun 2027 02:07:34.056,12 Jun 2027 02:15:01.036,446.980
118,12 Jun 2027 03:43:04.077,12 Jun 2027 03:46:38.900,214.824
119,12 Jun 2027 05:15:23.657,12 Jun 2027 05:21:12.839,349.182
120,12 Jun 2027 06:47:14.673,12 Jun 2027 06:57:15.791,601.118
121,12 Jun 2027 08:20:49.266,12 Jun 2027 08:33:23.094,753.827
122,12 Jun 2027 09:56:44.875,12 Jun 2027 10:09:16.867,751.992
123,12 Jun 2027 11:35:57.165,12 Jun 2027 11:44:17.294,500.129
124,12 Jun 2027 19:57:15.998,12 Jun 2027 20:03:09.169,353.170
125,12 Jun 2027 21:31:37.300,12 Jun 2027 21:43:38.903,721.604
126,12 Jun 2027 23:07:24.371,12 Jun 2027 23:20:13.671,769.300
127,13 Jun 2027 00:43:29.983,13 Jun 2027 00:54:19.264,649.281
128,13 Jun 2027 02:19:36.378,13 Jun 2027 02:26:29.669,413.291
129,13 Jun 2027 03:54:51.029,13 Jun 2027 03:58:16.818,205.790
130,13 Jun 2027 05:26:51.114,13 Jun 2027 05:33:14.084,382.970
131,13 Jun 2027 06:58:51.773,13 Jun 2027 07:09:19.149,627.376
132,13 Jun 2027 08:32:42.534,13 Jun 2027 08:45:25.662,763.128
133,13 Jun 2027 10:08:58.467,13 Jun 2027 10:21:16.147,737.680
134,13 Jun 2027 11:48:47.915,13 Jun 2027 11:55:59.405,431.490
135,13 Jun 2027 20:08:50.483,13 Jun 2027 20:16:10.107,439.624
136,13 Jun 2027 21:43:35.874,13 Jun 2027 21:55:55.256,739.383
137,13 Jun 2027 23:19:26.734,13 Jun 2027 23:32:08.987,762.254
