dataset/facility_timing/facility_Facility-Magadan2/Magadan2-To-KinoSat_110807.csv

Acces,Start Time (UTCG),Stop Time (UTCG),Duration (sec)
1,1 Jun 2027 00:05:50.532,1 Jun 2027 00:10:44.677,294.145
2,1 Jun 2027 01:37:31.299,1 Jun 2027 01:46:35.284,543.985
3,1 Jun 2027 03:10:34.402,1 Jun 2027 03:22:41.546,727.144
4,1 Jun 2027 04:45:49.180,1 Jun 2027 04:58:39.443,770.263
5,1 Jun 2027 06:23:57.362,1 Jun 2027 06:34:01.684,604.323
6,1 Jun 2027 16:21:09.414,1 Jun 2027 16:32:14.124,664.710
7,1 Jun 2027 17:56:43.903,1 Jun 2027 18:09:39.153,775.250
8,1 Jun 2027 19:32:45.010,1 Jun 2027 19:44:23.312,698.302
9,1 Jun 2027 21:08:50.855,1 Jun 2027 21:17:02.981,492.126
10,1 Jun 2027 22:44:28.782,1 Jun 2027 22:48:41.731,252.949
11,2 Jun 2027 00:17:19.189,2 Jun 2027 00:22:42.321,323.133
12,2 Jun 2027 01:49:04.957,2 Jun 2027 01:58:37.823,572.866
13,2 Jun 2027 03:22:22.764,2 Jun 2027 03:34:43.936,741.172
14,2 Jun 2027 04:57:56.271,2 Jun 2027 05:10:39.485,763.214
15,2 Jun 2027 06:36:32.810,2 Jun 2027 06:45:52.108,559.299
16,2 Jun 2027 14:59:48.145,2 Jun 2027 15:02:39.268,171.124
17,2 Jun 2027 16:33:05.047,2 Jun 2027 16:44:37.628,692.581
18,2 Jun 2027 18:08:45.074,2 Jun 2027 18:21:39.399,774.325
19,2 Jun 2027 19:44:47.667,2 Jun 2027 19:56:06.198,678.531
20,2 Jun 2027 21:20:52.801,2 Jun 2027 21:28:33.147,460.345
21,2 Jun 2027 22:56:19.685,2 Jun 2027 23:00:15.644,235.959
22,3 Jun 2027 00:28:47.262,3 Jun 2027 00:34:41.385,354.123
23,3 Jun 2027 02:00:40.158,3 Jun 2027 02:10:40.474,600.316
24,3 Jun 2027 03:34:13.250,3 Jun 2027 03:46:46.168,752.918
25,3 Jun 2027 05:10:06.087,3 Jun 2027 05:22:38.979,752.892
26,3 Jun 2027 06:49:14.197,3 Jun 2027 06:57:39.231,505.034
27,3 Jun 2027 15:10:51.615,3 Jun 2027 15:16:13.610,321.995
28,3 Jun 2027 16:45:01.886,3 Jun 2027 16:56:57.544,715.657
29,3 Jun 2027 18:20:46.557,3 Jun 2027 18:33:37.271,770.714
30,3 Jun 2027 19:56:50.382,3 Jun 2027 20:07:47.167,656.786
31,3 Jun 2027 21:32:54.359,3 Jun 2027 21:40:02.347,427.987
32,3 Jun 2027 23:08:06.787,3 Jun 2027 23:11:53.090,226.304
33,4 Jun 2027 00:40:15.260,4 Jun 2027 00:46:41.487,386.227
34,4 Jun 2027 02:12:17.020,4 Jun 2027 02:22:43.179,626.159
35,4 Jun 2027 03:46:05.918,4 Jun 2027 03:58:48.212,762.294
36,4 Jun 2027 05:22:18.772,4 Jun 2027 05:34:37.823,739.052
37,4 Jun 2027 07:02:03.226,4 Jun 2027 07:09:21.443,438.216
38,4 Jun 2027 15:22:21.940,4 Jun 2027 15:29:18.157,416.216
39,4 Jun 2027 16:56:59.709,4 Jun 2027 17:09:14.151,734.442
40,4 Jun 2027 18:32:48.315,4 Jun 2027 18:45:32.821,764.505
41,4 Jun 2027 20:08:53.111,4 Jun 2027 20:19:26.287,633.176
42,4 Jun 2027 21:44:55.396,4 Jun 2027 21:51:30.834,395.438
43,4 Jun 2027 23:19:49.621,4 Jun 2027 23:23:34.702,225.081
44,5 Jun 2027 00:51:43.587,5 Jun 2027 00:58:42.358,418.771
45,5 Jun 2027 02:23:55.631,5 Jun 2027 02:34:45.911,650.280
46,5 Jun 2027 03:58:00.826,5 Jun 2027 04:10:50.032,769.206
47,5 Jun 2027 05:34:34.488,5 Jun 2027 05:46:35.887,721.399
48,5 Jun 2027 07:15:03.374,5 Jun 2027 07:20:55.349,351.975
49,5 Jun 2027 15:34:02.286,5 Jun 2027 15:42:09.841,487.555
50,5 Jun 2027 17:08:58.342,5 Jun 2027 17:21:27.676,749.334
51,5 Jun 2027 18:44:50.299,5 Jun 2027 18:57:26.118,755.818
52,5 Jun 2027 20:20:55.822,5 Jun 2027 20:31:03.638,607.817
53,5 Jun 2027 21:56:55.726,5 Jun 2027 22:02:58.896,363.171
54,5 Jun 2027 23:31:28.188,5 Jun 2027 23:35:20.644,232.456
55,6 Jun 2027 01:03:12.554,6 Jun 2027 01:10:43.788,451.234
56,6 Jun 2027 02:35:36.065,6 Jun 2027 02:46:48.637,672.572
57,6 Jun 2027 04:09:58.026,6 Jun 2027 04:22:51.600,773.574
58,6 Jun 2027 05:46:53.443,6 Jun 2027 05:58:33.024,699.581
59,6 Jun 2027 07:28:25.121,6 Jun 2027 07:32:10.565,225.444
60,6 Jun 2027 15:45:48.233,6 Jun 2027 15:54:53.170,544.938
61,6 Jun 2027 17:20:57.662,6 Jun 2027 17:33:38.295,760.633
62,6 Jun 2027 18:56:52.476,6 Jun 2027 19:09:17.223,744.747
63,6 Jun 2027 20:32:58.490,6 Jun 2027 20:42:39.309,580.819
64,6 Jun 2027 22:08:55.104,6 Jun 2027 22:14:26.909,331.805
65,6 Jun 2027 23:43:03.002,6 Jun 2027 23:47:10.549,247.547
66,7 Jun 2027 01:14:42.416,7 Jun 2027 01:22:45.638,483.222
67,7 Jun 2027 02:47:18.403,7 Jun 2027 02:58:51.317,692.914
68,7 Jun 2027 04:21:57.594,7 Jun 2027 04:34:52.863,775.270
69,7 Jun 2027 05:59:15.897,7 Jun 2027 06:10:29.017,673.120
70,7 Jun 2027 15:57:37.837,7 Jun 2027 16:07:30.180,592.343
71,7 Jun 2027 17:32:57.559,7 Jun 2027 17:45:46.142,768.583
72,7 Jun 2027 19:08:54.819,7 Jun 2027 19:21:06.179,731.360
73,7 Jun 2027 20:45:01.058,7 Jun 2027 20:54:13.399,552.341
74,7 Jun 2027 22:20:53.184,7 Jun 2027 22:25:55.364,302.180
75,7 Jun 2027 23:54:34.903,7 Jun 2027 23:59:03.751,268.848
76,8 Jun 2027 01:26:13.395,8 Jun 2027 01:34:47.799,514.404
77,8 Jun 2027 02:59:02.697,8 Jun 2027 03:10:53.924,711.226
78,8 Jun 2027 04:33:59.601,8 Jun 2027 04:46:53.773,774.172
79,8 Jun 2027 06:11:42.193,8 Jun 2027 06:22:23.593,641.400
80,8 Jun 2027 16:09:30.035,8 Jun 2027 16:20:02.014,631.979
81,8 Jun 2027 17:44:57.949,8 Jun 2027 17:57:51.353,773.405
82,8 Jun 2027 19:20:57.301,8 Jun 2027 19:32:53.046,715.744
83,8 Jun 2027 20:57:03.486,8 Jun 2027 21:05:46.023,522.537
84,8 Jun 2027 22:32:49.496,8 Jun 2027 22:37:24.856,275.360
85,9 Jun 2027 00:06:04.781,9 Jun 2027 00:10:59.506,294.725
86,9 Jun 2027 01:37:45.651,9 Jun 2027 01:46:50.186,544.535
87,9 Jun 2027 03:10:49.019,9 Jun 2027 03:22:56.433,727.415
88,9 Jun 2027 04:46:04.118,9 Jun 2027 04:58:54.281,770.164
89,9 Jun 2027 06:24:12.782,9 Jun 2027 06:34:16.361,603.579
90,9 Jun 2027 16:21:24.177,9 Jun 2027 16:32:29.400,665.222
91,9 Jun 2027 17:56:58.765,9 Jun 2027 18:09:54.013,775.248
92,9 Jun 2027 19:32:59.882,9 Jun 2027 19:44:37.877,697.995
93,9 Jun 2027 21:09:05.703,9 Jun 2027 21:17:17.327,491.625
94,9 Jun 2027 22:44:43.434,9 Jun 2027 22:48:56.150,252.716
95,10 Jun 2027 00:17:33.431,10 Jun 2027 00:22:57.178,323.747
96,10 Jun 2027 01:49:19.333,10 Jun 2027 01:58:52.725,573.392
97,10 Jun 2027 03:22:37.413,10 Jun 2027 03:34:58.820,741.407
98,10 Jun 2027 04:58:11.259,10 Jun 2027 05:10:54.315,763.056
99,10 Jun 2027 06:36:48.329,10 Jun 2027 06:46:06.731,558.402
100,10 Jun 2027 15:00:01.494,10 Jun 2027 15:02:56.294,174.800
101,10 Jun 2027 16:33:19.830,10 Jun 2027 16:44:52.836,693.005
102,10 Jun 2027 18:08:59.939,10 Jun 2027 18:21:54.221,774.282
103,10 Jun 2027 19:45:02.540,10 Jun 2027 19:56:20.730,678.190
104,10 Jun 2027 21:21:07.641,10 Jun 2027 21:28:47.482,459.841
105,10 Jun 2027 22:56:34.265,10 Jun 2027 23:00:30.123,235.858
106,11 Jun 2027 00:29:01.502,11 Jun 2027 00:34:56.258,354.756
107,11 Jun 2027 02:00:54.565,11 Jun 2027 02:10:55.376,600.811
108,11 Jun 2027 03:34:27.937,11 Jun 2027 03:47:01.047,753.110
109,11 Jun 2027 05:10:21.123,11 Jun 2027 05:22:53.795,752.672
110,11 Jun 2027 06:49:29.836,11 Jun 2027 06:57:53.778,503.943
111,11 Jun 2027 15:11:05.849,11 Jun 2027 15:16:29.692,323.842
112,11 Jun 2027 16:45:16.689,11 Jun 2027 16:57:12.692,716.003
113,11 Jun 2027 18:21:01.422,11 Jun 2027 18:33:52.052,770.630
114,11 Jun 2027 19:57:05.253,11 Jun 2027 20:08:01.667,656.414
115,11 Jun 2027 21:33:09.186,11 Jun 2027 21:40:16.670,427.484
116,11 Jun 2027 23:08:21.290,11 Jun 2027 23:12:07.643,226.353
117,12 Jun 2027 00:40:29.505,12 Jun 2027 00:46:56.371,386.866
118,12 Jun 2027 02:12:31.456,12 Jun 2027 02:22:58.079,626.622
119,12 Jun 2027 03:46:20.644,12 Jun 2027 03:59:03.086,762.442
120,12 Jun 2027 05:22:33.860,12 Jun 2027 05:34:52.624,738.765
121,12 Jun 2027 07:02:19.027,12 Jun 2027 07:09:35.879,436.852
122,12 Jun 2027 15:22:36.407,12 Jun 2027 15:29:33.955,417.548
123,12 Jun 2027 16:57:14.525,12 Jun 2027 17:09:29.244,734.719
124,12 Jun 2027 18:33:03.182,12 Jun 2027 18:45:47.562,764.380
125,12 Jun 2027 20:09:07.979,12 Jun 2027 20:19:40.757,632.778
126,12 Jun 2027 21:45:10.206,12 Jun 2027 21:51:45.153,394.947
127,12 Jun 2027 23:20:04.045,12 Jun 2027 23:23:49.333,225.288
128,13 Jun 2027 00:51:57.844,13 Jun 2027 00:58:57.251,419.407
129,13 Jun 2027 02:24:10.100,13 Jun 2027 02:35:00.809,650.709
130,13 Jun 2027 03:58:15.591,13 Jun 2027 04:11:04.899,769.308
131,13 Jun 2027 05:34:49.631,13 Jun 2027 05:46:50.671,721.039
132,13 Jun 2027 07:15:19.433,13 Jun 2027 07:21:09.568,350.135
133,13 Jun 2027 15:34:16.869,13 Jun 2027 15:42:25.472,488.604
134,13 Jun 2027 17:09:13.169,13 Jun 2027 17:21:42.718,749.549
135,13 Jun 2027 18:45:05.167,13 Jun 2027 18:57:40.821,755.654
136,13 Jun 2027 20:21:10.686,13 Jun 2027 20:31:18.080,607.394
137,13 Jun 2027 21:57:10.514,13 Jun 2027 22:03:13.217,362.703
138,13 Jun 2027 23:31:42.540,13 Jun 2027 23:35:35.348,232.808
