dataset/area_work/orbit_20/ZorkySat_112008.csv

Acces,Start Time (UTCG),Stop Time (UTCG),Duration (sec)
1,1 Jun 2027 04:03:58.695,1 Jun 2027 04:04:20.556,21.861
2,1 Jun 2027 04:04:23.784,1 Jun 2027 04:10:58.938,395.155
3,1 Jun 2027 05:43:16.364,1 Jun 2027 05:48:33.086,316.722
4,1 Jun 2027 05:49:30.340,1 Jun 2027 05:51:05.434,95.094
5,1 Jun 2027 07:09:36.438,1 Jun 2027 07:09:45.556,9.118
6,1 Jun 2027 07:20:21.473,1 Jun 2027 07:23:53.262,211.789
7,1 Jun 2027 08:44:21.188,1 Jun 2027 08:47:04.043,162.855
8,1 Jun 2027 10:20:06.232,1 Jun 2027 10:24:19.788,253.556
9,1 Jun 2027 11:54:57.321,1 Jun 2027 12:00:00.000,302.679
10,2 Jun 2027 04:16:39.291,2 Jun 2027 04:23:02.572,383.281
11,2 Jun 2027 05:55:37.335,2 Jun 2027 06:03:01.331,443.996
12,2 Jun 2027 07:20:52.958,2 Jun 2027 07:22:06.920,73.962
13,2 Jun 2027 07:32:21.929,2 Jun 2027 07:33:48.392,86.463
14,2 Jun 2027 08:54:59.691,2 Jun 2027 08:55:58.750,59.059
15,2 Jun 2027 08:56:35.507,2 Jun 2027 08:59:38.638,183.131
16,2 Jun 2027 10:30:18.946,2 Jun 2027 10:31:18.541,59.594
17,2 Jun 2027 10:31:51.626,2 Jun 2027 10:36:35.564,283.938
18,3 Jun 2027 04:28:55.252,3 Jun 2027 04:30:19.095,83.843
19,3 Jun 2027 04:30:22.192,3 Jun 2027 04:34:52.015,269.823
20,3 Jun 2027 06:07:53.505,3 Jun 2027 06:14:56.504,422.999
21,3 Jun 2027 07:32:07.633,3 Jun 2027 07:34:16.369,128.736
22,3 Jun 2027 07:44:19.854,3 Jun 2027 07:45:15.666,55.811
23,3 Jun 2027 09:06:35.786,3 Jun 2027 09:07:42.496,66.709
24,3 Jun 2027 09:08:31.545,3 Jun 2027 09:11:52.726,201.181
25,3 Jun 2027 10:41:28.748,3 Jun 2027 10:43:32.662,123.915
26,3 Jun 2027 10:43:39.126,3 Jun 2027 10:48:49.050,309.925
27,3 Jun 2027 10:49:34.169,3 Jun 2027 10:49:58.693,24.523
28,4 Jun 2027 03:04:09.423,4 Jun 2027 03:11:48.068,458.645
29,4 Jun 2027 04:41:14.555,4 Jun 2027 04:41:27.825,13.271
30,4 Jun 2027 04:41:41.753,4 Jun 2027 04:47:10.368,328.615
31,4 Jun 2027 06:20:00.052,4 Jun 2027 06:26:48.994,408.942
32,4 Jun 2027 07:44:13.653,4 Jun 2027 07:46:18.399,124.746
33,4 Jun 2027 07:56:43.466,4 Jun 2027 07:56:47.288,3.822
34,4 Jun 2027 09:18:04.774,4 Jun 2027 09:19:28.294,83.520
35,4 Jun 2027 09:20:05.660,4 Jun 2027 09:24:05.565,239.905
36,4 Jun 2027 10:52:59.069,4 Jun 2027 11:01:08.620,489.551
37,4 Jun 2027 11:01:28.721,4 Jun 2027 11:02:26.819,58.098
38,5 Jun 2027 03:16:08.081,5 Jun 2027 03:23:54.480,466.399
39,5 Jun 2027 04:53:52.358,5 Jun 2027 04:54:01.099,8.741
40,5 Jun 2027 04:54:13.925,5 Jun 2027 04:54:22.715,8.790
41,5 Jun 2027 04:54:23.913,5 Jun 2027 04:55:15.554,51.641
42,5 Jun 2027 04:55:20.537,5 Jun 2027 04:55:59.053,38.516
43,5 Jun 2027 04:55:59.551,5 Jun 2027 04:59:28.805,209.254
44,5 Jun 2027 06:32:21.269,5 Jun 2027 06:37:18.799,297.529
45,5 Jun 2027 07:56:09.639,5 Jun 2027 07:58:25.603,135.964
46,5 Jun 2027 09:32:09.571,5 Jun 2027 09:36:02.120,232.549
47,5 Jun 2027 11:05:53.458,5 Jun 2027 11:13:18.051,444.593
48,5 Jun 2027 11:13:19.969,5 Jun 2027 11:14:28.694,68.725
49,6 Jun 2027 03:28:12.496,6 Jun 2027 03:35:42.616,450.120
50,6 Jun 2027 05:06:19.491,6 Jun 2027 05:06:47.675,28.184
51,6 Jun 2027 05:06:51.674,6 Jun 2027 05:12:31.468,339.794
52,6 Jun 2027 06:44:20.201,6 Jun 2027 06:49:13.485,293.284
53,6 Jun 2027 08:08:01.325,6 Jun 2027 08:10:36.956,155.631
54,6 Jun 2027 09:44:24.454,6 Jun 2027 09:47:57.361,212.907
55,6 Jun 2027 11:16:37.192,6 Jun 2027 11:16:48.585,11.393
56,6 Jun 2027 11:18:30.547,6 Jun 2027 11:25:22.911,412.364
57,6 Jun 2027 11:25:26.210,6 Jun 2027 11:26:27.769,61.558
58,7 Jun 2027 03:40:15.721,7 Jun 2027 03:47:48.740,453.019
59,7 Jun 2027 05:18:25.605,7 Jun 2027 05:19:29.168,63.563
60,7 Jun 2027 05:19:36.449,7 Jun 2027 05:24:42.992,306.543
61,7 Jun 2027 06:57:34.083,7 Jun 2027 07:01:07.592,213.509
62,7 Jun 2027 08:20:06.262,7 Jun 2027 08:23:06.305,180.042
63,7 Jun 2027 09:56:35.262,7 Jun 2027 10:00:03.722,208.459
64,7 Jun 2027 11:31:41.838,7 Jun 2027 11:38:27.618,405.780
65,8 Jun 2027 03:52:13.896,8 Jun 2027 03:59:17.980,424.084
66,8 Jun 2027 05:30:29.986,8 Jun 2027 05:31:11.356,41.369
67,8 Jun 2027 05:31:33.866,8 Jun 2027 05:36:37.403,303.537
68,8 Jun 2027 07:08:43.126,8 Jun 2027 07:09:19.635,36.509
69,8 Jun 2027 07:09:37.503,8 Jun 2027 07:12:14.921,157.419
70,8 Jun 2027 08:32:02.290,8 Jun 2027 08:35:18.138,195.848
71,8 Jun 2027 10:08:39.690,8 Jun 2027 10:12:06.287,206.597
72,8 Jun 2027 11:43:50.277,8 Jun 2027 11:50:26.712,396.435
73,9 Jun 2027 04:04:17.294,9 Jun 2027 04:11:18.147,420.853
74,9 Jun 2027 05:43:34.694,9 Jun 2027 05:48:51.811,317.117
75,9 Jun 2027 05:49:45.346,9 Jun 2027 05:51:22.228,96.882
76,9 Jun 2027 07:09:50.688,9 Jun 2027 07:10:07.436,16.748
77,9 Jun 2027 07:20:39.015,9 Jun 2027 07:24:08.009,208.994
78,9 Jun 2027 08:44:37.767,9 Jun 2027 08:47:22.429,164.661
79,9 Jun 2027 10:20:24.287,9 Jun 2027 10:24:37.899,253.612
80,9 Jun 2027 11:55:06.922,9 Jun 2027 12:00:00.000,293.078
81,10 Jun 2027 04:16:57.572,10 Jun 2027 04:23:21.056,383.484
82,10 Jun 2027 05:55:56.638,10 Jun 2027 06:03:15.892,439.255
83,10 Jun 2027 07:21:06.076,10 Jun 2027 07:22:25.216,79.140
84,10 Jun 2027 07:32:40.207,10 Jun 2027 07:34:04.370,84.163
85,10 Jun 2027 08:55:15.857,10 Jun 2027 08:56:14.533,58.676
86,10 Jun 2027 08:56:53.034,10 Jun 2027 08:59:57.354,184.320
87,10 Jun 2027 10:30:24.713,10 Jun 2027 10:31:38.741,74.028
88,10 Jun 2027 10:32:07.586,10 Jun 2027 10:36:55.647,288.061
89,11 Jun 2027 04:29:13.913,11 Jun 2027 04:30:38.060,84.147
90,11 Jun 2027 04:30:38.442,11 Jun 2027 04:35:09.613,271.171
91,11 Jun 2027 06:08:14.195,11 Jun 2027 06:15:13.487,419.292
92,11 Jun 2027 07:32:24.364,11 Jun 2027 07:34:35.640,131.275
93,11 Jun 2027 07:44:37.646,11 Jun 2027 07:45:32.484,54.838
94,11 Jun 2027 09:06:51.553,11 Jun 2027 09:07:59.707,68.153
95,11 Jun 2027 09:08:48.300,11 Jun 2027 09:12:11.675,203.375
96,11 Jun 2027 10:41:44.552,11 Jun 2027 10:43:53.416,128.864
97,11 Jun 2027 10:43:55.763,11 Jun 2027 10:49:09.024,313.262
98,11 Jun 2027 10:49:50.709,11 Jun 2027 10:50:17.057,26.348
99,12 Jun 2027 03:04:26.508,12 Jun 2027 03:05:16.525,50.018
100,12 Jun 2027 03:05:21.395,12 Jun 2027 03:12:11.785,410.390
101,12 Jun 2027 04:41:33.128,12 Jun 2027 04:41:45.796,12.668
102,12 Jun 2027 04:42:00.515,12 Jun 2027 04:47:30.032,329.516
103,12 Jun 2027 06:20:20.986,12 Jun 2027 06:27:04.651,403.665
104,12 Jun 2027 07:44:30.462,12 Jun 2027 07:46:24.823,114.362
105,12 Jun 2027 09:18:20.568,12 Jun 2027 09:19:42.581,82.012
106,12 Jun 2027 09:20:24.000,12 Jun 2027 09:24:24.218,240.218
107,12 Jun 2027 10:53:15.032,12 Jun 2027 11:01:26.601,491.569
108,12 Jun 2027 11:01:46.889,12 Jun 2027 11:02:45.075,58.186
109,13 Jun 2027 03:16:25.886,13 Jun 2027 03:24:12.257,466.371
110,13 Jun 2027 04:54:11.040,13 Jun 2027 04:54:14.495,3.455
111,13 Jun 2027 04:54:32.515,13 Jun 2027 04:55:32.921,60.407
112,13 Jun 2027 04:55:37.853,13 Jun 2027 04:59:47.603,249.750
113,13 Jun 2027 06:32:57.643,13 Jun 2027 06:37:38.010,280.367
114,13 Jun 2027 07:56:26.970,13 Jun 2027 07:58:44.250,137.280
115,13 Jun 2027 09:32:39.229,13 Jun 2027 09:36:11.393,212.164
116,13 Jun 2027 11:06:12.357,13 Jun 2027 11:14:46.815,514.458
