dataset/facility_timing/facility_Facility-Norilsk/Norilsk-To-KinoSat_111107.csv

Acces,Start Time (UTCG),Stop Time (UTCG),Duration (sec)
1,1 Jun 2027 00:00:01.000,1 Jun 2027 00:09:06.479,545.479
2,1 Jun 2027 01:32:00.834,1 Jun 2027 01:44:27.076,746.242
3,1 Jun 2027 03:07:30.067,1 Jun 2027 03:18:52.429,682.362
4,1 Jun 2027 04:42:21.961,1 Jun 2027 04:53:09.707,647.747
5,1 Jun 2027 06:16:40.330,1 Jun 2027 06:27:59.078,678.748
6,1 Jun 2027 07:51:03.723,1 Jun 2027 08:03:26.400,742.677
7,1 Jun 2027 09:26:19.803,1 Jun 2027 09:39:17.227,777.424
8,1 Jun 2027 11:03:03.916,1 Jun 2027 11:15:17.199,733.283
9,1 Jun 2027 12:41:46.425,1 Jun 2027 12:51:11.050,564.624
10,1 Jun 2027 14:24:37.583,1 Jun 2027 14:24:58.650,21.067
11,1 Jun 2027 19:21:38.070,1 Jun 2027 19:24:03.367,145.296
12,1 Jun 2027 20:56:15.937,1 Jun 2027 21:05:56.388,580.451
13,1 Jun 2027 22:32:10.910,1 Jun 2027 22:44:30.190,739.280
14,2 Jun 2027 00:08:10.690,2 Jun 2027 00:21:07.794,777.104
15,2 Jun 2027 01:44:00.472,2 Jun 2027 01:56:19.305,738.833
16,2 Jun 2027 03:19:25.735,2 Jun 2027 03:30:40.870,675.134
17,2 Jun 2027 04:54:12.489,2 Jun 2027 05:05:00.541,648.052
18,2 Jun 2027 06:28:28.813,2 Jun 2027 06:39:55.062,686.249
19,2 Jun 2027 08:02:56.403,2 Jun 2027 08:15:26.227,749.824
20,2 Jun 2027 09:38:21.841,2 Jun 2027 09:51:18.920,777.079
21,2 Jun 2027 11:15:19.054,2 Jun 2027 11:27:19.121,720.067
22,2 Jun 2027 12:54:19.263,2 Jun 2027 13:03:10.274,531.012
23,2 Jun 2027 19:33:08.384,2 Jun 2027 19:37:17.661,249.277
24,2 Jun 2027 21:08:16.153,2 Jun 2027 21:18:25.283,609.130
25,2 Jun 2027 22:44:12.924,2 Jun 2027 22:56:42.565,749.641
26,3 Jun 2027 00:20:12.162,3 Jun 2027 00:33:07.748,775.586
27,3 Jun 2027 01:55:59.731,3 Jun 2027 02:08:10.734,731.003
28,3 Jun 2027 03:31:20.764,3 Jun 2027 03:42:29.294,668.531
29,3 Jun 2027 05:06:02.489,3 Jun 2027 05:16:51.979,649.490
30,3 Jun 2027 06:40:17.480,3 Jun 2027 06:51:51.643,694.163
31,3 Jun 2027 08:14:50.007,3 Jun 2027 08:27:26.387,756.380
32,3 Jun 2027 09:50:25.334,3 Jun 2027 10:03:20.734,775.400
33,3 Jun 2027 11:27:36.104,3 Jun 2027 11:39:20.925,704.821
34,3 Jun 2027 13:06:54.974,3 Jun 2027 13:15:08.577,493.603
35,3 Jun 2027 19:44:53.525,3 Jun 2027 19:50:15.233,321.708
36,3 Jun 2027 21:20:16.846,3 Jun 2027 21:30:51.781,634.936
37,3 Jun 2027 22:56:14.967,3 Jun 2027 23:08:53.193,758.227
38,4 Jun 2027 00:32:13.450,4 Jun 2027 00:45:06.396,772.947
39,4 Jun 2027 02:07:58.576,4 Jun 2027 02:20:01.438,722.862
40,4 Jun 2027 03:43:15.140,4 Jun 2027 03:54:17.803,662.663
41,4 Jun 2027 05:17:52.010,4 Jun 2027 05:28:44.056,652.047
42,4 Jun 2027 06:52:06.424,4 Jun 2027 07:03:48.786,702.362
43,4 Jun 2027 08:26:44.629,4 Jun 2027 08:39:26.846,762.217
44,4 Jun 2027 10:02:30.326,4 Jun 2027 10:15:22.642,772.316
45,4 Jun 2027 11:39:55.126,4 Jun 2027 11:51:22.588,687.462
46,4 Jun 2027 13:19:33.900,4 Jun 2027 13:27:05.643,451.742
47,4 Jun 2027 19:56:44.529,4 Jun 2027 20:03:05.026,380.497
48,4 Jun 2027 21:32:17.908,4 Jun 2027 21:43:15.995,658.087
49,4 Jun 2027 23:08:17.001,4 Jun 2027 23:21:02.118,765.117
50,5 Jun 2027 00:44:14.534,5 Jun 2027 00:57:03.798,769.264
51,5 Jun 2027 02:19:56.969,5 Jun 2027 02:31:51.510,714.541
52,5 Jun 2027 03:55:08.854,5 Jun 2027 04:06:06.496,657.641
53,5 Jun 2027 05:29:41.133,5 Jun 2027 05:40:36.794,655.661
54,5 Jun 2027 07:03:55.752,5 Jun 2027 07:15:46.469,710.716
55,5 Jun 2027 08:38:40.327,5 Jun 2027 08:51:27.583,767.256
56,5 Jun 2027 10:14:36.883,5 Jun 2027 10:27:24.618,767.735
57,5 Jun 2027 11:52:16.199,5 Jun 2027 12:03:24.042,667.843
58,5 Jun 2027 13:32:16.546,5 Jun 2027 13:39:00.948,404.402
59,5 Jun 2027 20:08:38.797,5 Jun 2027 20:15:49.614,430.817
60,5 Jun 2027 21:44:19.261,5 Jun 2027 21:55:38.032,678.771
61,5 Jun 2027 23:20:18.998,5 Jun 2027 23:33:09.406,770.408
62,6 Jun 2027 00:56:15.385,6 Jun 2027 01:09:00.018,764.633
63,6 Jun 2027 02:31:54.876,6 Jun 2027 02:43:41.060,706.184
64,6 Jun 2027 04:07:01.889,6 Jun 2027 04:17:55.466,653.577
65,6 Jun 2027 05:41:29.943,6 Jun 2027 05:52:30.196,660.254
66,6 Jun 2027 07:15:45.571,6 Jun 2027 07:27:44.644,719.073
67,6 Jun 2027 08:50:37.179,6 Jun 2027 09:03:28.567,771.388
68,6 Jun 2027 10:26:45.060,6 Jun 2027 10:39:26.637,761.578
69,6 Jun 2027 12:04:39.409,6 Jun 2027 12:15:25.239,645.830
70,6 Jun 2027 13:45:03.771,6 Jun 2027 13:50:53.630,349.859
71,6 Jun 2027 20:20:35.142,6 Jun 2027 20:28:30.154,475.013
72,6 Jun 2027 21:56:20.838,6 Jun 2027 22:07:57.980,697.142
73,6 Jun 2027 23:32:20.942,6 Jun 2027 23:45:15.114,774.172
74,7 Jun 2027 01:08:15.979,7 Jun 2027 01:20:55.125,759.145
75,7 Jun 2027 02:43:52.266,7 Jun 2027 02:55:30.172,697.906
76,7 Jun 2027 04:18:54.261,7 Jun 2027 04:29:44.804,650.544
77,7 Jun 2027 05:53:18.520,7 Jun 2027 06:04:24.278,665.758
78,7 Jun 2027 07:27:35.974,7 Jun 2027 07:39:43.288,727.315
79,7 Jun 2027 09:02:35.252,7 Jun 2027 09:15:29.764,774.512
80,7 Jun 2027 10:38:54.898,7 Jun 2027 10:51:28.677,753.780
81,7 Jun 2027 12:17:04.846,7 Jun 2027 12:27:26.107,621.261
82,7 Jun 2027 13:57:57.316,7 Jun 2027 14:02:41.926,284.609
83,7 Jun 2027 20:32:32.934,7 Jun 2027 20:41:07.285,514.351
84,7 Jun 2027 22:08:22.586,7 Jun 2027 22:20:15.916,713.329
85,7 Jun 2027 23:44:22.805,7 Jun 2027 23:57:19.281,776.476
86,8 Jun 2027 01:20:16.275,8 Jun 2027 01:32:49.192,752.917
87,8 Jun 2027 02:55:49.105,8 Jun 2027 03:07:18.951,689.847
88,8 Jun 2027 04:30:45.982,8 Jun 2027 04:41:34.579,648.597
89,8 Jun 2027 06:05:06.961,8 Jun 2027 06:16:19.012,672.050
90,8 Jun 2027 07:39:27.059,8 Jun 2027 07:51:42.362,735.303
91,8 Jun 2027 09:14:34.598,8 Jun 2027 09:27:31.156,776.557
92,8 Jun 2027 10:51:06.467,8 Jun 2027 11:03:30.702,744.235
93,8 Jun 2027 12:29:32.637,8 Jun 2027 12:39:26.544,593.907
94,8 Jun 2027 14:11:01.816,8 Jun 2027 14:14:21.166,199.350
95,8 Jun 2027 20:44:31.779,8 Jun 2027 20:53:41.398,549.619
96,8 Jun 2027 22:20:24.461,8 Jun 2027 22:32:31.917,727.456
97,8 Jun 2027 23:56:24.558,9 Jun 2027 00:09:21.978,777.420
98,9 Jun 2027 01:32:16.257,9 Jun 2027 01:44:42.283,746.026
99,9 Jun 2027 03:07:45.365,9 Jun 2027 03:19:07.514,682.149
100,9 Jun 2027 04:42:37.082,9 Jun 2027 04:53:24.863,647.781
101,9 Jun 2027 06:16:55.382,9 Jun 2027 06:28:14.395,679.013
102,9 Jun 2027 07:51:18.905,9 Jun 2027 08:03:41.837,742.931
103,9 Jun 2027 09:26:35.285,9 Jun 2027 09:39:32.717,777.432
104,9 Jun 2027 11:03:19.820,9 Jun 2027 11:15:32.686,732.866
105,9 Jun 2027 12:42:02.902,9 Jun 2027 12:51:26.440,563.538
106,9 Jun 2027 19:21:52.205,9 Jun 2027 19:24:21.579,149.374
107,9 Jun 2027 20:56:31.408,9 Jun 2027 21:06:12.771,581.363
108,9 Jun 2027 22:32:26.423,9 Jun 2027 22:44:46.048,739.625
109,10 Jun 2027 00:08:26.175,10 Jun 2027 00:21:23.256,777.081
110,10 Jun 2027 01:44:15.887,10 Jun 2027 01:56:34.489,738.602
111,10 Jun 2027 03:19:41.009,10 Jun 2027 03:30:55.953,674.944
112,10 Jun 2027 04:54:27.594,10 Jun 2027 05:05:15.715,648.120
113,10 Jun 2027 06:28:43.872,10 Jun 2027 06:40:10.398,686.526
114,10 Jun 2027 08:03:11.610,10 Jun 2027 08:15:41.668,750.058
115,10 Jun 2027 09:38:37.372,10 Jun 2027 09:51:34.411,777.039
116,10 Jun 2027 11:15:35.022,10 Jun 2027 11:27:34.599,719.577
117,10 Jun 2027 12:54:35.827,10 Jun 2027 13:03:25.633,529.806
118,10 Jun 2027 19:33:23.305,10 Jun 2027 19:37:35.022,251.717
119,10 Jun 2027 21:08:31.640,10 Jun 2027 21:18:41.587,609.947
120,10 Jun 2027 22:44:28.438,10 Jun 2027 22:56:58.365,749.927
121,11 Jun 2027 00:20:27.643,11 Jun 2027 00:33:23.163,775.521
122,11 Jun 2027 01:56:15.132,11 Jun 2027 02:08:25.893,730.762
123,11 Jun 2027 03:31:36.012,11 Jun 2027 03:42:44.374,668.362
124,11 Jun 2027 05:06:17.574,11 Jun 2027 05:17:07.170,649.596
125,11 Jun 2027 06:40:32.539,11 Jun 2027 06:52:06.993,694.453
126,11 Jun 2027 08:15:05.254,11 Jun 2027 08:27:41.836,756.583
127,11 Jun 2027 09:50:40.905,11 Jun 2027 10:03:36.231,775.326
128,11 Jun 2027 11:27:52.127,11 Jun 2027 11:39:36.404,704.277
129,11 Jun 2027 13:07:11.649,11 Jun 2027 13:15:23.900,492.251
130,11 Jun 2027 19:45:08.683,11 Jun 2027 19:50:32.298,323.615
131,11 Jun 2027 21:20:32.338,11 Jun 2027 21:31:08.006,635.668
132,11 Jun 2027 22:56:30.480,11 Jun 2027 23:09:08.936,758.457
133,12 Jun 2027 00:32:28.922,12 Jun 2027 00:45:21.772,772.850
134,12 Jun 2027 02:08:13.958,12 Jun 2027 02:20:16.576,722.618
135,12 Jun 2027 03:43:30.366,12 Jun 2027 03:54:32.889,662.523
136,12 Jun 2027 05:18:07.088,12 Jun 2027 05:28:59.266,652.178
137,12 Jun 2027 06:52:21.496,12 Jun 2027 07:04:04.158,702.662
138,12 Jun 2027 08:26:59.906,12 Jun 2027 08:39:42.311,762.405
139,12 Jun 2027 10:02:45.955,12 Jun 2027 10:15:38.134,772.179
140,12 Jun 2027 11:40:11.219,12 Jun 2027 11:51:38.053,686.834
141,12 Jun 2027 13:19:50.687,12 Jun 2027 13:27:20.906,450.219
142,12 Jun 2027 19:56:59.805,12 Jun 2027 20:03:21.908,382.103
143,12 Jun 2027 21:32:33.410,12 Jun 2027 21:43:32.151,658.741
144,12 Jun 2027 23:08:32.506,12 Jun 2027 23:21:17.811,765.306
145,13 Jun 2027 00:44:29.997,13 Jun 2027 00:57:19.133,769.136
146,13 Jun 2027 02:20:12.330,13 Jun 2027 02:32:06.631,714.302
147,13 Jun 2027 03:55:24.055,13 Jun 2027 04:06:21.588,657.533
148,13 Jun 2027 05:29:56.194,13 Jun 2027 05:40:52.023,655.829
149,13 Jun 2027 07:04:10.841,13 Jun 2027 07:16:01.852,711.011
150,13 Jun 2027 08:38:55.639,13 Jun 2027 08:51:43.050,767.411
151,13 Jun 2027 10:14:52.559,13 Jun 2027 10:27:40.110,767.551
152,13 Jun 2027 11:52:32.360,13 Jun 2027 12:03:39.499,667.139
153,13 Jun 2027 13:32:33.472,13 Jun 2027 13:39:16.131,402.660
154,13 Jun 2027 20:08:54.144,13 Jun 2027 20:16:06.359,432.215
155,13 Jun 2027 21:44:34.765,13 Jun 2027 21:55:54.123,679.358
156,13 Jun 2027 23:20:34.503,13 Jun 2027 23:33:25.044,770.541
