dataset/facility_timing/facility_Facility-Norilsk/Norilsk-To-KinoSat_111206.csv

Acces,Start Time (UTCG),Stop Time (UTCG),Duration (sec)
1,1 Jun 2027 00:01:53.423,1 Jun 2027 00:14:48.457,775.034
2,1 Jun 2027 01:37:48.123,1 Jun 2027 01:50:25.444,757.321
3,1 Jun 2027 03:13:23.525,1 Jun 2027 03:24:58.820,695.295
4,1 Jun 2027 04:48:24.097,1 Jun 2027 04:59:13.611,649.514
5,1 Jun 2027 06:22:47.328,1 Jun 2027 06:33:54.507,667.179
6,1 Jun 2027 07:57:05.401,1 Jun 2027 08:09:14.863,729.462
7,1 Jun 2027 09:32:06.927,1 Jun 2027 09:45:02.128,775.201
8,1 Jun 2027 11:08:29.984,1 Jun 2027 11:21:01.352,751.368
9,1 Jun 2027 12:46:44.422,1 Jun 2027 12:56:58.534,614.113
10,1 Jun 2027 14:27:45.611,1 Jun 2027 14:32:10.129,264.518
11,1 Jun 2027 21:02:04.148,1 Jun 2027 21:10:49.725,525.577
12,1 Jun 2027 22:37:54.974,1 Jun 2027 22:49:52.833,717.859
13,2 Jun 2027 00:13:55.303,2 Jun 2027 00:26:52.225,776.922
14,2 Jun 2027 01:49:48.378,2 Jun 2027 02:02:19.239,750.861
15,2 Jun 2027 03:25:20.242,2 Jun 2027 03:36:47.544,687.302
16,2 Jun 2027 05:00:15.666,2 Jun 2027 05:11:03.549,647.883
17,2 Jun 2027 06:34:35.776,2 Jun 2027 06:45:49.470,673.695
18,2 Jun 2027 08:08:56.709,2 Jun 2027 08:21:14.103,737.394
19,2 Jun 2027 09:44:06.684,2 Jun 2027 09:57:03.614,776.930
20,2 Jun 2027 11:20:42.099,2 Jun 2027 11:33:03.416,741.317
21,2 Jun 2027 12:59:12.939,2 Jun 2027 13:08:58.895,585.956
22,2 Jun 2027 14:40:55.158,2 Jun 2027 14:43:44.967,169.810
23,2 Jun 2027 21:14:03.311,2 Jun 2027 21:23:23.039,559.728
24,2 Jun 2027 22:49:56.931,2 Jun 2027 23:02:08.321,731.390
25,3 Jun 2027 00:25:57.067,3 Jun 2027 00:38:54.535,777.467
26,3 Jun 2027 02:01:48.308,3 Jun 2027 02:14:12.088,743.779
27,3 Jun 2027 03:37:16.361,3 Jun 2027 03:48:36.073,679.712
28,3 Jun 2027 05:12:06.613,3 Jun 2027 05:22:54.019,647.406
29,3 Jun 2027 06:46:24.220,3 Jun 2027 06:57:45.071,680.852
30,3 Jun 2027 08:20:48.816,3 Jun 2027 08:33:13.723,744.907
31,3 Jun 2027 09:56:07.793,3 Jun 2027 10:09:05.265,777.472
32,3 Jun 2027 11:32:56.009,3 Jun 2027 11:45:05.436,729.427
33,3 Jun 2027 13:11:43.984,3 Jun 2027 13:20:58.672,554.688
34,3 Jun 2027 19:51:11.783,3 Jun 2027 19:54:19.190,187.407
35,3 Jun 2027 21:26:03.199,3 Jun 2027 21:35:53.677,590.478
36,3 Jun 2027 23:01:58.964,3 Jun 2027 23:14:21.952,742.988
37,4 Jun 2027 00:37:58.693,4 Jun 2027 00:50:55.429,776.736
38,4 Jun 2027 02:13:47.873,4 Jun 2027 02:26:04.066,736.193
39,4 Jun 2027 03:49:11.858,4 Jun 2027 04:00:24.515,672.657
40,4 Jun 2027 05:23:56.990,4 Jun 2027 05:34:45.065,648.075
41,4 Jun 2027 06:58:12.763,4 Jun 2027 07:09:41.288,688.525
42,4 Jun 2027 08:32:41.808,4 Jun 2027 08:45:13.708,751.900
43,4 Jun 2027 10:08:10.321,4 Jun 2027 10:21:07.048,776.727
44,4 Jun 2027 11:45:11.790,4 Jun 2027 11:57:07.378,715.588
45,4 Jun 2027 13:24:17.744,4 Jun 2027 13:32:57.694,519.950
46,4 Jun 2027 20:02:49.430,4 Jun 2027 20:07:25.642,276.212
47,4 Jun 2027 21:38:03.643,4 Jun 2027 21:48:21.819,618.175
48,4 Jun 2027 23:14:01.040,4 Jun 2027 23:26:33.788,752.748
49,5 Jun 2027 00:50:00.150,5 Jun 2027 01:02:54.984,774.834
50,5 Jun 2027 02:25:47.042,5 Jun 2027 02:37:55.265,728.223
51,5 Jun 2027 04:01:06.712,5 Jun 2027 04:12:12.969,666.257
52,5 Jun 2027 05:35:46.849,5 Jun 2027 05:46:36.736,649.887
53,5 Jun 2027 07:10:01.523,5 Jun 2027 07:21:38.093,696.570
54,5 Jun 2027 08:44:35.755,5 Jun 2027 08:57:14.013,758.258
55,5 Jun 2027 10:20:14.324,5 Jun 2027 10:33:08.937,774.613
56,5 Jun 2027 11:57:29.504,5 Jun 2027 12:09:09.194,699.690
57,5 Jun 2027 13:36:54.473,5 Jun 2027 13:44:55.715,481.241
58,5 Jun 2027 20:14:37.126,5 Jun 2027 20:20:20.145,343.019
59,5 Jun 2027 21:50:04.523,5 Jun 2027 22:00:47.594,643.071
60,5 Jun 2027 23:26:03.133,5 Jun 2027 23:38:43.889,760.756
61,6 Jun 2027 01:02:01.423,6 Jun 2027 01:14:53.241,771.818
62,6 Jun 2027 02:37:45.780,6 Jun 2027 02:49:45.773,719.993
63,6 Jun 2027 04:13:00.909,6 Jun 2027 04:24:01.549,660.640
64,6 Jun 2027 05:47:36.256,6 Jun 2027 05:58:29.055,652.799
65,6 Jun 2027 07:21:50.598,6 Jun 2027 07:33:35.455,704.856
66,6 Jun 2027 08:56:30.734,6 Jun 2027 09:09:14.611,763.877
67,6 Jun 2027 10:32:19.846,6 Jun 2027 10:45:10.916,771.071
68,6 Jun 2027 12:09:49.218,6 Jun 2027 12:21:10.845,681.627
69,6 Jun 2027 13:49:34.548,6 Jun 2027 13:56:52.367,437.819
70,6 Jun 2027 20:26:29.500,6 Jun 2027 20:33:08.039,398.539
71,6 Jun 2027 22:02:05.745,6 Jun 2027 22:13:11.121,665.376
72,6 Jun 2027 23:38:05.202,6 Jun 2027 23:50:52.310,767.108
73,7 Jun 2027 01:14:02.478,7 Jun 2027 01:26:50.275,767.797
74,7 Jun 2027 02:49:44.059,7 Jun 2027 03:01:35.684,711.625
75,7 Jun 2027 04:24:54.432,7 Jun 2027 04:35:50.338,655.907
76,7 Jun 2027 05:59:25.286,7 Jun 2027 06:10:22.035,656.749
77,7 Jun 2027 07:33:40.093,7 Jun 2027 07:45:33.339,713.246
78,7 Jun 2027 09:08:26.823,7 Jun 2027 09:21:15.470,768.647
79,7 Jun 2027 10:44:26.952,7 Jun 2027 10:57:12.956,766.005
80,7 Jun 2027 12:22:11.011,7 Jun 2027 12:33:12.278,661.267
81,7 Jun 2027 14:02:18.554,7 Jun 2027 14:08:47.046,388.492
82,7 Jun 2027 20:38:24.635,7 Jun 2027 20:45:51.210,446.575
83,7 Jun 2027 22:14:07.233,7 Jun 2027 22:25:32.507,685.274
84,7 Jun 2027 23:50:07.234,8 Jun 2027 00:02:59.103,771.869
85,8 Jun 2027 01:26:03.295,8 Jun 2027 01:38:46.147,762.852
86,8 Jun 2027 03:01:41.842,8 Jun 2027 03:13:25.097,703.255
87,8 Jun 2027 04:36:47.278,8 Jun 2027 04:47:39.441,652.163
88,8 Jun 2027 06:11:14.030,8 Jun 2027 06:22:15.697,661.668
89,8 Jun 2027 07:45:30.108,8 Jun 2027 07:57:31.710,721.602
90,8 Jun 2027 09:20:24.088,8 Jun 2027 09:33:16.574,772.486
91,8 Jun 2027 10:56:35.697,8 Jun 2027 11:09:15.036,759.339
92,8 Jun 2027 12:34:34.967,8 Jun 2027 12:45:13.429,638.462
93,8 Jun 2027 14:15:07.542,8 Jun 2027 14:20:38.697,331.156
94,8 Jun 2027 20:50:21.594,8 Jun 2027 20:58:30.594,489.001
95,8 Jun 2027 22:26:08.920,8 Jun 2027 22:37:51.825,702.906
96,9 Jun 2027 00:02:09.202,9 Jun 2027 00:15:04.333,775.130
97,9 Jun 2027 01:38:03.837,9 Jun 2027 01:50:40.926,757.089
98,9 Jun 2027 03:13:39.093,9 Jun 2027 03:25:14.106,695.013
99,9 Jun 2027 04:48:39.463,9 Jun 2027 04:59:28.936,649.473
100,9 Jun 2027 06:23:02.569,9 Jun 2027 06:34:10.024,667.455
101,9 Jun 2027 07:57:20.739,9 Jun 2027 08:09:30.538,729.799
102,9 Jun 2027 09:32:22.596,9 Jun 2027 09:45:17.879,775.284
103,9 Jun 2027 11:08:46.125,9 Jun 2027 11:21:17.117,750.992
104,9 Jun 2027 12:47:01.194,9 Jun 2027 12:57:14.224,613.030
105,9 Jun 2027 14:28:03.760,9 Jun 2027 14:32:25.041,261.281
106,9 Jun 2027 21:02:19.839,9 Jun 2027 21:11:06.723,526.885
107,9 Jun 2027 22:38:10.769,9 Jun 2027 22:50:09.152,718.382
108,10 Jun 2027 00:14:11.076,10 Jun 2027 00:27:08.040,776.964
109,10 Jun 2027 01:50:04.075,10 Jun 2027 02:02:34.688,750.613
110,10 Jun 2027 03:25:35.782,10 Jun 2027 03:37:02.818,687.036
111,10 Jun 2027 05:00:31.004,10 Jun 2027 05:11:18.893,647.889
112,10 Jun 2027 06:34:51.008,10 Jun 2027 06:46:05.005,673.997
113,10 Jun 2027 08:09:12.085,10 Jun 2027 08:21:29.787,737.702
114,10 Jun 2027 09:44:22.400,10 Jun 2027 09:57:19.372,776.972
115,10 Jun 2027 11:20:58.305,10 Jun 2027 11:33:19.182,740.877
116,10 Jun 2027 12:59:29.813,10 Jun 2027 13:09:14.563,584.749
117,10 Jun 2027 14:41:14.247,10 Jun 2027 14:43:59.016,164.768
118,10 Jun 2027 21:14:19.032,10 Jun 2027 21:23:39.938,560.907
119,10 Jun 2027 22:50:12.727,10 Jun 2027 23:02:24.570,731.843
120,11 Jun 2027 00:26:12.831,11 Jun 2027 00:39:10.294,777.464
121,11 Jun 2027 02:02:03.988,11 Jun 2027 02:14:27.499,743.511
122,11 Jun 2027 03:37:31.880,11 Jun 2027 03:48:51.345,679.465
123,11 Jun 2027 05:12:21.931,11 Jun 2027 05:23:09.384,647.454
124,11 Jun 2027 06:46:39.458,11 Jun 2027 06:58:00.632,681.173
125,11 Jun 2027 08:21:04.220,11 Jun 2027 08:33:29.424,745.204
126,11 Jun 2027 09:56:23.563,11 Jun 2027 10:09:21.028,777.465
127,11 Jun 2027 11:33:12.291,11 Jun 2027 11:45:21.195,728.904
128,11 Jun 2027 13:12:00.962,11 Jun 2027 13:21:14.309,553.347
129,11 Jun 2027 19:51:26.421,11 Jun 2027 19:54:37.687,191.266
130,11 Jun 2027 21:26:18.943,11 Jun 2027 21:36:10.482,591.539
131,11 Jun 2027 23:02:14.755,11 Jun 2027 23:14:38.127,743.372
132,12 Jun 2027 00:38:14.451,12 Jun 2027 00:51:11.136,776.685
133,12 Jun 2027 02:14:03.531,12 Jun 2027 02:26:19.452,735.921
134,12 Jun 2027 03:49:27.348,12 Jun 2027 04:00:39.783,672.435
135,12 Jun 2027 05:24:12.290,12 Jun 2027 05:35:00.450,648.160
136,12 Jun 2027 06:58:28.008,12 Jun 2027 07:09:56.866,688.858
137,12 Jun 2027 08:32:57.247,12 Jun 2027 08:45:29.420,752.172
138,12 Jun 2027 10:08:26.147,12 Jun 2027 10:21:22.813,776.666
139,12 Jun 2027 11:45:28.145,12 Jun 2027 11:57:23.130,714.985
140,12 Jun 2027 13:24:34.834,12 Jun 2027 13:33:13.291,518.457
141,12 Jun 2027 20:03:04.625,12 Jun 2027 20:07:43.510,278.885
142,12 Jun 2027 21:38:19.401,12 Jun 2027 21:48:38.528,619.127
143,12 Jun 2027 23:14:16.830,12 Jun 2027 23:26:49.899,753.070
144,13 Jun 2027 00:50:15.899,13 Jun 2027 01:03:10.640,774.741
145,13 Jun 2027 02:26:02.687,13 Jun 2027 02:38:10.620,727.933
146,13 Jun 2027 04:01:22.177,13 Jun 2027 04:12:28.242,666.066
147,13 Jun 2027 05:36:02.125,13 Jun 2027 05:46:52.147,650.022
148,13 Jun 2027 07:10:16.778,13 Jun 2027 07:21:53.695,696.917
149,13 Jun 2027 08:44:51.230,13 Jun 2027 08:57:29.734,758.504
150,13 Jun 2027 10:20:30.207,13 Jun 2027 10:33:24.704,774.496
151,13 Jun 2027 11:57:45.936,13 Jun 2027 12:09:24.937,699.001
152,13 Jun 2027 13:37:11.690,13 Jun 2027 13:45:11.258,479.568
153,13 Jun 2027 20:14:52.542,13 Jun 2027 20:20:37.717,345.175
154,13 Jun 2027 21:50:20.290,13 Jun 2027 22:01:04.217,643.927
155,13 Jun 2027 23:26:18.919,13 Jun 2027 23:38:59.934,761.015
