dataset/facility_timing/facility_Facility-Norilsk/Norilsk-To-KinoSat_110905.csv

Acces,Start Time (UTCG),Stop Time (UTCG),Duration (sec)
1,1 Jun 2027 00:23:11.514,1 Jun 2027 00:35:45.582,754.069
2,1 Jun 2027 01:58:44.768,1 Jun 2027 02:10:16.196,691.428
3,1 Jun 2027 03:33:42.368,1 Jun 2027 03:44:31.687,649.319
4,1 Jun 2027 05:08:03.845,1 Jun 2027 05:19:15.328,671.483
5,1 Jun 2027 06:42:23.585,1 Jun 2027 06:54:37.938,734.353
6,1 Jun 2027 08:17:29.929,1 Jun 2027 08:30:26.266,776.337
7,1 Jun 2027 09:54:00.016,1 Jun 2027 10:06:25.572,745.556
8,1 Jun 2027 11:32:23.872,1 Jun 2027 11:42:21.442,597.570
9,1 Jun 2027 13:13:47.686,1 Jun 2027 13:17:19.053,211.367
10,1 Jun 2027 19:47:27.680,1 Jun 2027 19:56:31.318,543.638
11,1 Jun 2027 21:23:19.661,1 Jun 2027 21:35:24.776,725.115
12,1 Jun 2027 22:59:19.624,1 Jun 2027 23:12:16.950,777.326
13,2 Jun 2027 00:35:11.474,2 Jun 2027 00:47:38.782,747.307
14,2 Jun 2027 02:10:41.059,2 Jun 2027 02:22:04.754,683.695
15,2 Jun 2027 03:45:33.519,2 Jun 2027 03:56:21.849,648.330
16,2 Jun 2027 05:19:52.236,2 Jun 2027 05:31:10.559,678.323
17,2 Jun 2027 06:54:15.278,2 Jun 2027 07:06:37.286,742.008
18,2 Jun 2027 08:29:30.364,2 Jun 2027 08:42:27.730,777.365
19,2 Jun 2027 10:06:13.043,2 Jun 2027 10:18:27.486,734.443
20,2 Jun 2027 11:44:53.695,2 Jun 2027 11:54:21.333,567.638
21,2 Jun 2027 13:27:24.888,2 Jun 2027 13:28:27.011,62.123
22,2 Jun 2027 18:24:58.060,2 Jun 2027 18:26:59.332,121.272
23,2 Jun 2027 19:59:27.095,2 Jun 2027 20:09:03.049,575.953
24,2 Jun 2027 21:35:21.530,2 Jun 2027 21:47:39.136,737.605
25,2 Jun 2027 23:11:21.189,2 Jun 2027 23:24:18.399,777.210
26,3 Jun 2027 00:47:11.091,3 Jun 2027 00:59:31.089,739.998
27,3 Jun 2027 02:22:36.740,3 Jun 2027 02:33:53.176,676.436
28,3 Jun 2027 03:57:24.077,3 Jun 2027 04:08:12.570,648.492
29,3 Jun 2027 05:31:40.680,3 Jun 2027 05:43:06.408,685.728
30,3 Jun 2027 07:06:07.814,3 Jun 2027 07:18:36.995,749.181
31,3 Jun 2027 08:41:32.188,3 Jun 2027 08:54:29.330,777.141
32,3 Jun 2027 10:18:27.897,3 Jun 2027 10:30:29.332,721.435
33,3 Jun 2027 11:57:26.149,3 Jun 2027 12:06:20.538,534.388
34,3 Jun 2027 18:36:23.047,3 Jun 2027 18:40:19.008,235.962
35,3 Jun 2027 20:11:27.144,3 Jun 2027 20:21:32.196,605.052
36,3 Jun 2027 21:47:23.463,3 Jun 2027 21:59:51.673,748.210
37,3 Jun 2027 23:23:22.609,3 Jun 2027 23:36:18.471,775.862
38,4 Jun 2027 00:59:10.325,4 Jun 2027 01:11:22.581,732.255
39,4 Jun 2027 02:34:31.788,4 Jun 2027 02:45:41.564,669.777
40,4 Jun 2027 04:09:14.099,4 Jun 2027 04:20:03.885,649.786
41,4 Jun 2027 05:43:29.286,4 Jun 2027 05:55:02.851,693.566
42,4 Jun 2027 07:18:01.275,4 Jun 2027 07:30:37.043,755.768
43,4 Jun 2027 08:53:35.446,4 Jun 2027 09:06:31.054,775.607
44,4 Jun 2027 10:30:44.643,4 Jun 2027 10:42:31.074,706.432
45,4 Jun 2027 12:10:01.462,4 Jun 2027 12:18:18.852,497.389
46,4 Jun 2027 18:48:06.671,4 Jun 2027 18:53:18.169,311.498
47,4 Jun 2027 20:23:27.680,4 Jun 2027 20:33:58.930,631.249
48,4 Jun 2027 21:59:25.421,4 Jun 2027 22:12:02.461,757.040
49,4 Jun 2027 23:35:23.846,4 Jun 2027 23:48:17.236,773.391
50,5 Jun 2027 01:11:09.156,5 Jun 2027 01:23:13.340,724.184
51,5 Jun 2027 02:46:26.191,5 Jun 2027 02:57:30.028,663.837
52,5 Jun 2027 04:21:03.647,5 Jun 2027 04:31:55.833,652.186
53,5 Jun 2027 05:55:18.164,5 Jun 2027 06:06:59.867,701.703
54,5 Jun 2027 07:29:55.730,5 Jun 2027 07:42:37.402,761.672
55,5 Jun 2027 09:05:40.208,5 Jun 2027 09:18:32.874,772.666
56,5 Jun 2027 10:43:03.361,5 Jun 2027 10:54:32.667,689.306
57,5 Jun 2027 12:22:39.938,5 Jun 2027 12:30:15.954,456.016
58,5 Jun 2027 18:59:56.873,5 Jun 2027 19:06:08.840,371.967
59,5 Jun 2027 20:35:28.609,5 Jun 2027 20:46:23.363,654.754
60,5 Jun 2027 22:11:27.372,5 Jun 2027 22:24:11.546,764.174
61,5 Jun 2027 23:47:24.883,6 Jun 2027 00:00:14.752,769.869
62,6 Jun 2027 01:23:07.537,6 Jun 2027 01:35:03.458,715.921
63,6 Jun 2027 02:58:19.935,6 Jun 2027 03:09:18.661,658.726
64,6 Jun 2027 04:32:52.778,6 Jun 2027 04:43:48.437,655.659
65,6 Jun 2027 06:07:07.414,6 Jun 2027 06:18:57.415,710.002
66,6 Jun 2027 07:41:51.251,6 Jun 2027 07:54:38.028,766.777
67,6 Jun 2027 09:17:46.512,6 Jun 2027 09:30:34.764,768.252
68,6 Jun 2027 10:55:24.114,6 Jun 2027 11:06:34.062,669.948
69,6 Jun 2027 12:35:22.075,6 Jun 2027 12:42:11.357,409.282
70,6 Jun 2027 19:11:50.620,6 Jun 2027 19:18:54.034,423.413
71,6 Jun 2027 20:47:29.834,6 Jun 2027 20:58:45.616,675.783
72,6 Jun 2027 22:23:29.299,6 Jun 2027 22:36:18.985,769.685
73,6 Jun 2027 23:59:25.691,7 Jun 2027 00:12:11.081,765.390
74,7 Jun 2027 01:35:05.443,7 Jun 2027 01:46:53.040,707.597
75,7 Jun 2027 03:10:13.005,7 Jun 2027 03:21:07.559,654.555
76,7 Jun 2027 04:44:41.591,7 Jun 2027 04:55:41.704,660.113
77,7 Jun 2027 06:18:57.137,7 Jun 2027 06:30:55.461,718.325
78,7 Jun 2027 07:53:47.916,7 Jun 2027 08:06:38.906,770.990
79,7 Jun 2027 09:29:54.429,7 Jun 2027 09:42:36.701,762.271
80,7 Jun 2027 11:07:46.990,7 Jun 2027 11:18:35.203,648.213
81,7 Jun 2027 12:48:08.685,7 Jun 2027 12:54:04.243,355.558
82,7 Jun 2027 19:23:46.587,7 Jun 2027 19:31:35.036,468.449
83,7 Jun 2027 20:59:31.296,7 Jun 2027 21:11:05.771,694.475
84,7 Jun 2027 22:35:31.173,7 Jun 2027 22:48:24.842,773.670
85,8 Jun 2027 00:11:26.248,8 Jun 2027 00:24:06.290,760.042
86,8 Jun 2027 01:47:02.836,8 Jun 2027 01:58:42.174,699.338
87,8 Jun 2027 03:22:05.413,8 Jun 2027 03:32:56.811,651.398
88,8 Jun 2027 04:56:30.162,8 Jun 2027 05:07:35.645,665.483
89,8 Jun 2027 06:30:47.431,8 Jun 2027 06:42:53.980,726.549
90,8 Jun 2027 08:05:45.788,8 Jun 2027 08:18:40.005,774.216
91,8 Jun 2027 09:42:03.997,8 Jun 2027 09:54:38.660,754.664
92,8 Jun 2027 11:20:12.079,8 Jun 2027 11:30:36.024,623.945
93,8 Jun 2027 13:01:01.382,8 Jun 2027 13:05:52.973,291.591
94,8 Jun 2027 19:35:44.086,8 Jun 2027 19:44:12.553,508.468
95,8 Jun 2027 21:11:32.938,8 Jun 2027 21:23:23.905,710.966
96,8 Jun 2027 22:47:32.971,8 Jun 2027 23:00:29.157,776.186
97,9 Jun 2027 00:23:26.510,9 Jun 2027 00:36:00.454,753.944
98,9 Jun 2027 01:58:59.685,9 Jun 2027 02:10:30.964,691.279
99,9 Jun 2027 03:33:57.172,9 Jun 2027 03:44:46.488,649.316
100,9 Jun 2027 05:08:18.586,9 Jun 2027 05:19:30.237,671.652
101,9 Jun 2027 06:42:38.394,9 Jun 2027 06:54:52.930,734.536
102,9 Jun 2027 08:17:44.924,9 Jun 2027 08:30:41.298,776.374
103,9 Jun 2027 09:54:15.284,9 Jun 2027 10:06:40.606,745.322
104,9 Jun 2027 11:32:39.504,9 Jun 2027 11:42:36.423,596.919
105,9 Jun 2027 13:14:04.302,9 Jun 2027 13:17:33.380,209.078
106,9 Jun 2027 19:47:42.690,9 Jun 2027 19:56:47.004,544.314
107,9 Jun 2027 21:23:34.713,9 Jun 2027 21:35:40.097,725.384
108,9 Jun 2027 22:59:34.662,9 Jun 2027 23:12:31.997,777.335
109,10 Jun 2027 00:35:26.465,10 Jun 2027 00:47:53.633,747.168
110,10 Jun 2027 02:10:55.961,10 Jun 2027 02:22:19.520,683.559
111,10 Jun 2027 03:45:48.308,10 Jun 2027 03:56:36.661,648.353
112,10 Jun 2027 05:20:06.976,10 Jun 2027 05:31:25.479,678.502
113,10 Jun 2027 06:54:30.104,10 Jun 2027 07:06:52.285,742.180
114,10 Jun 2027 08:29:45.390,10 Jun 2027 08:42:42.763,777.373
115,10 Jun 2027 10:06:28.349,10 Jun 2027 10:18:42.516,734.167
116,10 Jun 2027 11:45:09.383,10 Jun 2027 11:54:36.297,566.913
117,10 Jun 2027 13:27:44.477,10 Jun 2027 13:28:38.407,53.930
118,10 Jun 2027 18:25:11.957,10 Jun 2027 18:27:16.417,124.461
119,10 Jun 2027 19:59:42.116,10 Jun 2027 20:09:18.676,576.560
120,10 Jun 2027 21:35:36.584,10 Jun 2027 21:47:54.413,737.829
121,10 Jun 2027 23:11:36.225,10 Jun 2027 23:24:33.412,777.187
122,11 Jun 2027 00:47:26.068,11 Jun 2027 00:59:45.921,739.853
123,11 Jun 2027 02:22:51.623,11 Jun 2027 02:34:07.941,676.317
124,11 Jun 2027 03:57:38.854,11 Jun 2027 04:08:27.394,648.540
125,11 Jun 2027 05:31:55.419,11 Jun 2027 05:43:21.339,685.920
126,11 Jun 2027 07:06:22.663,11 Jun 2027 07:18:52.003,749.340
127,11 Jun 2027 08:41:47.241,11 Jun 2027 08:54:44.365,777.124
128,11 Jun 2027 10:18:43.239,11 Jun 2027 10:30:44.361,721.121
129,11 Jun 2027 11:57:41.904,11 Jun 2027 12:06:35.480,533.576
130,11 Jun 2027 18:36:37.676,11 Jun 2027 18:40:35.324,237.647
131,11 Jun 2027 20:11:42.172,11 Jun 2027 20:21:47.777,605.605
132,11 Jun 2027 21:47:38.510,11 Jun 2027 22:00:06.917,748.406
133,11 Jun 2027 23:23:37.637,11 Jun 2027 23:36:33.459,775.822
134,12 Jun 2027 00:59:25.296,12 Jun 2027 01:11:37.398,732.102
135,12 Jun 2027 02:34:46.660,12 Jun 2027 02:45:56.333,669.673
136,12 Jun 2027 04:09:28.868,12 Jun 2027 04:20:18.723,649.855
137,12 Jun 2027 05:43:44.037,12 Jun 2027 05:55:17.797,693.759
138,12 Jun 2027 07:18:16.137,12 Jun 2027 07:30:52.057,755.920
139,12 Jun 2027 08:53:50.537,12 Jun 2027 09:06:46.088,775.551
140,12 Jun 2027 10:31:00.036,12 Jun 2027 10:42:46.091,706.055
141,12 Jun 2027 12:10:17.276,12 Jun 2027 12:18:33.762,496.487
142,12 Jun 2027 18:48:21.477,12 Jun 2027 18:53:34.262,312.785
143,12 Jun 2027 20:23:42.718,12 Jun 2027 20:34:14.458,631.740
144,12 Jun 2027 21:59:40.468,12 Jun 2027 22:12:17.667,757.199
145,12 Jun 2027 23:35:38.868,12 Jun 2027 23:48:32.198,773.330
146,13 Jun 2027 01:11:24.115,13 Jun 2027 01:23:28.143,724.028
147,13 Jun 2027 02:46:41.047,13 Jun 2027 02:57:44.796,663.749
148,13 Jun 2027 04:21:18.401,13 Jun 2027 04:32:10.683,652.281
149,13 Jun 2027 05:55:32.917,13 Jun 2027 06:07:14.820,701.903
150,13 Jun 2027 07:30:10.617,13 Jun 2027 07:42:52.416,761.799
151,13 Jun 2027 09:05:55.328,13 Jun 2027 09:18:47.908,772.580
152,13 Jun 2027 10:43:18.794,13 Jun 2027 10:54:47.681,688.887
153,13 Jun 2027 12:22:55.833,13 Jun 2027 12:30:30.831,454.998
154,13 Jun 2027 19:00:11.765,13 Jun 2027 19:06:24.807,373.042
155,13 Jun 2027 20:35:43.652,13 Jun 2027 20:46:38.846,655.194
156,13 Jun 2027 22:11:42.419,13 Jun 2027 22:24:26.717,764.298
157,13 Jun 2027 23:47:39.899,14 Jun 2027 00:00:01.000,741.101
