dataset/facility_timing/facility_Facility-Norilsk/Norilsk-To-KinoSat_111205.csv

Acces,Start Time (UTCG),Stop Time (UTCG),Duration (sec)
1,1 Jun 2027 00:11:29.358,1 Jun 2027 00:24:26.007,776.650
2,1 Jun 2027 01:47:22.783,1 Jun 2027 01:59:55.012,752.230
3,1 Jun 2027 03:22:55.391,1 Jun 2027 03:34:24.290,688.899
4,1 Jun 2027 04:57:51.868,1 Jun 2027 05:08:39.986,648.118
5,1 Jun 2027 06:32:12.567,1 Jun 2027 06:43:24.873,672.306
6,1 Jun 2027 08:06:32.849,1 Jun 2027 08:18:48.655,735.806
7,1 Jun 2027 09:41:41.056,1 Jun 2027 09:54:37.725,776.669
8,1 Jun 2027 11:18:13.915,1 Jun 2027 11:30:37.429,743.515
9,1 Jun 2027 12:56:41.353,1 Jun 2027 13:06:33.296,591.943
10,1 Jun 2027 14:38:13.467,1 Jun 2027 14:41:26.317,192.850
11,1 Jun 2027 21:11:37.844,1 Jun 2027 21:20:50.905,553.061
12,1 Jun 2027 22:47:30.953,1 Jun 2027 22:59:39.747,728.794
13,2 Jun 2027 00:23:31.148,2 Jun 2027 00:36:28.610,777.463
14,2 Jun 2027 01:59:22.783,2 Jun 2027 02:11:48.043,745.260
15,2 Jun 2027 03:34:51.633,2 Jun 2027 03:46:12.850,681.217
16,2 Jun 2027 05:09:42.939,2 Jun 2027 05:20:30.341,647.403
17,2 Jun 2027 06:44:01.002,2 Jun 2027 06:55:20.345,679.343
18,2 Jun 2027 08:18:24.787,2 Jun 2027 08:30:48.203,743.416
19,2 Jun 2027 09:53:41.884,2 Jun 2027 10:06:39.347,777.463
20,2 Jun 2027 11:30:27.452,2 Jun 2027 11:42:39.461,732.009
21,2 Jun 2027 13:09:11.867,2 Jun 2027 13:18:33.204,561.337
22,2 Jun 2027 19:48:53.448,2 Jun 2027 19:51:37.162,163.713
23,2 Jun 2027 21:23:37.601,2 Jun 2027 21:33:22.076,584.475
24,2 Jun 2027 22:59:32.973,2 Jun 2027 23:11:53.752,740.778
25,3 Jun 2027 00:35:32.800,3 Jun 2027 00:48:29.792,776.991
26,3 Jun 2027 02:11:22.423,3 Jun 2027 02:23:40.195,737.772
27,3 Jun 2027 03:46:47.261,3 Jun 2027 03:58:01.301,674.040
28,3 Jun 2027 05:21:33.428,3 Jun 2027 05:32:21.271,647.843
29,3 Jun 2027 06:55:49.519,3 Jun 2027 07:07:16.439,686.920
30,3 Jun 2027 08:30:17.588,3 Jun 2027 08:42:48.110,750.521
31,3 Jun 2027 10:05:44.122,3 Jun 2027 10:18:41.101,776.979
32,3 Jun 2027 11:42:42.850,3 Jun 2027 11:54:41.418,718.568
33,3 Jun 2027 13:21:45.054,3 Jun 2027 13:30:32.400,527.346
34,3 Jun 2027 20:00:27.272,3 Jun 2027 20:04:47.820,260.548
35,3 Jun 2027 21:35:37.945,3 Jun 2027 21:45:50.707,612.763
36,3 Jun 2027 23:11:35.044,3 Jun 2027 23:24:05.948,750.904
37,4 Jun 2027 00:47:34.301,4 Jun 2027 01:00:29.608,775.307
38,4 Jun 2027 02:23:21.675,4 Jun 2027 02:35:31.551,729.876
39,4 Jun 2027 03:58:42.244,4 Jun 2027 04:09:49.743,667.499
40,4 Jun 2027 05:33:23.388,4 Jun 2027 05:44:12.808,649.421
41,4 Jun 2027 07:07:38.223,4 Jun 2027 07:19:13.123,694.900
42,4 Jun 2027 08:42:11.338,4 Jun 2027 08:54:48.350,757.013
43,4 Jun 2027 10:17:47.812,4 Jun 2027 10:30:42.978,775.166
44,4 Jun 2027 11:55:00.159,4 Jun 2027 12:06:43.267,703.108
45,4 Jun 2027 13:34:21.159,4 Jun 2027 13:42:30.652,489.494
46,4 Jun 2027 20:12:13.577,4 Jun 2027 20:17:44.105,330.528
47,4 Jun 2027 21:47:38.741,4 Jun 2027 21:58:16.954,638.213
48,4 Jun 2027 23:23:37.137,4 Jun 2027 23:36:16.398,759.262
49,5 Jun 2027 00:59:35.610,5 Jun 2027 01:12:28.126,772.516
50,5 Jun 2027 02:35:20.506,5 Jun 2027 02:47:22.193,721.687
51,5 Jun 2027 04:10:36.574,5 Jun 2027 04:21:38.288,661.714
52,5 Jun 2027 05:45:12.885,5 Jun 2027 05:56:04.991,652.106
53,5 Jun 2027 07:19:27.226,5 Jun 2027 07:31:10.377,703.151
54,5 Jun 2027 08:54:06.103,5 Jun 2027 09:06:48.896,762.793
55,5 Jun 2027 10:29:53.026,5 Jun 2027 10:42:44.938,771.912
56,5 Jun 2027 12:07:19.462,5 Jun 2027 12:18:44.956,685.494
57,5 Jun 2027 13:47:00.509,5 Jun 2027 13:54:27.621,447.113
58,5 Jun 2027 20:24:05.210,5 Jun 2027 20:30:33.136,387.926
59,5 Jun 2027 21:59:39.900,5 Jun 2027 22:10:40.934,661.034
60,5 Jun 2027 23:35:39.211,5 Jun 2027 23:48:25.157,765.946
61,6 Jun 2027 01:11:36.712,6 Jun 2027 01:24:25.406,768.694
62,6 Jun 2027 02:47:18.880,6 Jun 2027 02:59:12.213,713.333
63,6 Jun 2027 04:22:30.238,6 Jun 2027 04:33:27.030,656.792
64,6 Jun 2027 05:57:01.981,6 Jun 2027 06:07:57.839,655.858
65,6 Jun 2027 07:31:16.627,6 Jun 2027 07:43:08.158,711.531
66,6 Jun 2027 09:06:01.958,6 Jun 2027 09:18:49.704,767.746
67,6 Jun 2027 10:41:59.802,6 Jun 2027 10:54:46.968,767.166
68,6 Jun 2027 12:19:40.823,6 Jun 2027 12:30:46.439,665.616
69,6 Jun 2027 13:59:43.649,6 Jun 2027 14:06:22.765,399.116
70,6 Jun 2027 20:35:59.884,6 Jun 2027 20:43:17.174,437.290
71,6 Jun 2027 22:11:41.336,6 Jun 2027 22:23:02.745,681.410
72,6 Jun 2027 23:47:41.254,7 Jun 2027 00:00:32.276,771.022
73,7 Jun 2027 01:23:37.577,7 Jun 2027 01:36:21.509,763.933
74,7 Jun 2027 02:59:16.767,7 Jun 2027 03:11:01.720,704.953
75,7 Jun 2027 04:34:23.222,7 Jun 2027 04:45:16.061,652.840
76,7 Jun 2027 06:08:50.776,7 Jun 2027 06:19:51.364,660.587
77,7 Jun 2027 07:43:06.528,7 Jun 2027 07:55:06.432,719.904
78,7 Jun 2027 09:17:58.977,7 Jun 2027 09:30:50.762,771.784
79,7 Jun 2027 10:54:08.210,7 Jun 2027 11:06:49.043,760.833
80,7 Jun 2027 12:32:04.334,7 Jun 2027 12:42:47.653,643.319
81,7 Jun 2027 14:12:31.495,7 Jun 2027 14:18:15.164,343.669
82,7 Jun 2027 20:47:56.520,7 Jun 2027 20:55:57.278,480.758
83,7 Jun 2027 22:23:42.989,7 Jun 2027 22:35:22.482,699.493
84,7 Jun 2027 23:59:43.236,8 Jun 2027 00:12:37.823,774.586
85,8 Jun 2027 01:35:38.181,8 Jun 2027 01:48:16.505,758.325
86,8 Jun 2027 03:11:14.130,8 Jun 2027 03:22:50.803,696.673
87,8 Jun 2027 04:46:15.542,8 Jun 2027 04:57:05.471,649.929
88,8 Jun 2027 06:20:39.349,8 Jun 2027 06:31:45.555,666.205
89,8 Jun 2027 07:54:57.026,8 Jun 2027 08:07:05.172,728.147
90,8 Jun 2027 09:29:57.228,8 Jun 2027 09:42:52.027,774.798
91,8 Jun 2027 11:06:18.288,8 Jun 2027 11:18:51.125,752.837
92,8 Jun 2027 12:44:30.086,8 Jun 2027 12:54:48.530,618.444
93,8 Jun 2027 14:25:25.934,8 Jun 2027 14:30:02.896,276.962
94,8 Jun 2027 20:59:54.537,8 Jun 2027 21:08:34.038,519.502
95,8 Jun 2027 22:35:44.807,8 Jun 2027 22:47:40.210,715.403
96,9 Jun 2027 00:11:45.133,9 Jun 2027 00:24:41.834,776.701
97,9 Jun 2027 01:47:38.486,9 Jun 2027 02:00:10.470,751.984
98,9 Jun 2027 03:23:10.936,9 Jun 2027 03:34:39.564,688.628
99,9 Jun 2027 04:58:07.212,9 Jun 2027 05:08:55.328,648.116
100,9 Jun 2027 06:32:27.799,9 Jun 2027 06:43:40.404,672.604
101,9 Jun 2027 08:06:48.219,9 Jun 2027 08:19:04.339,736.119
102,9 Jun 2027 09:41:56.763,9 Jun 2027 09:54:53.485,776.722
103,9 Jun 2027 11:18:30.108,9 Jun 2027 11:30:53.196,743.088
104,9 Jun 2027 12:56:58.208,9 Jun 2027 13:06:48.971,590.764
105,9 Jun 2027 14:38:32.252,9 Jun 2027 14:41:40.660,188.408
106,9 Jun 2027 21:11:53.560,9 Jun 2027 21:21:07.828,554.269
107,9 Jun 2027 22:47:46.745,9 Jun 2027 22:59:56.009,729.263
108,10 Jun 2027 00:23:46.916,10 Jun 2027 00:36:44.381,777.464
109,10 Jun 2027 01:59:38.466,10 Jun 2027 02:12:03.469,745.004
110,10 Jun 2027 03:35:07.159,10 Jun 2027 03:46:28.124,680.965
111,10 Jun 2027 05:09:58.261,10 Jun 2027 05:20:45.706,647.445
112,10 Jun 2027 06:44:16.240,10 Jun 2027 06:55:35.902,679.661
113,10 Jun 2027 08:18:40.185,10 Jun 2027 08:31:03.902,743.717
114,10 Jun 2027 09:53:57.643,10 Jun 2027 10:06:55.111,777.467
115,10 Jun 2027 11:30:43.720,10 Jun 2027 11:42:55.222,731.502
116,10 Jun 2027 13:09:28.824,10 Jun 2027 13:18:48.849,560.025
117,10 Jun 2027 19:49:07.828,10 Jun 2027 19:51:55.935,168.107
118,10 Jun 2027 21:23:53.339,10 Jun 2027 21:33:38.897,585.558
119,10 Jun 2027 22:59:48.765,10 Jun 2027 23:12:09.945,741.180
120,11 Jun 2027 00:35:48.561,11 Jun 2027 00:48:45.510,776.949
121,11 Jun 2027 02:11:38.090,11 Jun 2027 02:23:55.584,737.494
122,11 Jun 2027 03:47:02.760,11 Jun 2027 03:58:16.572,673.812
123,11 Jun 2027 05:21:48.728,11 Jun 2027 05:32:36.654,647.926
124,11 Jun 2027 06:56:04.763,11 Jun 2027 07:07:32.017,687.254
125,11 Jun 2027 08:30:33.021,11 Jun 2027 08:43:03.821,750.800
126,11 Jun 2027 10:05:59.937,11 Jun 2027 10:18:56.867,776.930
127,11 Jun 2027 11:42:59.192,11 Jun 2027 11:54:57.172,717.981
128,11 Jun 2027 13:22:02.121,11 Jun 2027 13:30:48.007,525.886
129,11 Jun 2027 20:00:42.400,11 Jun 2027 20:05:05.773,263.373
130,11 Jun 2027 21:35:53.697,11 Jun 2027 21:46:07.437,613.739
131,11 Jun 2027 23:11:50.834,11 Jun 2027 23:24:22.074,751.240
132,12 Jun 2027 00:47:50.052,12 Jun 2027 01:00:45.274,775.222
133,12 Jun 2027 02:23:37.325,12 Jun 2027 02:35:46.912,729.587
134,12 Jun 2027 03:58:57.716,12 Jun 2027 04:10:05.016,667.300
135,12 Jun 2027 05:33:38.668,12 Jun 2027 05:44:28.215,649.547
136,12 Jun 2027 07:07:53.477,12 Jun 2027 07:19:28.722,695.245
137,12 Jun 2027 08:42:26.808,12 Jun 2027 08:55:04.071,757.262
138,12 Jun 2027 10:18:03.684,12 Jun 2027 10:30:58.745,775.061
139,12 Jun 2027 11:55:16.576,12 Jun 2027 12:06:59.013,702.437
140,12 Jun 2027 13:34:38.349,12 Jun 2027 13:42:46.209,487.860
141,12 Jun 2027 20:12:28.960,12 Jun 2027 20:18:01.729,332.769
142,12 Jun 2027 21:47:54.505,12 Jun 2027 21:58:33.595,639.090
143,12 Jun 2027 23:23:52.925,12 Jun 2027 23:36:32.458,759.533
144,13 Jun 2027 00:59:51.351,13 Jun 2027 01:12:43.744,772.393
145,13 Jun 2027 02:35:36.136,13 Jun 2027 02:47:37.529,721.392
146,13 Jun 2027 04:10:52.019,13 Jun 2027 04:21:53.568,661.549
147,13 Jun 2027 05:45:28.148,13 Jun 2027 05:56:20.422,652.274
148,13 Jun 2027 07:19:42.493,13 Jun 2027 07:31:25.995,703.502
149,13 Jun 2027 08:54:21.615,13 Jun 2027 09:07:04.625,763.010
150,13 Jun 2027 10:30:08.955,13 Jun 2027 10:43:00.705,771.750
151,13 Jun 2027 12:07:35.958,13 Jun 2027 12:19:00.691,684.733
152,13 Jun 2027 13:47:17.840,13 Jun 2027 13:54:43.111,445.271
153,13 Jun 2027 20:24:20.725,13 Jun 2027 20:30:50.550,389.825
154,13 Jun 2027 21:59:55.673,13 Jun 2027 22:10:57.492,661.819
155,13 Jun 2027 23:35:54.996,13 Jun 2027 23:48:41.153,766.157
