dataset/facility_timing/facility_Facility-Norilsk/Norilsk-To-KinoSat_111402.csv

Acces,Start Time (UTCG),Stop Time (UTCG),Duration (sec)
1,1 Jun 2027 00:32:41.716,1 Jun 2027 00:45:31.068,769.352
2,1 Jun 2027 02:08:38.757,1 Jun 2027 02:21:24.565,765.808
3,1 Jun 2027 03:44:19.369,1 Jun 2027 03:56:07.222,707.854
4,1 Jun 2027 05:19:27.946,1 Jun 2027 05:30:21.536,653.590
5,1 Jun 2027 06:53:57.133,1 Jun 2027 07:04:54.976,657.844
6,1 Jun 2027 08:28:12.206,1 Jun 2027 08:40:08.273,716.068
7,1 Jun 2027 10:03:01.546,1 Jun 2027 10:15:51.688,770.142
8,1 Jun 2027 11:39:05.962,1 Jun 2027 11:51:49.807,763.844
9,1 Jun 2027 13:16:55.677,1 Jun 2027 13:27:49.115,653.438
10,1 Jun 2027 14:57:11.814,1 Jun 2027 15:03:21.410,369.597
11,1 Jun 2027 21:32:58.224,1 Jun 2027 21:40:43.745,465.521
12,1 Jun 2027 23:08:43.408,1 Jun 2027 23:20:16.487,693.079
13,2 Jun 2027 00:44:43.831,2 Jun 2027 00:57:37.308,773.477
14,2 Jun 2027 02:20:39.571,2 Jun 2027 02:33:20.048,760.477
15,2 Jun 2027 03:56:17.036,2 Jun 2027 04:07:56.499,699.463
16,2 Jun 2027 05:31:20.600,2 Jun 2027 05:42:10.829,650.229
17,2 Jun 2027 07:05:45.823,2 Jun 2027 07:16:48.970,663.147
18,2 Jun 2027 08:40:02.487,2 Jun 2027 08:52:06.919,724.432
19,2 Jun 2027 10:14:59.343,2 Jun 2027 10:27:52.978,773.635
20,2 Jun 2027 11:51:15.430,2 Jun 2027 12:03:51.998,756.567
21,2 Jun 2027 13:29:20.585,2 Jun 2027 13:39:50.266,629.681
22,2 Jun 2027 15:10:03.100,2 Jun 2027 15:15:11.740,308.639
23,2 Jun 2027 21:44:55.932,2 Jun 2027 21:53:21.827,505.895
24,2 Jun 2027 23:20:45.285,2 Jun 2027 23:32:35.090,709.806
25,3 Jun 2027 00:56:45.873,3 Jun 2027 01:09:41.991,776.118
26,3 Jun 2027 02:32:40.092,3 Jun 2027 02:45:14.463,754.371
27,3 Jun 2027 04:08:14.161,3 Jun 2027 04:19:45.415,691.255
28,3 Jun 2027 05:43:12.595,3 Jun 2027 05:54:00.544,647.949
29,3 Jun 2027 07:17:34.351,3 Jun 2027 07:28:43.634,669.283
30,3 Jun 2027 08:51:53.425,3 Jun 2027 09:04:06.015,732.590
31,3 Jun 2027 10:26:58.406,3 Jun 2027 10:39:54.461,776.055
32,3 Jun 2027 12:03:26.614,3 Jun 2027 12:15:54.186,747.572
33,3 Jun 2027 13:41:47.808,3 Jun 2027 13:51:51.031,603.224
34,3 Jun 2027 15:23:03.064,3 Jun 2027 15:26:55.321,232.257
35,3 Jun 2027 21:56:54.747,3 Jun 2027 22:05:56.818,542.072
36,3 Jun 2027 23:32:47.300,3 Jun 2027 23:44:51.727,724.427
37,4 Jun 2027 01:08:47.808,4 Jun 2027 01:21:45.182,777.374
38,4 Jun 2027 02:44:40.307,4 Jun 2027 02:57:07.884,747.577
39,4 Jun 2027 04:20:10.698,4 Jun 2027 04:31:34.078,683.380
40,4 Jun 2027 05:55:03.948,4 Jun 2027 06:05:50.757,646.810
41,4 Jun 2027 07:29:22.819,4 Jun 2027 07:40:38.954,676.134
42,4 Jun 2027 09:03:45.111,4 Jun 2027 09:16:05.517,740.406
43,4 Jun 2027 10:38:58.799,4 Jun 2027 10:51:56.127,777.328
44,4 Jun 2027 12:15:39.574,4 Jun 2027 12:27:56.346,736.772
45,4 Jun 2027 13:54:17.470,4 Jun 2027 14:03:51.298,573.828
46,4 Jun 2027 15:36:24.750,4 Jun 2027 15:38:19.059,114.309
47,4 Jun 2027 20:34:25.037,4 Jun 2027 20:36:23.720,118.682
48,4 Jun 2027 22:08:54.404,4 Jun 2027 22:18:29.008,574.604
49,4 Jun 2027 23:44:49.402,4 Jun 2027 23:57:06.475,737.074
50,5 Jun 2027 01:20:49.614,5 Jun 2027 01:33:46.928,777.315
51,5 Jun 2027 02:56:40.174,5 Jun 2027 03:09:00.384,740.210
52,5 Jun 2027 04:32:06.634,5 Jun 2027 04:43:22.593,675.958
53,5 Jun 2027 06:06:54.693,5 Jun 2027 06:17:41.530,646.838
54,5 Jun 2027 07:41:11.331,5 Jun 2027 07:52:34.907,683.576
55,5 Jun 2027 09:15:37.633,5 Jun 2027 09:28:05.392,747.759
56,5 Jun 2027 10:51:00.577,5 Jun 2027 11:03:57.935,777.358
57,5 Jun 2027 12:27:54.366,5 Jun 2027 12:39:58.446,724.081
58,5 Jun 2027 14:06:49.730,5 Jun 2027 14:15:50.919,541.189
59,5 Jun 2027 20:45:49.862,5 Jun 2027 20:49:44.269,234.407
60,5 Jun 2027 22:20:54.692,5 Jun 2027 22:30:58.599,603.906
61,5 Jun 2027 23:56:51.567,6 Jun 2027 00:09:19.384,747.817
62,6 Jun 2027 01:32:51.274,6 Jun 2027 01:45:47.282,776.008
63,6 Jun 2027 03:08:39.659,6 Jun 2027 03:20:52.055,732.397
64,6 Jun 2027 04:44:01.927,6 Jun 2027 04:55:11.063,669.136
65,6 Jun 2027 06:18:44.887,6 Jun 2027 06:29:32.902,648.015
66,6 Jun 2027 07:52:59.991,6 Jun 2027 08:04:31.468,691.477
67,6 Jun 2027 09:27:31.078,6 Jun 2027 09:40:05.617,754.538
68,6 Jun 2027 11:03:03.802,6 Jun 2027 11:15:59.876,776.074
69,6 Jun 2027 12:40:11.057,6 Jun 2027 12:52:00.451,709.394
70,6 Jun 2027 14:19:24.810,6 Jun 2027 14:27:49.697,504.887
71,6 Jun 2027 20:57:33.703,6 Jun 2027 21:02:43.926,310.223
72,6 Jun 2027 22:32:55.471,6 Jun 2027 22:43:25.758,630.287
73,7 Jun 2027 00:08:53.760,7 Jun 2027 00:21:30.523,756.762
74,7 Jun 2027 01:44:52.755,7 Jun 2027 01:57:46.314,773.558
75,7 Jun 2027 03:20:38.736,7 Jun 2027 03:32:42.975,724.239
76,7 Jun 2027 04:55:56.573,7 Jun 2027 05:06:59.603,663.030
77,7 Jun 2027 06:30:34.586,7 Jun 2027 06:41:24.917,650.331
78,7 Jun 2027 08:04:48.911,7 Jun 2027 08:16:28.606,699.695
79,7 Jun 2027 09:39:25.513,7 Jun 2027 09:52:06.151,760.638
80,7 Jun 2027 11:15:08.532,7 Jun 2027 11:28:01.909,773.377
81,7 Jun 2027 12:52:29.718,7 Jun 2027 13:04:02.316,692.598
82,7 Jun 2027 14:32:02.985,7 Jun 2027 14:39:47.353,464.368
83,7 Jun 2027 21:09:24.158,7 Jun 2027 21:15:35.037,370.879
84,7 Jun 2027 22:44:56.635,7 Jun 2027 22:55:50.602,653.967
85,8 Jun 2027 00:20:55.954,8 Jun 2027 00:33:39.944,763.990
86,8 Jun 2027 01:56:54.030,8 Jun 2027 02:09:44.077,770.047
87,8 Jun 2027 03:32:37.369,8 Jun 2027 03:44:33.244,715.875
88,8 Jun 2027 05:07:50.543,8 Jun 2027 05:18:48.303,657.760
89,8 Jun 2027 06:42:23.862,8 Jun 2027 06:53:17.593,653.732
90,8 Jun 2027 08:16:38.195,8 Jun 2027 08:28:26.289,708.095
91,8 Jun 2027 09:51:21.022,8 Jun 2027 10:04:06.963,765.941
92,8 Jun 2027 11:27:14.809,8 Jun 2027 11:40:04.022,769.212
93,8 Jun 2027 13:04:50.416,8 Jun 2027 13:16:03.996,673.581
94,8 Jun 2027 14:44:44.714,8 Jun 2027 14:51:43.429,418.716
95,8 Jun 2027 21:21:18.167,8 Jun 2027 21:28:20.655,422.488
96,8 Jun 2027 22:56:58.102,8 Jun 2027 23:08:13.250,675.147
97,9 Jun 2027 00:32:58.119,9 Jun 2027 00:45:47.711,769.592
98,9 Jun 2027 02:08:55.081,9 Jun 2027 02:21:40.643,765.562
99,9 Jun 2027 03:44:35.521,9 Jun 2027 03:56:22.961,707.440
100,9 Jun 2027 05:19:43.831,9 Jun 2027 05:30:37.266,653.435
101,9 Jun 2027 06:54:12.799,9 Jun 2027 07:05:10.943,658.144
102,9 Jun 2027 08:28:27.944,9 Jun 2027 08:40:24.484,716.540
103,9 Jun 2027 10:03:17.673,9 Jun 2027 10:16:08.032,770.358
104,9 Jun 2027 11:39:22.704,9 Jun 2027 11:52:06.190,763.486
105,9 Jun 2027 13:17:13.232,9 Jun 2027 13:28:05.432,652.199
106,9 Jun 2027 14:57:30.711,9 Jun 2027 15:03:37.204,366.493
107,9 Jun 2027 21:33:14.404,9 Jun 2027 21:41:02.067,467.662
108,9 Jun 2027 23:08:59.804,9 Jun 2027 23:20:33.781,693.977
109,10 Jun 2027 00:45:00.224,10 Jun 2027 00:57:53.868,773.644
110,10 Jun 2027 02:20:55.877,10 Jun 2027 02:33:36.063,760.186
111,10 Jun 2027 03:56:33.158,10 Jun 2027 04:08:12.216,699.058
112,10 Jun 2027 05:31:36.448,10 Jun 2027 05:42:26.577,650.128
113,10 Jun 2027 07:06:01.478,10 Jun 2027 07:17:04.972,663.494
114,10 Jun 2027 08:40:18.258,10 Jun 2027 08:52:23.152,724.894
115,10 Jun 2027 10:15:15.533,10 Jun 2027 10:28:09.331,773.799
116,10 Jun 2027 11:51:32.261,10 Jun 2027 12:04:08.379,756.118
117,10 Jun 2027 13:29:38.258,10 Jun 2027 13:40:06.566,628.307
118,10 Jun 2027 15:10:22.369,10 Jun 2027 15:15:27.262,304.893
119,10 Jun 2027 21:45:12.172,10 Jun 2027 21:53:39.982,507.810
120,10 Jun 2027 23:21:01.685,10 Jun 2027 23:32:52.280,710.595
121,11 Jun 2027 00:57:02.257,11 Jun 2027 01:09:58.471,776.214
122,11 Jun 2027 02:32:56.380,11 Jun 2027 02:45:30.423,754.043
123,11 Jun 2027 04:08:30.251,11 Jun 2027 04:20:01.117,690.865
124,11 Jun 2027 05:43:28.407,11 Jun 2027 05:54:16.315,647.908
125,11 Jun 2027 07:17:50.001,11 Jun 2027 07:28:59.669,669.669
126,11 Jun 2027 08:52:09.233,11 Jun 2027 09:04:22.268,733.035
127,11 Jun 2027 10:27:14.668,11 Jun 2027 10:40:10.821,776.153
128,11 Jun 2027 12:03:43.538,11 Jun 2027 12:16:10.564,747.025
129,11 Jun 2027 13:42:05.612,11 Jun 2027 13:52:07.299,601.687
130,11 Jun 2027 15:23:23.002,11 Jun 2027 15:27:10.272,227.270
131,11 Jun 2027 21:57:11.030,11 Jun 2027 22:06:14.824,543.794
132,11 Jun 2027 23:33:03.702,11 Jun 2027 23:45:08.816,725.114
133,12 Jun 2027 01:09:04.185,12 Jun 2027 01:22:01.585,777.400
134,12 Jun 2027 02:44:56.576,12 Jun 2027 02:57:23.795,747.220
135,12 Jun 2027 04:20:26.755,12 Jun 2027 04:31:49.769,683.014
136,12 Jun 2027 05:55:19.726,12 Jun 2027 06:06:06.556,646.830
137,12 Jun 2027 07:29:38.468,12 Jun 2027 07:40:55.021,676.553
138,12 Jun 2027 09:04:00.961,12 Jun 2027 09:16:21.788,740.827
139,12 Jun 2027 10:39:15.132,12 Jun 2027 10:52:12.494,777.361
140,12 Jun 2027 12:15:56.593,12 Jun 2027 12:28:12.718,736.124
141,12 Jun 2027 13:54:35.411,12 Jun 2027 14:04:07.530,572.120
142,12 Jun 2027 15:36:47.424,12 Jun 2027 15:38:31.368,103.944
143,12 Jun 2027 20:34:38.449,12 Jun 2027 20:36:45.307,126.858
144,12 Jun 2027 22:09:10.720,12 Jun 2027 22:18:46.875,576.156
145,12 Jun 2027 23:45:05.805,12 Jun 2027 23:57:23.466,737.661
146,13 Jun 2027 01:21:05.981,13 Jun 2027 01:34:03.257,777.276
147,13 Jun 2027 02:56:56.421,13 Jun 2027 03:09:16.250,739.829
148,13 Jun 2027 04:32:22.657,13 Jun 2027 04:43:38.279,675.623
149,13 Jun 2027 06:07:10.440,13 Jun 2027 06:17:57.359,646.919
150,13 Jun 2027 07:41:26.985,13 Jun 2027 07:52:51.005,684.020
151,13 Jun 2027 09:15:53.530,13 Jun 2027 09:28:21.680,748.150
152,13 Jun 2027 10:51:16.988,13 Jun 2027 11:04:14.306,777.318
153,13 Jun 2027 12:28:11.484,13 Jun 2027 12:40:14.810,723.326
154,13 Jun 2027 14:07:07.816,13 Jun 2027 14:16:07.105,539.289
155,13 Jun 2027 20:46:05.149,13 Jun 2027 20:50:03.880,238.731
156,13 Jun 2027 22:21:11.032,13 Jun 2027 22:31:16.336,605.304
157,13 Jun 2027 23:57:07.970,14 Jun 2027 00:00:01.000,173.030
