dataset/facility_timing/facility_Facility-Norilsk/Norilsk-To-KinoSat_110501.csv

Acces,Start Time (UTCG),Stop Time (UTCG),Duration (sec)
1,1 Jun 2027 01:17:16.901,1 Jun 2027 01:28:07.768,650.868
2,1 Jun 2027 02:51:40.312,1 Jun 2027 03:02:48.474,668.161
3,1 Jun 2027 04:25:58.548,1 Jun 2027 04:38:08.446,729.898
4,1 Jun 2027 06:01:00.087,1 Jun 2027 06:13:55.297,775.210
5,1 Jun 2027 07:37:23.034,1 Jun 2027 07:49:54.103,751.069
6,1 Jun 2027 09:15:37.438,1 Jun 2027 09:25:50.724,613.286
7,1 Jun 2027 10:56:39.890,1 Jun 2027 11:01:00.513,260.623
8,1 Jun 2027 17:30:58.640,1 Jun 2027 17:39:40.673,522.033
9,1 Jun 2027 19:06:48.561,1 Jun 2027 19:18:45.059,716.498
10,1 Jun 2027 20:42:48.446,1 Jun 2027 20:55:45.190,776.745
11,1 Jun 2027 22:18:41.225,1 Jun 2027 22:31:12.771,751.547
12,1 Jun 2027 23:54:12.915,2 Jun 2027 00:05:41.480,688.566
13,2 Jun 2027 01:29:08.374,2 Jun 2027 01:39:57.599,649.225
14,2 Jun 2027 03:03:28.688,2 Jun 2027 03:14:43.267,674.579
15,2 Jun 2027 04:37:49.767,2 Jun 2027 04:50:07.493,737.726
16,2 Jun 2027 06:12:59.695,2 Jun 2027 06:25:56.595,776.900
17,2 Jun 2027 07:49:34.952,2 Jun 2027 08:01:55.970,741.017
18,2 Jun 2027 09:28:05.747,2 Jun 2027 09:37:50.856,585.109
19,2 Jun 2027 11:09:50.353,2 Jun 2027 11:12:33.962,163.609
20,2 Jun 2027 17:42:57.491,2 Jun 2027 17:52:13.987,556.496
21,2 Jun 2027 19:18:50.305,2 Jun 2027 19:31:00.472,730.166
22,2 Jun 2027 20:54:50.026,2 Jun 2027 21:07:47.436,777.411
23,2 Jun 2027 22:30:40.991,2 Jun 2027 22:43:05.570,744.579
24,3 Jun 2027 00:06:08.910,3 Jun 2027 00:17:29.949,681.039
25,3 Jun 2027 01:40:59.243,3 Jun 2027 01:51:47.947,648.704
26,3 Jun 2027 03:15:17.066,3 Jun 2027 03:26:38.699,681.633
27,3 Jun 2027 04:49:41.765,3 Jun 2027 05:02:06.929,745.164
28,3 Jun 2027 06:25:00.645,3 Jun 2027 06:37:58.055,777.410
29,3 Jun 2027 08:01:48.661,3 Jun 2027 08:13:57.789,729.128
30,3 Jun 2027 09:40:36.573,3 Jun 2027 09:49:50.397,553.824
31,3 Jun 2027 16:20:10.879,3 Jun 2027 16:23:04.345,173.466
32,3 Jun 2027 17:54:57.092,3 Jun 2027 18:04:44.601,587.509
33,3 Jun 2027 19:30:52.131,3 Jun 2027 19:43:14.033,741.902
34,3 Jun 2027 21:06:51.470,3 Jun 2027 21:19:48.276,776.807
35,3 Jun 2027 22:42:40.394,3 Jun 2027 22:54:57.505,737.111
36,4 Jun 2027 00:18:04.284,4 Jun 2027 00:29:18.317,674.033
37,4 Jun 2027 01:52:49.549,4 Jun 2027 02:03:38.860,649.311
38,4 Jun 2027 03:27:05.538,4 Jun 2027 03:38:34.737,689.199
39,4 Jun 2027 05:01:34.641,4 Jun 2027 05:14:06.724,752.082
40,4 Jun 2027 06:37:03.004,4 Jun 2027 06:49:59.645,776.640
41,4 Jun 2027 08:14:04.225,4 Jun 2027 08:25:59.529,715.303
42,4 Jun 2027 09:53:10.111,4 Jun 2027 10:01:49.174,519.062
43,4 Jun 2027 16:31:46.002,4 Jun 2027 16:36:12.988,266.986
44,4 Jun 2027 18:06:57.266,4 Jun 2027 18:17:12.708,615.442
45,4 Jun 2027 19:42:54.004,4 Jun 2027 19:55:25.810,751.807
46,4 Jun 2027 21:18:52.749,4 Jun 2027 21:31:47.781,775.032
47,4 Jun 2027 22:54:39.415,4 Jun 2027 23:06:48.656,729.241
48,5 Jun 2027 00:29:59.029,5 Jun 2027 00:41:06.698,667.669
49,5 Jun 2027 02:04:39.333,5 Jun 2027 02:15:30.392,651.059
50,5 Jun 2027 03:38:54.220,5 Jun 2027 03:50:31.363,697.143
51,5 Jun 2027 05:13:28.460,5 Jun 2027 05:26:06.837,758.377
52,5 Jun 2027 06:49:06.826,5 Jun 2027 07:02:01.340,774.514
53,5 Jun 2027 08:26:21.712,5 Jun 2027 08:38:01.142,699.429
54,5 Jun 2027 10:05:46.620,5 Jun 2027 10:13:46.937,480.317
55,5 Jun 2027 16:43:32.586,5 Jun 2027 16:49:08.272,335.686
56,5 Jun 2027 18:18:57.884,5 Jun 2027 18:29:38.447,640.563
57,5 Jun 2027 19:54:55.894,5 Jun 2027 20:07:35.855,759.961
58,5 Jun 2027 21:30:53.847,5 Jun 2027 21:43:45.993,772.147
59,5 Jun 2027 23:06:38.010,5 Jun 2027 23:18:39.120,721.110
60,6 Jun 2027 00:41:53.122,6 Jun 2027 00:52:55.189,662.066
61,6 Jun 2027 02:16:28.673,6 Jun 2027 02:27:22.560,653.887
62,6 Jun 2027 03:50:43.216,6 Jun 2027 04:02:28.535,705.319
63,6 Jun 2027 05:25:23.306,6 Jun 2027 05:38:07.239,763.933
64,6 Jun 2027 07:01:12.155,6 Jun 2027 07:14:03.125,770.969
65,6 Jun 2027 08:38:41.189,6 Jun 2027 08:50:02.588,681.400
66,6 Jun 2027 10:18:26.480,6 Jun 2027 10:25:43.314,436.835
67,6 Jun 2027 16:55:24.244,6 Jun 2027 17:01:56.557,392.313
68,6 Jun 2027 18:30:58.863,6 Jun 2027 18:42:01.942,663.079
69,6 Jun 2027 20:06:57.771,6 Jun 2027 20:19:44.222,766.450
70,6 Jun 2027 21:42:54.731,6 Jun 2027 21:55:42.989,768.257
71,6 Jun 2027 23:18:36.143,6 Jun 2027 23:30:28.984,712.841
72,7 Jun 2027 00:53:46.548,7 Jun 2027 01:04:43.888,657.340
73,7 Jun 2027 02:28:17.638,7 Jun 2027 02:39:15.383,657.745
74,7 Jun 2027 04:02:32.616,7 Jun 2027 04:14:26.234,713.618
75,7 Jun 2027 05:37:19.248,7 Jun 2027 05:50:07.909,768.660
76,7 Jun 2027 07:13:19.061,7 Jun 2027 07:26:04.970,765.909
77,7 Jun 2027 08:51:02.731,7 Jun 2027 09:02:03.815,661.084
78,7 Jun 2027 10:31:10.286,7 Jun 2027 10:37:37.693,387.407
79,7 Jun 2027 17:07:18.851,7 Jun 2027 17:14:39.959,441.107
80,7 Jun 2027 18:43:00.113,7 Jun 2027 18:54:23.285,683.173
81,7 Jun 2027 20:18:59.612,7 Jun 2027 20:31:50.974,771.362
82,7 Jun 2027 21:54:55.379,7 Jun 2027 22:07:38.826,763.448
83,7 Jun 2027 23:30:33.792,7 Jun 2027 23:42:18.350,704.558
84,8 Jun 2027 01:05:39.308,8 Jun 2027 01:16:32.886,653.577
85,8 Jun 2027 02:40:06.318,8 Jun 2027 02:51:08.872,662.554
86,8 Jun 2027 04:14:22.532,8 Jun 2027 04:26:24.413,721.882
87,8 Jun 2027 05:49:16.357,8 Jun 2027 06:02:08.819,772.462
88,8 Jun 2027 07:25:27.586,8 Jun 2027 07:38:06.850,759.264
89,8 Jun 2027 09:03:26.427,8 Jun 2027 09:14:04.757,638.330
90,8 Jun 2027 10:43:59.110,8 Jun 2027 10:49:28.999,329.889
91,8 Jun 2027 17:19:15.372,8 Jun 2027 17:27:19.484,484.112
92,8 Jun 2027 18:55:01.574,8 Jun 2027 19:06:42.575,701.000
93,8 Jun 2027 20:31:01.389,8 Jun 2027 20:43:56.168,774.779
94,8 Jun 2027 22:06:55.761,8 Jun 2027 22:19:33.574,757.813
95,8 Jun 2027 23:42:30.916,8 Jun 2027 23:54:07.309,696.392
96,9 Jun 2027 01:17:31.415,9 Jun 2027 01:28:22.267,650.852
97,9 Jun 2027 02:51:54.793,9 Jun 2027 03:03:03.023,668.230
98,9 Jun 2027 04:26:13.055,9 Jun 2027 04:38:23.049,729.993
99,9 Jun 2027 06:01:14.693,9 Jun 2027 06:14:09.930,775.237
100,9 Jun 2027 07:37:37.785,9 Jun 2027 07:50:08.739,750.954
101,9 Jun 2027 09:15:52.384,9 Jun 2027 09:26:05.342,612.959
102,9 Jun 2027 10:56:55.252,9 Jun 2027 11:01:14.900,259.649
103,9 Jun 2027 17:31:13.244,9 Jun 2027 17:39:55.703,522.459
104,9 Jun 2027 19:07:03.201,9 Jun 2027 19:18:59.874,716.673
105,9 Jun 2027 20:43:03.083,9 Jun 2027 20:55:59.843,776.760
106,9 Jun 2027 22:18:55.843,9 Jun 2027 22:31:27.309,751.465
107,9 Jun 2027 23:54:27.486,10 Jun 2027 00:05:55.964,688.479
108,10 Jun 2027 01:29:22.883,10 Jun 2027 01:40:12.100,649.216
109,10 Jun 2027 03:03:43.164,10 Jun 2027 03:14:57.828,674.665
110,10 Jun 2027 04:38:04.283,10 Jun 2027 04:50:22.103,737.820
111,10 Jun 2027 06:13:14.315,10 Jun 2027 06:26:11.229,776.913
112,10 Jun 2027 07:49:49.725,10 Jun 2027 08:02:10.608,740.883
113,10 Jun 2027 09:28:20.722,10 Jun 2027 09:38:05.468,584.745
114,10 Jun 2027 11:10:06.015,10 Jun 2027 11:12:48.072,162.057
115,10 Jun 2027 17:43:12.104,10 Jun 2027 17:52:28.983,556.879
116,10 Jun 2027 19:19:04.946,10 Jun 2027 19:31:15.261,730.315
117,10 Jun 2027 20:55:04.661,10 Jun 2027 21:08:02.072,777.411
118,10 Jun 2027 22:30:55.602,10 Jun 2027 22:43:20.096,744.494
119,11 Jun 2027 00:06:23.473,11 Jun 2027 00:17:44.429,680.956
120,11 Jun 2027 01:41:13.744,11 Jun 2027 01:52:02.454,648.711
121,11 Jun 2027 03:15:31.542,11 Jun 2027 03:26:53.268,681.726
122,11 Jun 2027 04:49:56.290,11 Jun 2027 05:02:21.543,745.253
123,11 Jun 2027 06:25:15.282,11 Jun 2027 06:38:12.690,777.408
124,11 Jun 2027 08:02:03.455,11 Jun 2027 08:14:12.424,728.970
125,11 Jun 2027 09:40:51.581,11 Jun 2027 09:50:04.998,553.417
126,11 Jun 2027 16:20:25.085,11 Jun 2027 16:23:19.909,174.824
127,11 Jun 2027 17:55:11.713,11 Jun 2027 18:04:59.565,587.852
128,11 Jun 2027 19:31:06.772,11 Jun 2027 19:43:28.800,742.028
129,11 Jun 2027 21:07:06.103,11 Jun 2027 21:20:02.895,776.792
130,11 Jun 2027 22:42:54.999,11 Jun 2027 22:55:12.022,737.022
131,12 Jun 2027 00:18:18.839,12 Jun 2027 00:29:32.797,673.959
132,12 Jun 2027 01:53:04.043,12 Jun 2027 02:03:53.375,649.332
133,12 Jun 2027 03:27:20.014,12 Jun 2027 03:38:49.312,689.298
134,12 Jun 2027 05:01:49.177,12 Jun 2027 05:14:21.341,752.165
135,12 Jun 2027 06:37:17.658,12 Jun 2027 06:50:14.281,776.622
136,12 Jun 2027 08:14:19.042,12 Jun 2027 08:26:14.162,715.120
137,12 Jun 2027 09:53:25.154,12 Jun 2027 10:02:03.762,518.608
138,12 Jun 2027 16:32:00.431,12 Jun 2027 16:36:28.307,267.875
139,12 Jun 2027 18:07:11.893,12 Jun 2027 18:17:27.642,615.749
140,12 Jun 2027 19:43:08.645,12 Jun 2027 19:55:40.556,751.911
141,12 Jun 2027 21:19:07.380,12 Jun 2027 21:32:02.384,775.004
142,12 Jun 2027 22:54:54.015,12 Jun 2027 23:07:03.164,729.149
143,13 Jun 2027 00:30:13.574,13 Jun 2027 00:41:21.179,667.605
144,13 Jun 2027 02:04:53.820,13 Jun 2027 02:15:44.915,651.095
145,13 Jun 2027 03:39:08.699,13 Jun 2027 03:50:45.945,697.246
146,13 Jun 2027 05:13:43.007,13 Jun 2027 05:26:21.458,758.451
147,13 Jun 2027 06:49:21.498,13 Jun 2027 07:02:15.976,774.478
148,13 Jun 2027 08:26:36.553,13 Jun 2027 08:38:15.772,699.219
149,13 Jun 2027 10:06:01.703,13 Jun 2027 10:14:01.508,479.805
150,13 Jun 2027 16:43:47.097,13 Jun 2027 16:49:23.487,336.390
151,13 Jun 2027 18:19:12.517,13 Jun 2027 18:29:53.354,640.837
152,13 Jun 2027 19:55:10.535,13 Jun 2027 20:07:50.580,760.045
153,13 Jun 2027 21:31:08.474,13 Jun 2027 21:44:00.582,772.107
154,13 Jun 2027 23:06:52.603,13 Jun 2027 23:18:53.620,721.017
