dataset/facility_timing/facility_Facility-Norilsk/Norilsk-To-KinoSat_111207.csv

Acces,Start Time (UTCG),Stop Time (UTCG),Duration (sec)
1,1 Jun 2027 00:00:01.000,1 Jun 2027 00:05:09.949,308.949
2,1 Jun 2027 01:28:13.278,1 Jun 2027 01:40:55.226,761.948
3,1 Jun 2027 03:03:51.308,1 Jun 2027 03:15:33.160,701.853
4,1 Jun 2027 04:38:55.919,1 Jun 2027 04:49:47.525,651.606
5,1 Jun 2027 06:13:22.027,1 Jun 2027 06:24:24.561,662.534
6,1 Jun 2027 07:47:38.397,1 Jun 2027 07:59:41.347,722.950
7,1 Jun 2027 09:22:33.625,1 Jun 2027 09:35:26.641,773.016
8,1 Jun 2027 10:58:47.168,1 Jun 2027 11:11:25.259,758.092
9,1 Jun 2027 12:36:48.997,1 Jun 2027 12:47:23.485,634.488
10,1 Jun 2027 14:17:26.046,1 Jun 2027 14:22:46.841,320.795
11,1 Jun 2027 20:52:31.052,1 Jun 2027 21:00:46.687,495.635
12,1 Jun 2027 22:28:19.067,1 Jun 2027 22:40:04.707,705.639
13,2 Jun 2027 00:04:19.385,2 Jun 2027 00:17:14.916,775.531
14,2 Jun 2027 01:40:13.770,2 Jun 2027 01:52:49.830,756.061
15,2 Jun 2027 03:15:48.474,2 Jun 2027 03:27:22.111,693.637
16,2 Jun 2027 04:50:47.997,2 Jun 2027 05:01:37.092,649.095
17,2 Jun 2027 06:25:10.545,2 Jun 2027 06:36:18.999,668.454
18,2 Jun 2027 07:59:29.139,2 Jun 2027 08:11:40.245,731.106
19,2 Jun 2027 09:34:32.339,2 Jun 2027 09:47:27.987,775.648
20,2 Jun 2027 11:10:57.880,2 Jun 2027 11:23:27.345,749.465
21,2 Jun 2027 12:49:15.609,2 Jun 2027 12:59:24.215,608.606
22,2 Jun 2027 14:30:23.853,2 Jun 2027 14:34:31.923,248.070
23,2 Jun 2027 21:04:29.482,2 Jun 2027 21:13:22.308,532.826
24,2 Jun 2027 22:40:20.937,2 Jun 2027 22:52:21.712,720.775
25,3 Jun 2027 00:16:21.243,3 Jun 2027 00:29:18.382,777.138
26,3 Jun 2027 01:52:13.960,3 Jun 2027 02:04:43.426,749.466
27,3 Jun 2027 03:27:45.068,3 Jun 2027 03:39:10.790,685.721
28,3 Jun 2027 05:02:39.436,3 Jun 2027 05:13:27.133,647.697
29,3 Jun 2027 06:36:58.985,3 Jun 2027 06:48:14.095,675.109
30,3 Jun 2027 08:11:20.602,3 Jun 2027 08:23:39.567,738.965
31,3 Jun 2027 09:46:32.369,3 Jun 2027 09:59:29.510,777.141
32,3 Jun 2027 11:23:10.358,3 Jun 2027 11:35:29.403,739.045
33,3 Jun 2027 13:01:44.630,3 Jun 2027 13:11:24.469,579.839
34,3 Jun 2027 14:43:38.670,3 Jun 2027 14:46:01.874,143.204
35,3 Jun 2027 19:42:26.595,3 Jun 2027 19:43:19.073,52.478
36,3 Jun 2027 21:16:28.809,3 Jun 2027 21:25:55.067,566.259
37,3 Jun 2027 22:52:22.912,3 Jun 2027 23:04:36.818,733.906
38,4 Jun 2027 00:28:22.978,4 Jun 2027 00:41:20.401,777.422
39,4 Jun 2027 02:04:13.819,4 Jun 2027 02:16:36.091,742.272
40,4 Jun 2027 03:39:41.063,4 Jun 2027 03:50:59.293,678.230
41,4 Jun 2027 05:14:30.269,4 Jun 2027 05:25:17.718,647.450
42,4 Jun 2027 06:48:47.442,4 Jun 2027 07:00:09.823,682.381
43,4 Jun 2027 08:23:12.882,4 Jun 2027 08:35:39.263,746.381
44,4 Jun 2027 09:58:33.766,4 Jun 2027 10:11:31.184,777.418
45,4 Jun 2027 11:35:24.644,4 Jun 2027 11:47:31.411,726.767
46,4 Jun 2027 13:14:16.209,4 Jun 2027 13:23:24.109,547.900
47,4 Jun 2027 19:53:31.380,4 Jun 2027 19:56:59.870,208.489
48,4 Jun 2027 21:28:28.826,4 Jun 2027 21:38:25.180,596.354
49,4 Jun 2027 23:04:24.957,4 Jun 2027 23:16:50.075,745.118
50,5 Jun 2027 00:40:24.576,5 Jun 2027 00:53:21.016,776.440
51,5 Jun 2027 02:16:13.301,5 Jun 2027 02:28:27.907,734.606
52,5 Jun 2027 03:51:36.428,5 Jun 2027 04:02:47.727,671.299
53,5 Jun 2027 05:26:20.531,5 Jun 2027 05:37:08.889,648.358
54,5 Jun 2027 07:00:36.020,5 Jun 2027 07:12:06.162,690.142
55,5 Jun 2027 08:35:06.063,5 Jun 2027 08:47:39.315,753.252
56,5 Jun 2027 10:10:36.585,5 Jun 2027 10:23:32.991,776.406
57,5 Jun 2027 11:47:40.812,5 Jun 2027 11:59:33.327,712.515
58,5 Jun 2027 13:26:50.555,5 Jun 2027 13:35:22.948,512.393
59,5 Jun 2027 20:05:11.954,5 Jun 2027 20:10:03.014,291.060
60,5 Jun 2027 21:40:29.367,5 Jun 2027 21:50:52.829,623.462
61,5 Jun 2027 23:16:27.037,5 Jun 2027 23:29:01.556,754.519
62,6 Jun 2027 00:52:25.996,6 Jun 2027 01:05:20.303,774.307
63,6 Jun 2027 02:28:12.391,6 Jun 2027 02:40:18.955,726.564
64,6 Jun 2027 04:03:31.149,6 Jun 2027 04:14:36.201,665.051
65,6 Jun 2027 05:38:10.292,6 Jun 2027 05:49:00.689,650.397
66,6 Jun 2027 07:12:24.836,6 Jun 2027 07:24:03.083,698.247
67,6 Jun 2027 08:47:00.212,6 Jun 2027 08:59:39.683,759.470
68,6 Jun 2027 10:22:40.895,6 Jun 2027 10:35:34.904,774.009
69,6 Jun 2027 11:59:58.930,6 Jun 2027 12:11:35.113,696.184
70,6 Jun 2027 13:39:27.930,6 Jun 2027 13:47:20.727,472.797
71,6 Jun 2027 20:17:00.851,6 Jun 2027 20:22:55.922,355.072
72,6 Jun 2027 21:52:30.324,6 Jun 2027 22:03:18.136,647.812
73,6 Jun 2027 23:28:29.124,6 Jun 2027 23:41:11.310,762.185
74,7 Jun 2027 01:04:27.226,7 Jun 2027 01:17:18.304,771.078
75,7 Jun 2027 02:40:11.036,7 Jun 2027 02:52:09.335,718.298
76,7 Jun 2027 04:15:25.212,7 Jun 2027 04:26:24.815,659.603
77,7 Jun 2027 05:49:59.615,7 Jun 2027 06:00:53.140,653.525
78,7 Jun 2027 07:24:13.988,7 Jun 2027 07:36:00.553,706.565
79,7 Jun 2027 08:58:55.414,7 Jun 2027 09:11:40.336,764.922
80,7 Jun 2027 10:34:46.734,7 Jun 2027 10:47:36.898,770.163
81,7 Jun 2027 12:12:19.060,7 Jun 2027 12:23:36.724,677.664
82,7 Jun 2027 13:52:08.752,7 Jun 2027 13:59:17.027,428.275
83,7 Jun 2027 20:28:53.901,7 Jun 2027 20:35:42.749,408.848
84,7 Jun 2027 22:04:31.600,7 Jun 2027 22:15:41.221,669.621
85,7 Jun 2027 23:40:31.191,7 Jun 2027 23:53:19.391,768.200
86,8 Jun 2027 01:16:28.234,8 Jun 2027 01:29:15.096,766.862
87,8 Jun 2027 02:52:09.217,8 Jun 2027 03:03:59.137,709.920
88,8 Jun 2027 04:27:18.594,8 Jun 2027 04:38:13.660,655.066
89,8 Jun 2027 06:01:48.579,8 Jun 2027 06:12:46.264,657.685
90,8 Jun 2027 07:36:03.581,8 Jun 2027 07:47:58.540,714.960
91,8 Jun 2027 09:10:51.738,8 Jun 2027 09:23:41.246,769.508
92,8 Jun 2027 10:46:54.171,8 Jun 2027 10:59:38.947,764.775
93,8 Jun 2027 12:24:41.288,8 Jun 2027 12:35:38.104,656.817
94,8 Jun 2027 14:04:53.664,8 Jun 2027 14:11:11.201,377.537
95,8 Jun 2027 20:40:49.466,8 Jun 2027 20:48:25.090,455.624
96,8 Jun 2027 22:16:33.131,8 Jun 2027 22:28:02.178,689.047
97,8 Jun 2027 23:52:33.211,9 Jun 2027 00:05:25.863,772.652
98,9 Jun 2027 01:28:28.997,9 Jun 2027 01:41:10.740,761.742
99,9 Jun 2027 03:04:06.894,9 Jun 2027 03:15:48.456,701.563
100,9 Jun 2027 04:39:11.308,9 Jun 2027 04:50:02.836,651.528
101,9 Jun 2027 06:13:37.274,9 Jun 2027 06:24:40.058,662.784
102,9 Jun 2027 07:47:53.713,9 Jun 2027 07:59:57.006,723.293
103,9 Jun 2027 09:22:49.253,9 Jun 2027 09:35:42.395,773.142
104,9 Jun 2027 10:59:03.255,9 Jun 2027 11:11:41.030,757.775
105,9 Jun 2027 12:37:05.701,9 Jun 2027 12:47:39.189,633.488
106,9 Jun 2027 14:17:43.879,9 Jun 2027 14:23:02.019,318.139
107,9 Jun 2027 20:52:46.719,9 Jun 2027 21:01:03.776,497.056
108,9 Jun 2027 22:28:34.856,9 Jun 2027 22:40:21.085,706.229
109,10 Jun 2027 00:04:35.162,10 Jun 2027 00:17:30.780,775.618
110,10 Jun 2027 01:40:29.480,10 Jun 2027 01:53:05.304,755.824
111,10 Jun 2027 03:16:04.033,10 Jun 2027 03:27:37.398,693.365
112,10 Jun 2027 04:51:03.358,10 Jun 2027 05:01:52.421,649.064
113,10 Jun 2027 06:25:25.782,10 Jun 2027 06:36:34.516,668.734
114,10 Jun 2027 07:59:44.486,10 Jun 2027 08:11:55.924,731.437
115,10 Jun 2027 09:34:48.014,10 Jun 2027 09:47:43.739,775.725
116,10 Jun 2027 11:11:14.035,10 Jun 2027 11:23:43.108,749.073
117,10 Jun 2027 12:49:32.406,10 Jun 2027 12:59:39.899,607.493
118,10 Jun 2027 14:30:42.115,10 Jun 2027 14:34:46.738,244.622
119,10 Jun 2027 21:04:45.184,10 Jun 2027 21:13:39.287,534.102
120,10 Jun 2027 22:40:36.728,10 Jun 2027 22:52:38.016,721.288
121,11 Jun 2027 00:16:37.014,11 Jun 2027 00:29:34.185,777.171
122,11 Jun 2027 01:52:29.654,11 Jun 2027 02:04:58.868,749.214
123,11 Jun 2027 03:28:00.607,11 Jun 2027 03:39:26.065,685.458
124,11 Jun 2027 05:02:54.773,11 Jun 2027 05:13:42.481,647.708
125,11 Jun 2027 06:37:14.221,11 Jun 2027 06:48:29.636,675.415
126,11 Jun 2027 08:11:35.979,11 Jun 2027 08:23:55.258,739.279
127,11 Jun 2027 09:46:48.096,11 Jun 2027 09:59:45.271,777.175
128,11 Jun 2027 11:23:26.582,11 Jun 2027 11:35:45.166,738.584
129,11 Jun 2027 13:02:01.523,11 Jun 2027 13:11:40.130,578.606
130,11 Jun 2027 14:43:58.242,11 Jun 2027 14:46:15.448,137.206
131,11 Jun 2027 19:42:37.078,11 Jun 2027 19:43:41.791,64.714
132,11 Jun 2027 21:16:44.534,11 Jun 2027 21:26:11.944,567.410
133,11 Jun 2027 22:52:38.703,11 Jun 2027 23:04:53.051,734.348
134,12 Jun 2027 00:28:38.742,12 Jun 2027 00:41:36.148,777.406
135,12 Jun 2027 02:04:29.495,12 Jun 2027 02:16:51.498,742.003
136,12 Jun 2027 03:39:56.576,12 Jun 2027 03:51:14.564,677.988
137,12 Jun 2027 05:14:45.580,12 Jun 2027 05:25:33.087,647.507
138,12 Jun 2027 06:49:02.680,12 Jun 2027 07:00:25.387,682.707
139,12 Jun 2027 08:23:28.292,12 Jun 2027 08:35:54.966,746.674
140,12 Jun 2027 09:58:49.542,12 Jun 2027 10:11:46.947,777.405
141,12 Jun 2027 11:35:40.940,12 Jun 2027 11:47:47.168,726.228
142,12 Jun 2027 13:14:33.208,12 Jun 2027 13:23:39.737,546.530
143,12 Jun 2027 19:53:46.198,12 Jun 2027 19:57:18.175,211.977
144,12 Jun 2027 21:28:44.570,12 Jun 2027 21:38:41.961,597.392
145,12 Jun 2027 23:04:40.747,12 Jun 2027 23:17:06.239,745.492
146,13 Jun 2027 00:40:40.331,13 Jun 2027 00:53:36.711,776.380
147,13 Jun 2027 02:16:28.959,13 Jun 2027 02:28:43.283,734.324
148,13 Jun 2027 03:51:51.914,13 Jun 2027 04:03:02.997,671.083
149,13 Jun 2027 05:26:35.821,13 Jun 2027 05:37:24.281,648.459
150,13 Jun 2027 07:00:51.266,13 Jun 2027 07:12:21.747,690.481
151,13 Jun 2027 08:35:21.509,13 Jun 2027 08:47:55.029,753.519
152,13 Jun 2027 10:10:52.422,13 Jun 2027 10:23:48.756,776.334
153,13 Jun 2027 11:47:57.183,13 Jun 2027 11:59:49.077,711.894
154,13 Jun 2027 13:27:07.669,13 Jun 2027 13:35:38.533,510.864
155,13 Jun 2027 20:05:27.212,13 Jun 2027 20:10:20.805,293.594
156,13 Jun 2027 21:40:45.124,13 Jun 2027 21:51:09.519,624.395
157,13 Jun 2027 23:16:42.825,13 Jun 2027 23:29:17.652,754.827
