dataset/facility_timing/facility_Facility-Norilsk/Norilsk-To-KinoSat_110208.csv

Acces,Start Time (UTCG),Stop Time (UTCG),Duration (sec)
1,1 Jun 2027 00:23:05.736,1 Jun 2027 00:34:00.116,654.380
2,1 Jun 2027 01:57:20.264,1 Jun 2027 02:09:07.197,706.933
3,1 Jun 2027 03:32:01.655,1 Jun 2027 03:44:46.624,764.969
4,1 Jun 2027 05:07:52.774,1 Jun 2027 05:20:42.853,770.079
5,1 Jun 2027 06:45:24.846,1 Jun 2027 06:56:42.303,677.457
6,1 Jun 2027 08:25:14.547,1 Jun 2027 08:32:21.949,427.402
7,1 Jun 2027 15:02:01.787,1 Jun 2027 15:08:45.916,404.129
8,1 Jun 2027 16:37:38.263,1 Jun 2027 16:48:46.127,667.864
9,1 Jun 2027 18:13:37.433,1 Jun 2027 18:26:25.143,767.710
10,1 Jun 2027 19:49:34.225,1 Jun 2027 20:02:21.468,767.242
11,1 Jun 2027 21:25:15.077,1 Jun 2027 21:37:05.959,710.882
12,1 Jun 2027 23:00:24.480,1 Jun 2027 23:11:20.674,656.194
13,2 Jun 2027 00:34:54.646,2 Jun 2027 00:45:53.110,658.464
14,2 Jun 2027 02:09:09.780,2 Jun 2027 02:21:05.028,715.248
15,2 Jun 2027 03:43:57.860,2 Jun 2027 03:56:47.380,769.520
16,2 Jun 2027 05:20:00.047,2 Jun 2027 05:32:44.742,764.695
17,2 Jun 2027 06:57:46.871,2 Jun 2027 07:08:43.520,656.649
18,2 Jun 2027 08:37:59.301,2 Jun 2027 08:44:15.880,376.579
19,2 Jun 2027 15:13:56.949,2 Jun 2027 15:21:28.414,451.465
20,2 Jun 2027 16:49:39.608,2 Jun 2027 17:01:07.050,687.442
21,2 Jun 2027 18:25:39.295,2 Jun 2027 18:38:31.577,772.282
22,2 Jun 2027 20:01:34.853,2 Jun 2027 20:14:17.080,762.227
23,2 Jun 2027 21:37:12.643,2 Jun 2027 21:48:55.240,702.597
24,2 Jun 2027 23:12:17.124,2 Jun 2027 23:23:09.762,652.637
25,3 Jun 2027 00:46:43.292,3 Jun 2027 00:57:46.764,663.472
26,3 Jun 2027 02:20:59.834,3 Jun 2027 02:33:03.343,723.509
27,3 Jun 2027 03:55:55.245,3 Jun 2027 04:08:48.371,773.127
28,3 Jun 2027 05:32:08.956,3 Jun 2027 05:44:46.670,757.714
29,3 Jun 2027 07:10:11.070,3 Jun 2027 07:20:44.439,633.369
30,3 Jun 2027 08:50:49.391,3 Jun 2027 08:56:06.416,317.026
31,3 Jun 2027 15:25:53.864,3 Jun 2027 15:34:07.196,493.332
32,3 Jun 2027 17:01:41.150,3 Jun 2027 17:13:25.927,704.778
33,3 Jun 2027 18:37:41.093,3 Jun 2027 18:50:36.462,775.369
34,3 Jun 2027 20:13:35.207,3 Jun 2027 20:26:11.617,756.410
35,3 Jun 2027 21:49:09.683,3 Jun 2027 22:00:44.137,694.454
36,3 Jun 2027 23:24:09.112,3 Jun 2027 23:34:59.251,650.140
37,4 Jun 2027 00:58:31.751,4 Jun 2027 01:09:41.087,669.336
38,4 Jun 2027 02:32:50.516,4 Jun 2027 02:45:02.104,731.588
39,4 Jun 2027 04:07:53.876,4 Jun 2027 04:20:49.560,775.684
40,4 Jun 2027 05:44:19.550,4 Jun 2027 05:56:48.594,749.044
41,4 Jun 2027 07:22:37.559,4 Jun 2027 07:32:44.984,607.425
42,4 Jun 2027 09:03:47.590,4 Jun 2027 09:07:50.762,243.172
43,4 Jun 2027 15:37:52.033,4 Jun 2027 15:46:42.769,530.736
44,4 Jun 2027 17:13:42.845,4 Jun 2027 17:25:42.831,719.985
45,4 Jun 2027 18:49:42.802,4 Jun 2027 19:02:39.840,777.038
46,4 Jun 2027 20:25:35.255,4 Jun 2027 20:38:05.155,749.900
47,4 Jun 2027 22:01:06.164,4 Jun 2027 22:12:32.756,686.592
48,4 Jun 2027 23:36:00.472,4 Jun 2027 23:46:49.207,648.735
49,5 Jun 2027 01:10:20.134,5 Jun 2027 01:21:36.056,675.922
50,5 Jun 2027 02:44:41.918,5 Jun 2027 02:57:01.281,739.363
51,5 Jun 2027 04:19:53.807,5 Jun 2027 04:32:50.934,777.127
52,5 Jun 2027 05:56:31.903,5 Jun 2027 06:08:50.496,738.593
53,5 Jun 2027 07:35:06.448,5 Jun 2027 07:44:45.048,578.600
54,5 Jun 2027 09:17:04.105,5 Jun 2027 09:19:18.660,134.556
55,5 Jun 2027 15:49:51.125,5 Jun 2027 15:59:15.466,564.341
56,5 Jun 2027 17:25:44.650,5 Jun 2027 17:37:57.842,733.192
57,5 Jun 2027 19:01:44.386,5 Jun 2027 19:14:41.780,777.394
58,5 Jun 2027 20:37:34.976,5 Jun 2027 20:49:57.762,742.786
59,5 Jun 2027 22:13:02.046,5 Jun 2027 22:24:21.200,679.154
60,5 Jun 2027 23:47:51.228,5 Jun 2027 23:58:39.701,648.472
61,6 Jun 2027 01:22:08.536,6 Jun 2027 01:33:31.656,683.120
62,6 Jun 2027 02:56:34.128,6 Jun 2027 03:09:00.831,746.703
63,6 Jun 2027 04:31:55.097,6 Jun 2027 04:44:52.458,777.360
64,6 Jun 2027 06:08:46.055,6 Jun 2027 06:20:52.342,726.287
65,6 Jun 2027 07:47:37.895,6 Jun 2027 07:56:44.488,546.593
66,6 Jun 2027 14:26:56.428,6 Jun 2027 14:30:17.090,200.663
67,6 Jun 2027 16:01:50.921,6 Jun 2027 16:11:45.511,594.590
68,6 Jun 2027 17:37:46.528,6 Jun 2027 17:50:11.009,744.481
69,6 Jun 2027 19:13:45.834,6 Jun 2027 19:26:42.324,776.489
70,6 Jun 2027 20:49:34.325,6 Jun 2027 21:01:49.523,735.198
71,6 Jun 2027 22:24:57.305,6 Jun 2027 22:36:09.573,672.268
72,6 Jun 2027 23:59:41.426,7 Jun 2027 00:10:30.770,649.343
73,7 Jun 2027 01:33:57.059,7 Jun 2027 01:45:27.859,690.800
74,7 Jun 2027 03:08:27.232,7 Jun 2027 03:21:00.736,753.504
75,7 Jun 2027 04:43:57.808,7 Jun 2027 04:56:54.116,776.308
76,7 Jun 2027 06:21:02.080,7 Jun 2027 06:32:54.095,712.015
77,7 Jun 2027 08:00:12.109,7 Jun 2027 08:08:43.115,511.007
78,7 Jun 2027 14:38:35.684,7 Jun 2027 14:43:21.243,285.559
79,7 Jun 2027 16:13:51.255,7 Jun 2027 16:24:13.084,621.830
80,7 Jun 2027 17:49:48.445,7 Jun 2027 18:02:22.407,753.961
81,7 Jun 2027 19:25:47.108,7 Jun 2027 19:38:41.545,774.437
82,7 Jun 2027 21:01:33.286,7 Jun 2027 21:13:40.518,727.233
83,7 Jun 2027 22:36:51.926,7 Jun 2027 22:47:57.982,666.056
84,8 Jun 2027 00:11:31.119,8 Jun 2027 00:22:22.468,651.349
85,8 Jun 2027 01:45:45.817,8 Jun 2027 01:57:24.644,698.827
86,8 Jun 2027 03:20:21.297,8 Jun 2027 03:33:00.954,759.657
87,8 Jun 2027 04:56:01.997,8 Jun 2027 05:08:55.870,773.874
88,8 Jun 2027 06:33:20.047,8 Jun 2027 06:44:55.717,695.670
89,8 Jun 2027 08:12:49.362,8 Jun 2027 08:20:40.669,471.307
90,8 Jun 2027 14:50:23.901,8 Jun 2027 14:56:14.526,350.625
91,8 Jun 2027 16:25:52.011,8 Jun 2027 16:36:38.318,646.307
92,8 Jun 2027 18:01:50.372,8 Jun 2027 18:14:32.083,761.710
93,8 Jun 2027 19:37:48.196,8 Jun 2027 19:50:39.487,771.291
94,8 Jun 2027 21:13:31.806,8 Jun 2027 21:25:30.848,719.042
95,8 Jun 2027 22:48:45.896,8 Jun 2027 22:59:46.528,660.632
96,9 Jun 2027 00:23:20.382,9 Jun 2027 00:34:14.809,654.427
97,9 Jun 2027 01:57:34.909,9 Jun 2027 02:09:21.974,707.065
98,9 Jun 2027 03:32:16.407,9 Jun 2027 03:45:01.454,765.047
99,9 Jun 2027 05:08:07.707,9 Jun 2027 05:20:57.709,770.002
100,9 Jun 2027 06:45:40.020,9 Jun 2027 06:56:57.162,677.142
101,9 Jun 2027 08:25:30.073,9 Jun 2027 08:32:36.720,426.647
102,9 Jun 2027 15:02:16.483,9 Jun 2027 15:09:01.526,405.043
103,9 Jun 2027 16:37:53.098,9 Jun 2027 16:49:01.330,668.233
104,9 Jun 2027 18:13:52.282,9 Jun 2027 18:26:40.096,767.814
105,9 Jun 2027 19:49:49.063,9 Jun 2027 20:02:36.224,767.161
106,9 Jun 2027 21:25:29.867,9 Jun 2027 21:37:20.602,710.735
107,9 Jun 2027 23:00:39.192,9 Jun 2027 23:11:35.299,656.106
108,10 Jun 2027 00:35:09.289,10 Jun 2027 00:46:07.808,658.519
109,10 Jun 2027 02:09:24.436,10 Jun 2027 02:21:19.817,715.381
110,10 Jun 2027 03:44:12.632,10 Jun 2027 03:57:02.217,769.585
111,10 Jun 2027 05:20:15.007,10 Jun 2027 05:32:59.604,764.596
112,10 Jun 2027 06:58:02.081,10 Jun 2027 07:08:58.375,656.293
113,10 Jun 2027 08:38:14.902,10 Jun 2027 08:44:30.609,375.708
114,10 Jun 2027 15:14:11.682,10 Jun 2027 15:21:43.950,452.267
115,10 Jun 2027 16:49:54.446,10 Jun 2027 17:01:22.220,687.774
116,10 Jun 2027 18:25:54.149,10 Jun 2027 18:38:46.499,772.351
117,10 Jun 2027 20:01:49.689,10 Jun 2027 20:14:31.818,762.129
118,10 Jun 2027 21:37:27.429,10 Jun 2027 21:49:09.872,702.443
119,10 Jun 2027 23:12:31.828,10 Jun 2027 23:23:24.395,652.566
120,11 Jun 2027 00:46:57.929,11 Jun 2027 00:58:01.478,663.548
121,11 Jun 2027 02:21:14.499,11 Jun 2027 02:33:18.137,723.638
122,11 Jun 2027 03:56:10.037,11 Jun 2027 04:09:03.214,773.177
123,11 Jun 2027 05:32:23.944,11 Jun 2027 05:45:01.532,757.588
124,11 Jun 2027 07:10:26.318,11 Jun 2027 07:20:59.289,632.971
125,11 Jun 2027 08:51:05.094,11 Jun 2027 08:56:21.074,315.981
126,11 Jun 2027 15:26:08.628,11 Jun 2027 15:34:22.670,494.041
127,11 Jun 2027 17:01:55.994,11 Jun 2027 17:13:41.062,705.068
128,11 Jun 2027 18:37:55.946,11 Jun 2027 18:50:51.358,775.412
129,11 Jun 2027 20:13:50.038,11 Jun 2027 20:26:26.337,756.299
130,11 Jun 2027 21:49:24.459,11 Jun 2027 22:00:58.764,694.304
131,11 Jun 2027 23:24:23.803,11 Jun 2027 23:35:13.892,650.089
132,12 Jun 2027 00:58:46.386,12 Jun 2027 01:09:55.813,669.427
133,12 Jun 2027 02:33:05.192,12 Jun 2027 02:45:16.907,731.715
134,12 Jun 2027 04:08:08.690,12 Jun 2027 04:21:04.407,775.717
135,12 Jun 2027 05:44:34.568,12 Jun 2027 05:57:03.457,748.889
136,12 Jun 2027 07:22:52.846,12 Jun 2027 07:32:59.828,606.981
137,12 Jun 2027 09:04:03.467,12 Jun 2027 09:08:05.280,241.813
138,12 Jun 2027 15:38:06.819,12 Jun 2027 15:46:58.188,531.369
139,12 Jun 2027 17:13:57.694,12 Jun 2027 17:25:57.932,720.238
140,12 Jun 2027 18:49:57.654,12 Jun 2027 19:02:54.710,777.057
141,12 Jun 2027 20:25:50.082,12 Jun 2027 20:38:19.859,749.777
142,12 Jun 2027 22:01:20.930,12 Jun 2027 22:12:47.379,686.449
143,12 Jun 2027 23:36:15.153,12 Jun 2027 23:47:03.858,648.705
144,13 Jun 2027 01:10:34.768,13 Jun 2027 01:21:50.795,676.027
145,13 Jun 2027 02:44:56.607,13 Jun 2027 02:57:16.092,739.485
146,13 Jun 2027 04:20:08.643,13 Jun 2027 04:33:05.785,777.142
147,13 Jun 2027 05:56:46.951,13 Jun 2027 06:09:05.358,738.407
148,13 Jun 2027 07:35:21.778,13 Jun 2027 07:44:59.883,578.105
149,13 Jun 2027 09:17:20.540,13 Jun 2027 09:19:32.651,132.112
150,13 Jun 2027 14:16:21.373,13 Jun 2027 14:16:37.322,15.948
151,13 Jun 2027 15:50:05.928,13 Jun 2027 15:59:30.836,564.908
152,13 Jun 2027 17:25:59.502,13 Jun 2027 17:38:12.906,733.405
153,13 Jun 2027 19:01:59.237,13 Jun 2027 19:14:56.626,777.389
154,13 Jun 2027 20:37:49.798,13 Jun 2027 20:50:12.451,742.653
155,13 Jun 2027 22:13:16.803,13 Jun 2027 22:24:35.822,679.019
156,13 Jun 2027 23:48:05.899,13 Jun 2027 23:58:54.358,648.459
