dataset/facility_timing/facility_Facility-Norilsk/Norilsk-To-KinoSat_111708.csv

Acces,Start Time (UTCG),Stop Time (UTCG),Duration (sec)
1,1 Jun 2027 00:59:45.858,1 Jun 2027 01:12:04.942,739.084
2,1 Jun 2027 02:35:46.387,1 Jun 2027 02:48:43.606,777.219
3,1 Jun 2027 04:11:36.993,1 Jun 2027 04:23:55.760,738.767
4,1 Jun 2027 05:47:03.203,1 Jun 2027 05:58:17.314,674.111
5,1 Jun 2027 07:21:50.716,1 Jun 2027 07:32:36.467,645.752
6,1 Jun 2027 08:56:06.989,1 Jun 2027 09:07:30.589,683.600
7,1 Jun 2027 10:30:33.614,1 Jun 2027 10:43:01.793,748.179
8,1 Jun 2027 12:05:57.498,1 Jun 2027 12:18:54.868,777.370
9,1 Jun 2027 13:42:52.643,1 Jun 2027 13:54:55.785,723.142
10,1 Jun 2027 15:21:49.638,1 Jun 2027 15:30:48.585,538.947
11,1 Jun 2027 22:00:40.848,1 Jun 2027 22:04:51.834,250.987
12,1 Jun 2027 23:35:50.577,1 Jun 2027 23:45:59.394,608.817
13,2 Jun 2027 01:11:48.195,2 Jun 2027 01:24:17.745,749.550
14,2 Jun 2027 02:47:48.182,2 Jun 2027 03:00:43.884,775.702
15,2 Jun 2027 04:23:36.578,2 Jun 2027 04:35:47.397,730.819
16,2 Jun 2027 05:58:58.536,2 Jun 2027 06:10:05.851,667.315
17,2 Jun 2027 07:33:40.928,2 Jun 2027 07:44:28.009,647.082
18,2 Jun 2027 09:07:55.736,2 Jun 2027 09:19:27.354,691.618
19,2 Jun 2027 10:42:27.235,2 Jun 2027 10:55:02.204,754.970
20,2 Jun 2027 12:18:01.002,2 Jun 2027 12:30:56.974,775.972
21,2 Jun 2027 13:55:09.694,2 Jun 2027 14:06:57.947,708.253
22,2 Jun 2027 15:34:25.147,2 Jun 2027 15:42:47.498,502.351
23,2 Jun 2027 22:12:26.677,2 Jun 2027 22:17:49.602,322.925
24,2 Jun 2027 23:47:51.616,2 Jun 2027 23:58:26.368,634.752
25,3 Jun 2027 01:23:50.562,3 Jun 2027 01:36:28.777,758.214
26,3 Jun 2027 02:59:49.792,3 Jun 2027 03:12:42.836,773.044
27,3 Jun 2027 04:35:35.748,3 Jun 2027 04:47:38.291,722.542
28,3 Jun 2027 06:10:53.209,3 Jun 2027 06:21:54.462,661.253
29,3 Jun 2027 07:45:30.639,3 Jun 2027 07:56:20.202,649.563
30,3 Jun 2027 09:19:44.749,3 Jun 2027 09:31:24.696,699.947
31,3 Jun 2027 10:54:21.873,3 Jun 2027 11:07:02.927,761.054
32,3 Jun 2027 12:30:06.015,3 Jun 2027 12:42:59.185,773.170
33,3 Jun 2027 14:07:28.722,3 Jun 2027 14:18:59.978,691.256
34,3 Jun 2027 15:47:03.791,3 Jun 2027 15:54:45.272,461.482
35,3 Jun 2027 22:24:18.229,3 Jun 2027 22:30:39.717,381.488
36,3 Jun 2027 23:59:53.022,4 Jun 2027 00:10:51.041,658.020
37,4 Jun 2027 01:35:52.920,4 Jun 2027 01:48:38.085,765.166
38,4 Jun 2027 03:11:51.197,4 Jun 2027 03:24:40.520,769.323
39,4 Jun 2027 04:47:34.461,4 Jun 2027 04:59:28.538,714.077
40,4 Jun 2027 06:22:47.208,4 Jun 2027 06:33:43.253,656.044
41,4 Jun 2027 07:57:19.934,4 Jun 2027 08:08:13.063,653.129
42,4 Jun 2027 09:31:34.138,4 Jun 2027 09:43:22.585,708.447
43,4 Jun 2027 11:06:17.598,4 Jun 2027 11:19:03.926,766.328
44,4 Jun 2027 12:42:12.602,4 Jun 2027 12:55:01.470,768.868
45,4 Jun 2027 14:19:49.803,4 Jun 2027 14:31:01.817,672.014
46,4 Jun 2027 15:59:46.020,4 Jun 2027 16:06:41.439,415.419
47,4 Jun 2027 22:36:12.975,4 Jun 2027 22:43:24.681,431.706
48,5 Jun 2027 00:11:54.715,5 Jun 2027 00:23:13.520,678.805
49,5 Jun 2027 01:47:55.243,5 Jun 2027 02:00:45.743,770.500
50,5 Jun 2027 03:23:52.370,5 Jun 2027 03:36:37.007,764.638
51,5 Jun 2027 04:59:32.685,5 Jun 2027 05:11:18.242,705.558
52,5 Jun 2027 06:34:40.513,5 Jun 2027 06:45:32.324,651.811
53,5 Jun 2027 08:09:08.897,5 Jun 2027 08:20:06.613,657.716
54,5 Jun 2027 09:43:24.011,5 Jun 2027 09:55:20.984,716.973
55,5 Jun 2027 11:18:14.481,5 Jun 2027 11:31:05.181,770.700
56,5 Jun 2027 12:54:20.819,5 Jun 2027 13:07:03.809,762.990
57,5 Jun 2027 14:32:13.022,5 Jun 2027 14:43:03.409,650.387
58,5 Jun 2027 16:12:32.580,5 Jun 2027 16:18:35.250,362.670
59,5 Jun 2027 22:48:09.768,5 Jun 2027 22:56:05.610,475.842
60,6 Jun 2027 00:23:56.630,6 Jun 2027 00:35:33.892,697.262
61,6 Jun 2027 01:59:57.506,6 Jun 2027 02:12:51.790,774.284
62,6 Jun 2027 03:35:53.282,6 Jun 2027 03:48:32.353,759.071
63,6 Jun 2027 05:11:30.386,6 Jun 2027 05:23:07.499,697.112
64,6 Jun 2027 06:46:33.141,6 Jun 2027 06:57:21.759,648.618
65,6 Jun 2027 08:20:57.611,6 Jun 2027 08:32:00.846,663.235
66,6 Jun 2027 09:55:14.465,6 Jun 2027 10:07:19.855,725.390
67,6 Jun 2027 11:30:12.591,6 Jun 2027 11:43:06.665,774.074
68,6 Jun 2027 13:06:30.706,6 Jun 2027 13:19:06.168,755.461
69,6 Jun 2027 14:44:38.469,6 Jun 2027 14:55:04.696,626.227
70,6 Jun 2027 16:25:24.922,6 Jun 2027 16:30:25.229,300.307
71,6 Jun 2027 23:00:07.979,6 Jun 2027 23:08:43.142,515.163
72,7 Jun 2027 00:35:58.714,7 Jun 2027 00:47:52.233,713.519
73,7 Jun 2027 02:11:59.686,7 Jun 2027 02:24:56.282,776.596
74,7 Jun 2027 03:47:53.895,7 Jun 2027 04:00:26.646,752.751
75,7 Jun 2027 05:23:27.531,7 Jun 2027 05:34:56.411,688.880
76,7 Jun 2027 06:58:25.103,7 Jun 2027 07:09:11.637,646.534
77,7 Jun 2027 08:32:46.175,7 Jun 2027 08:43:55.753,669.578
78,7 Jun 2027 10:07:05.597,7 Jun 2027 10:19:19.174,733.578
79,7 Jun 2027 11:42:11.986,7 Jun 2027 11:55:08.338,776.352
80,7 Jun 2027 13:18:42.338,7 Jun 2027 13:31:08.522,746.184
81,7 Jun 2027 14:57:06.256,7 Jun 2027 15:07:05.578,599.322
82,7 Jun 2027 16:38:26.588,7 Jun 2027 16:42:07.816,221.227
83,7 Jun 2027 23:12:07.220,7 Jun 2027 23:21:17.662,550.442
84,8 Jun 2027 00:48:00.920,8 Jun 2027 01:00:08.624,727.704
85,8 Jun 2027 02:24:01.755,8 Jun 2027 02:36:59.282,777.527
86,8 Jun 2027 03:59:54.195,8 Jun 2027 04:12:19.948,745.753
87,8 Jun 2027 05:35:24.084,8 Jun 2027 05:46:45.094,681.010
88,8 Jun 2027 07:10:16.427,8 Jun 2027 07:21:02.037,645.610
89,8 Jun 2027 08:44:34.705,8 Jun 2027 08:55:51.317,676.612
90,8 Jun 2027 10:18:57.499,8 Jun 2027 10:31:18.896,741.397
91,8 Jun 2027 11:54:12.727,8 Jun 2027 12:07:10.190,777.464
92,8 Jun 2027 13:30:55.759,8 Jun 2027 13:43:10.839,735.080
93,8 Jun 2027 15:09:36.506,8 Jun 2027 15:19:05.949,569.443
94,8 Jun 2027 16:51:54.925,8 Jun 2027 16:53:25.604,90.679
95,8 Jun 2027 21:49:23.460,8 Jun 2027 21:52:01.533,158.073
96,8 Jun 2027 23:24:07.238,8 Jun 2027 23:33:49.428,582.190
97,9 Jun 2027 01:00:03.210,9 Jun 2027 01:12:23.122,739.911
98,9 Jun 2027 02:36:03.692,9 Jun 2027 02:49:00.847,777.155
99,9 Jun 2027 04:11:54.135,9 Jun 2027 04:24:12.341,738.205
100,9 Jun 2027 05:47:20.022,9 Jun 2027 05:58:33.649,673.626
101,9 Jun 2027 07:22:07.144,9 Jun 2027 07:32:53.006,645.862
102,9 Jun 2027 08:56:23.292,9 Jun 2027 09:07:47.515,684.224
103,9 Jun 2027 10:30:50.258,9 Jun 2027 10:43:18.987,748.729
104,9 Jun 2027 12:06:14.878,9 Jun 2027 12:19:12.181,777.304
105,9 Jun 2027 13:43:11.033,9 Jun 2027 13:55:13.095,722.062
106,9 Jun 2027 15:22:09.393,9 Jun 2027 15:31:05.653,536.260
107,9 Jun 2027 22:00:56.776,9 Jun 2027 22:05:13.577,256.802
108,9 Jun 2027 23:36:07.844,9 Jun 2027 23:46:18.634,610.789
109,10 Jun 2027 01:12:05.554,10 Jun 2027 01:24:35.790,750.236
110,10 Jun 2027 02:48:05.475,10 Jun 2027 03:01:01.019,775.545
111,10 Jun 2027 04:23:53.684,10 Jun 2027 04:36:03.919,730.235
112,10 Jun 2027 05:59:15.305,10 Jun 2027 06:10:22.179,666.874
113,10 Jun 2027 07:33:57.313,10 Jun 2027 07:44:44.592,647.279
114,10 Jun 2027 09:08:12.049,10 Jun 2027 09:19:44.321,692.272
115,10 Jun 2027 10:42:43.961,10 Jun 2027 10:55:19.418,755.458
116,10 Jun 2027 12:18:18.489,10 Jun 2027 12:31:14.302,775.813
117,10 Jun 2027 13:55:28.224,10 Jun 2027 14:07:15.253,707.029
118,10 Jun 2027 15:34:45.135,10 Jun 2027 15:43:04.492,499.356
119,10 Jun 2027 22:12:43.156,10 Jun 2027 22:18:10.653,327.497
120,10 Jun 2027 23:48:08.907,10 Jun 2027 23:58:45.429,636.522
121,11 Jun 2027 01:24:07.917,11 Jun 2027 01:36:46.691,758.773
122,11 Jun 2027 03:00:07.067,11 Jun 2027 03:12:59.874,772.806
123,11 Jun 2027 04:35:52.820,11 Jun 2027 04:47:54.762,721.943
124,11 Jun 2027 06:11:09.927,11 Jun 2027 06:22:10.802,660.875
125,11 Jun 2027 07:45:46.999,11 Jun 2027 07:56:36.833,649.834
126,11 Jun 2027 09:20:01.088,11 Jun 2027 09:31:41.704,700.615
127,11 Jun 2027 10:54:38.678,11 Jun 2027 11:07:20.165,761.487
128,11 Jun 2027 12:30:23.625,11 Jun 2027 12:43:16.512,772.887
129,11 Jun 2027 14:07:47.407,11 Jun 2027 14:19:17.263,689.857
130,11 Jun 2027 15:47:24.033,11 Jun 2027 15:55:02.152,458.120
131,11 Jun 2027 22:24:34.987,11 Jun 2027 22:31:00.336,385.349
132,12 Jun 2027 00:00:10.337,12 Jun 2027 00:11:09.940,659.603
133,12 Jun 2027 01:36:10.265,12 Jun 2027 01:48:55.878,765.613
134,12 Jun 2027 03:12:08.454,12 Jun 2027 03:24:57.467,769.013
135,12 Jun 2027 04:47:51.493,12 Jun 2027 04:59:44.964,713.471
136,12 Jun 2027 06:23:03.871,12 Jun 2027 06:33:59.612,655.741
137,12 Jun 2027 07:57:36.261,12 Jun 2027 08:08:29.750,653.489
138,12 Jun 2027 09:31:50.513,12 Jun 2027 09:43:39.629,709.116
139,12 Jun 2027 11:06:34.484,12 Jun 2027 11:19:21.181,766.697
140,12 Jun 2027 12:42:30.328,12 Jun 2027 12:55:18.799,768.471
141,12 Jun 2027 14:20:08.647,12 Jun 2027 14:31:19.081,670.434
142,12 Jun 2027 16:00:06.563,12 Jun 2027 16:06:58.163,411.600
143,12 Jun 2027 22:36:29.909,12 Jun 2027 22:43:44.975,435.066
144,13 Jun 2027 00:12:12.042,13 Jun 2027 00:23:32.257,680.215
145,13 Jun 2027 01:48:12.582,13 Jun 2027 02:01:03.405,770.823
146,13 Jun 2027 03:24:09.605,13 Jun 2027 03:36:53.864,764.259
147,13 Jun 2027 04:59:49.678,13 Jun 2027 05:11:34.633,704.955
148,13 Jun 2027 06:34:57.126,13 Jun 2027 06:45:48.705,651.579
149,13 Jun 2027 08:09:25.202,13 Jun 2027 08:20:23.347,658.145
150,13 Jun 2027 09:43:40.426,13 Jun 2027 09:55:38.062,717.637
151,13 Jun 2027 11:18:31.456,13 Jun 2027 11:31:22.452,770.996
152,13 Jun 2027 12:54:38.668,13 Jun 2027 13:07:21.138,762.469
153,13 Jun 2027 14:32:32.031,13 Jun 2027 14:43:20.650,648.619
154,13 Jun 2027 16:12:53.505,13 Jun 2027 16:18:51.737,358.232
155,13 Jun 2027 22:48:26.812,13 Jun 2027 22:56:25.644,478.832
