dataset/facility_timing/facility_Facility-Norilsk/Norilsk-To-KinoSat_112007.csv

Acces,Start Time (UTCG),Stop Time (UTCG),Duration (sec)
1,1 Jun 2027 00:57:44.404,1 Jun 2027 01:08:01.941,617.537
2,1 Jun 2027 02:33:42.873,1 Jun 2027 02:46:15.435,752.562
3,1 Jun 2027 04:09:42.953,1 Jun 2027 04:22:37.954,775.001
4,1 Jun 2027 05:45:30.936,1 Jun 2027 05:57:38.965,728.029
5,1 Jun 2027 07:20:51.839,1 Jun 2027 07:31:56.516,664.677
6,1 Jun 2027 08:55:32.851,1 Jun 2027 09:06:19.564,646.713
7,1 Jun 2027 10:29:47.251,1 Jun 2027 10:41:20.486,693.235
8,1 Jun 2027 12:04:20.075,1 Jun 2027 12:16:56.527,756.452
9,1 Jun 2027 13:39:56.519,1 Jun 2027 13:52:52.005,775.486
10,1 Jun 2027 15:17:08.869,1 Jun 2027 15:28:53.287,704.418
11,1 Jun 2027 16:56:29.150,1 Jun 2027 17:04:42.404,493.253
12,1 Jun 2027 23:34:16.450,1 Jun 2027 23:40:00.265,343.815
13,2 Jun 2027 01:09:45.727,2 Jun 2027 01:20:28.347,642.620
14,2 Jun 2027 02:45:45.374,2 Jun 2027 02:58:26.068,760.694
15,2 Jun 2027 04:21:44.643,2 Jun 2027 04:34:36.610,771.967
16,2 Jun 2027 05:57:30.095,2 Jun 2027 06:09:29.713,719.618
17,2 Jun 2027 07:32:46.423,2 Jun 2027 07:43:45.221,658.798
18,2 Jun 2027 09:07:22.500,2 Jun 2027 09:18:12.029,649.529
19,2 Jun 2027 10:41:36.405,2 Jun 2027 10:53:18.098,701.693
20,2 Jun 2027 12:16:15.068,2 Jun 2027 12:28:57.463,762.395
21,2 Jun 2027 13:52:02.057,2 Jun 2027 14:04:54.371,772.315
22,2 Jun 2027 15:29:28.570,2 Jun 2027 15:40:55.419,686.849
23,2 Jun 2027 17:09:08.780,2 Jun 2027 17:16:40.026,451.246
24,2 Jun 2027 23:46:09.458,2 Jun 2027 23:52:48.656,399.198
25,3 Jun 2027 01:21:47.386,3 Jun 2027 01:32:52.489,665.104
26,3 Jun 2027 02:57:47.862,3 Jun 2027 03:10:34.989,767.127
27,3 Jun 2027 04:33:46.111,3 Jun 2027 04:46:34.012,767.902
28,3 Jun 2027 06:09:28.791,3 Jun 2027 06:21:19.843,711.051
29,3 Jun 2027 07:44:40.314,3 Jun 2027 07:55:34.133,653.819
30,3 Jun 2027 09:19:11.747,3 Jun 2027 09:30:05.174,653.427
31,3 Jun 2027 10:53:25.969,3 Jun 2027 11:05:16.250,710.281
32,3 Jun 2027 12:28:11.176,3 Jun 2027 12:40:58.664,767.488
33,3 Jun 2027 14:04:09.185,3 Jun 2027 14:16:56.810,767.625
34,3 Jun 2027 15:41:50.350,3 Jun 2027 15:52:57.353,667.003
35,3 Jun 2027 17:21:52.138,3 Jun 2027 17:28:35.910,403.772
36,3 Jun 2027 23:58:05.178,4 Jun 2027 00:05:32.367,447.189
37,4 Jun 2027 01:33:49.303,4 Jun 2027 01:45:14.456,685.153
38,4 Jun 2027 03:09:50.311,4 Jun 2027 03:22:42.265,771.954
39,4 Jun 2027 04:45:47.341,4 Jun 2027 04:58:30.227,762.886
40,4 Jun 2027 06:21:26.986,4 Jun 2027 06:33:09.456,702.470
41,4 Jun 2027 07:56:33.510,4 Jun 2027 08:07:23.355,649.845
42,4 Jun 2027 09:31:00.684,4 Jun 2027 09:41:59.009,658.325
43,4 Jun 2027 11:05:16.045,4 Jun 2027 11:17:14.906,718.861
44,4 Jun 2027 12:40:08.468,4 Jun 2027 12:53:00.116,771.648
45,4 Jun 2027 14:16:17.966,4 Jun 2027 14:28:59.298,761.331
46,4 Jun 2027 15:54:14.296,4 Jun 2027 16:04:59.027,644.730
47,4 Jun 2027 17:34:40.073,4 Jun 2027 17:40:29.197,349.124
48,5 Jun 2027 00:10:02.676,5 Jun 2027 00:18:12.301,489.626
49,5 Jun 2027 01:45:51.423,5 Jun 2027 01:57:34.335,702.912
50,5 Jun 2027 03:21:52.691,5 Jun 2027 03:34:47.945,775.254
51,5 Jun 2027 04:57:48.293,5 Jun 2027 05:10:25.327,757.033
52,5 Jun 2027 06:33:24.647,5 Jun 2027 06:44:58.646,693.998
53,5 Jun 2027 08:08:26.026,5 Jun 2027 08:19:12.973,646.946
54,5 Jun 2027 09:42:49.392,5 Jun 2027 09:53:53.533,664.141
55,5 Jun 2027 11:17:06.733,5 Jun 2027 11:29:14.029,727.296
56,5 Jun 2027 12:52:07.013,5 Jun 2027 13:05:01.785,774.772
57,5 Jun 2027 14:28:28.441,5 Jun 2027 14:41:01.798,753.358
58,5 Jun 2027 16:06:40.501,5 Jun 2027 16:17:00.374,619.874
59,5 Jun 2027 17:47:34.318,5 Jun 2027 17:52:18.131,283.814
60,6 Jun 2027 00:22:01.439,6 Jun 2027 00:30:48.986,527.547
61,6 Jun 2027 01:57:53.701,6 Jun 2027 02:09:52.199,718.498
62,6 Jun 2027 03:33:54.976,6 Jun 2027 03:46:52.077,777.101
63,6 Jun 2027 05:09:48.949,6 Jun 2027 05:22:19.377,750.428
64,6 Jun 2027 06:45:21.729,6 Jun 2027 06:56:47.526,685.797
65,6 Jun 2027 08:20:17.877,6 Jun 2027 08:31:03.059,645.182
66,6 Jun 2027 09:54:37.985,6 Jun 2027 10:05:48.732,670.747
67,6 Jun 2027 11:28:58.130,6 Jun 2027 11:41:13.590,735.460
68,6 Jun 2027 13:04:06.865,6 Jun 2027 13:17:03.648,776.783
69,6 Jun 2027 14:40:40.684,6 Jun 2027 14:53:04.288,743.604
70,6 Jun 2027 16:19:09.085,6 Jun 2027 16:29:01.297,592.211
71,6 Jun 2027 18:00:39.476,6 Jun 2027 18:03:58.060,198.584
72,7 Jun 2027 00:34:01.130,7 Jun 2027 00:43:22.745,561.615
73,7 Jun 2027 02:09:56.079,7 Jun 2027 02:22:08.128,732.048
74,7 Jun 2027 03:45:57.142,7 Jun 2027 03:58:54.732,777.590
75,7 Jun 2027 05:21:49.269,7 Jun 2027 05:34:12.455,743.186
76,7 Jun 2027 06:57:18.215,7 Jun 2027 07:08:36.207,677.993
77,7 Jun 2027 08:32:09.090,7 Jun 2027 08:42:53.690,644.600
78,7 Jun 2027 10:06:26.569,7 Jun 2027 10:17:44.588,678.019
79,7 Jun 2027 11:40:50.327,7 Jun 2027 11:53:13.547,743.220
80,7 Jun 2027 13:16:08.087,7 Jun 2027 13:29:05.677,777.590
81,7 Jun 2027 14:52:54.736,7 Jun 2027 15:05:06.737,732.001
82,7 Jun 2027 16:31:40.177,7 Jun 2027 16:41:01.675,561.498
83,7 Jun 2027 23:11:04.676,7 Jun 2027 23:14:23.562,198.887
84,8 Jun 2027 00:46:01.526,8 Jun 2027 00:55:53.825,592.300
85,8 Jun 2027 02:21:58.533,8 Jun 2027 02:34:22.171,743.638
86,8 Jun 2027 03:57:59.172,8 Jun 2027 04:10:55.948,776.776
87,8 Jun 2027 05:33:49.218,8 Jun 2027 05:46:04.655,735.438
88,8 Jun 2027 07:09:14.059,8 Jun 2027 07:20:24.789,670.730
89,8 Jun 2027 08:43:59.715,8 Jun 2027 08:54:44.908,645.194
90,8 Jun 2027 10:18:15.239,8 Jun 2027 10:29:41.077,685.837
91,8 Jun 2027 11:52:43.410,8 Jun 2027 12:05:13.869,750.459
92,8 Jun 2027 13:28:10.745,8 Jun 2027 13:41:07.841,777.096
93,8 Jun 2027 15:05:10.674,8 Jun 2027 15:17:09.116,718.442
94,8 Jun 2027 16:44:13.960,8 Jun 2027 16:53:01.349,527.389
95,8 Jun 2027 23:22:44.674,8 Jun 2027 23:27:28.654,283.980
96,9 Jun 2027 00:58:02.456,9 Jun 2027 01:08:22.394,619.938
97,9 Jun 2027 02:34:01.026,9 Jun 2027 02:46:34.405,753.379
98,9 Jun 2027 04:10:01.027,9 Jun 2027 04:22:55.800,774.774
99,9 Jun 2027 05:45:48.775,9 Jun 2027 05:57:56.048,727.273
100,9 Jun 2027 07:21:09.251,9 Jun 2027 07:32:13.387,664.137
101,9 Jun 2027 08:55:49.791,9 Jun 2027 09:06:36.768,646.977
102,9 Jun 2027 10:30:04.117,9 Jun 2027 10:41:38.167,694.050
103,9 Jun 2027 12:04:37.466,9 Jun 2027 12:17:14.520,757.054
104,9 Jun 2027 13:40:14.883,9 Jun 2027 13:53:10.124,775.241
105,9 Jun 2027 15:17:28.547,9 Jun 2027 15:29:11.382,702.835
106,9 Jun 2027 16:56:50.661,9 Jun 2027 17:05:00.096,489.435
107,9 Jun 2027 23:34:33.638,9 Jun 2027 23:40:22.857,349.219
108,10 Jun 2027 01:10:03.809,10 Jun 2027 01:20:48.585,644.777
109,10 Jun 2027 02:46:03.528,10 Jun 2027 02:58:44.877,761.349
110,10 Jun 2027 04:22:02.698,10 Jun 2027 04:34:54.333,771.636
111,10 Jun 2027 05:57:47.890,10 Jun 2027 06:09:46.739,718.849
112,10 Jun 2027 07:33:03.769,10 Jun 2027 07:44:02.106,658.337
113,10 Jun 2027 09:07:39.399,10 Jun 2027 09:18:29.293,649.894
114,10 Jun 2027 10:41:53.307,10 Jun 2027 10:53:35.830,702.523
115,10 Jun 2027 12:16:32.560,10 Jun 2027 12:29:15.480,762.919
116,10 Jun 2027 13:52:20.568,10 Jun 2027 14:05:12.500,771.932
117,10 Jun 2027 15:29:48.441,10 Jun 2027 15:41:13.495,685.054
118,10 Jun 2027 17:09:30.622,10 Jun 2027 17:16:57.575,446.953
119,10 Jun 2027 23:46:26.941,10 Jun 2027 23:53:10.772,403.831
120,11 Jun 2027 01:22:05.487,11 Jun 2027 01:33:12.523,667.036
121,11 Jun 2027 02:58:06.015,11 Jun 2027 03:10:53.643,767.627
122,11 Jun 2027 04:34:04.146,11 Jun 2027 04:46:51.622,767.477
123,11 Jun 2027 06:09:46.541,11 Jun 2027 06:21:36.816,710.275
124,11 Jun 2027 07:44:57.594,11 Jun 2027 07:55:51.044,653.449
125,11 Jun 2027 09:19:28.614,11 Jun 2027 09:30:22.501,653.887
126,11 Jun 2027 10:53:42.915,11 Jun 2027 11:05:34.028,711.114
127,11 Jun 2027 12:28:28.777,11 Jun 2027 12:41:16.703,767.926
128,11 Jun 2027 14:04:27.848,11 Jun 2027 14:17:14.942,767.093
129,11 Jun 2027 15:42:10.421,11 Jun 2027 15:53:15.404,664.983
130,11 Jun 2027 17:22:14.372,11 Jun 2027 17:28:53.251,398.879
131,11 Jun 2027 23:58:22.845,12 Jun 2027 00:05:54.107,451.263
132,12 Jun 2027 01:34:07.425,12 Jun 2027 01:45:34.293,686.869
133,12 Jun 2027 03:10:08.449,12 Jun 2027 03:23:00.767,772.317
134,12 Jun 2027 04:46:05.346,12 Jun 2027 04:58:47.729,762.383
135,12 Jun 2027 06:21:44.683,12 Jun 2027 06:33:26.386,701.703
136,12 Jun 2027 07:56:50.730,12 Jun 2027 08:07:40.301,649.571
137,12 Jun 2027 09:31:17.526,12 Jun 2027 09:42:16.398,658.872
138,12 Jun 2027 11:05:33.044,12 Jun 2027 11:17:32.724,719.679
139,12 Jun 2027 12:40:26.183,12 Jun 2027 12:53:18.177,771.994
140,12 Jun 2027 14:16:36.786,12 Jun 2027 14:29:17.429,760.643
141,12 Jun 2027 15:54:34.575,12 Jun 2027 16:05:17.047,642.471
142,12 Jun 2027 17:35:02.815,12 Jun 2027 17:40:46.213,343.398
143,13 Jun 2027 00:10:20.471,13 Jun 2027 00:18:33.726,493.255
144,13 Jun 2027 01:46:09.558,13 Jun 2027 01:57:53.982,704.424
145,13 Jun 2027 03:22:10.821,13 Jun 2027 03:35:06.298,775.476
146,13 Jun 2027 04:58:06.268,13 Jun 2027 05:10:42.728,756.460
147,13 Jun 2027 06:33:42.290,13 Jun 2027 06:45:15.541,693.251
148,13 Jun 2027 08:08:43.178,13 Jun 2027 08:19:29.955,646.777
149,13 Jun 2027 09:43:06.218,13 Jun 2027 09:54:10.984,664.766
150,13 Jun 2027 11:17:23.795,13 Jun 2027 11:29:31.891,728.096
151,13 Jun 2027 12:52:24.848,13 Jun 2027 13:05:19.860,775.012
152,13 Jun 2027 14:28:47.423,13 Jun 2027 14:41:19.927,752.504
153,13 Jun 2027 16:07:00.998,13 Jun 2027 16:17:18.355,617.357
154,13 Jun 2027 17:47:57.823,13 Jun 2027 17:52:34.560,276.737
