dataset/facility_timing/facility_Facility-Norilsk/Norilsk-To-KinoSat_111203.csv

Acces,Start Time (UTCG),Stop Time (UTCG),Duration (sec)
1,1 Jun 2027 00:30:41.006,1 Jun 2027 00:43:38.335,777.329
2,1 Jun 2027 02:06:31.475,1 Jun 2027 02:18:52.355,740.880
3,1 Jun 2027 03:41:57.982,1 Jun 2027 03:53:14.872,676.890
4,1 Jun 2027 05:16:46.236,1 Jun 2027 05:27:33.753,647.517
5,1 Jun 2027 06:51:03.047,1 Jun 2027 07:02:26.814,683.767
6,1 Jun 2027 08:25:29.275,1 Jun 2027 08:37:56.962,747.687
7,1 Jun 2027 10:00:51.897,1 Jun 2027 10:13:49.229,777.332
8,1 Jun 2027 11:37:45.200,1 Jun 2027 11:49:49.496,724.296
9,1 Jun 2027 13:16:40.039,1 Jun 2027 13:25:41.697,541.657
10,1 Jun 2027 19:55:44.421,1 Jun 2027 19:59:30.476,226.054
11,1 Jun 2027 21:30:46.596,1 Jun 2027 21:40:48.194,601.598
12,1 Jun 2027 23:06:43.057,1 Jun 2027 23:19:10.047,746.990
13,2 Jun 2027 00:42:42.571,2 Jun 2027 00:55:38.701,776.130
14,2 Jun 2027 02:18:30.887,2 Jun 2027 02:30:44.025,733.138
15,2 Jun 2027 03:53:53.229,2 Jun 2027 04:05:03.304,670.075
16,2 Jun 2027 05:28:36.405,2 Jun 2027 05:39:25.037,648.632
17,2 Jun 2027 07:02:51.660,2 Jun 2027 07:14:23.263,691.603
18,2 Jun 2027 08:37:22.630,2 Jun 2027 08:49:57.076,754.446
19,2 Jun 2027 10:12:54.985,2 Jun 2027 10:25:51.058,776.072
20,2 Jun 2027 11:50:01.722,2 Jun 2027 12:01:51.395,709.673
21,2 Jun 2027 13:29:14.920,2 Jun 2027 13:37:40.365,505.445
22,2 Jun 2027 20:07:27.151,2 Jun 2027 20:12:31.117,303.966
23,2 Jun 2027 21:42:47.225,2 Jun 2027 21:53:15.401,628.176
24,2 Jun 2027 23:18:45.138,2 Jun 2027 23:31:21.203,756.066
25,3 Jun 2027 00:54:43.962,3 Jun 2027 01:07:37.743,773.781
26,3 Jun 2027 02:30:29.895,3 Jun 2027 02:42:34.942,725.047
27,3 Jun 2027 04:05:47.834,3 Jun 2027 04:16:51.795,663.961
28,3 Jun 2027 05:40:26.080,3 Jun 2027 05:51:16.957,650.878
29,3 Jun 2027 07:14:40.530,3 Jun 2027 07:26:20.288,699.759
30,3 Jun 2027 08:49:16.966,3 Jun 2027 09:01:57.499,760.533
31,3 Jun 2027 10:24:59.575,3 Jun 2027 10:37:52.988,773.414
32,3 Jun 2027 12:02:20.205,3 Jun 2027 12:13:53.153,692.948
33,3 Jun 2027 13:41:52.893,3 Jun 2027 13:49:37.911,465.018
34,3 Jun 2027 20:19:17.010,3 Jun 2027 20:25:22.705,365.695
35,3 Jun 2027 21:54:48.247,3 Jun 2027 22:05:40.287,652.041
36,3 Jun 2027 23:30:47.224,3 Jun 2027 23:43:30.647,763.423
37,4 Jun 2027 01:06:45.150,4 Jun 2027 01:19:35.520,770.369
38,4 Jun 2027 02:42:28.462,4 Jun 2027 02:54:25.207,716.745
39,4 Jun 2027 04:17:41.768,4 Jun 2027 04:28:40.446,658.678
40,4 Jun 2027 05:52:15.330,4 Jun 2027 06:03:09.530,654.200
41,4 Jun 2027 07:26:29.756,4 Jun 2027 07:38:17.858,708.102
42,4 Jun 2027 09:01:12.370,4 Jun 2027 09:13:58.200,765.830
43,4 Jun 2027 10:37:05.703,4 Jun 2027 10:49:54.995,769.291
44,4 Jun 2027 12:14:40.716,4 Jun 2027 12:25:54.727,674.011
45,4 Jun 2027 13:54:34.408,4 Jun 2027 14:01:33.882,419.473
46,4 Jun 2027 20:31:10.616,4 Jun 2027 20:38:08.613,417.997
47,4 Jun 2027 22:06:49.575,4 Jun 2027 22:18:02.975,673.400
48,4 Jun 2027 23:42:49.290,4 Jun 2027 23:55:38.428,769.138
49,5 Jun 2027 01:18:46.120,5 Jun 2027 01:31:32.096,765.976
50,5 Jun 2027 02:54:26.556,5 Jun 2027 03:06:14.910,708.354
51,5 Jun 2027 04:29:35.030,5 Jun 2027 04:40:29.347,654.317
52,5 Jun 2027 06:04:04.237,5 Jun 2027 06:15:02.780,658.543
53,5 Jun 2027 07:38:19.441,5 Jun 2027 07:50:15.934,716.493
54,5 Jun 2027 09:13:08.908,5 Jun 2027 09:25:59.161,770.252
55,5 Jun 2027 10:49:13.443,5 Jun 2027 11:01:57.052,763.609
56,5 Jun 2027 12:27:03.340,5 Jun 2027 12:37:56.060,652.719
57,5 Jun 2027 14:07:20.179,5 Jun 2027 14:13:27.558,367.379
58,5 Jun 2027 20:43:06.547,5 Jun 2027 20:50:50.227,463.680
59,5 Jun 2027 22:18:51.149,5 Jun 2027 22:30:23.546,692.397
60,5 Jun 2027 23:54:51.295,6 Jun 2027 00:07:44.611,773.316
61,6 Jun 2027 01:30:46.831,6 Jun 2027 01:43:27.534,760.702
62,6 Jun 2027 03:06:24.134,6 Jun 2027 03:18:04.155,700.021
63,6 Jun 2027 04:41:27.617,6 Jun 2027 04:52:18.595,650.979
64,6 Jun 2027 06:15:52.892,6 Jun 2027 06:26:56.699,663.806
65,6 Jun 2027 07:50:09.684,6 Jun 2027 08:02:14.490,724.806
66,6 Jun 2027 09:25:06.648,6 Jun 2027 09:38:00.349,773.701
67,6 Jun 2027 11:01:22.834,6 Jun 2027 11:13:59.140,756.306
68,6 Jun 2027 12:39:28.163,6 Jun 2027 12:49:57.083,628.920
69,6 Jun 2027 14:20:11.587,6 Jun 2027 14:25:17.539,305.952
70,6 Jun 2027 20:55:04.063,6 Jun 2027 21:03:28.295,504.232
71,6 Jun 2027 22:30:52.906,6 Jun 2027 22:42:42.084,709.178
72,7 Jun 2027 00:06:53.231,7 Jun 2027 00:19:49.238,776.007
73,7 Jun 2027 01:42:47.257,7 Jun 2027 01:55:21.910,754.653
74,7 Jun 2027 03:18:21.176,7 Jun 2027 03:29:53.038,691.862
75,7 Jun 2027 04:53:19.553,7 Jun 2027 05:04:08.256,648.703
76,7 Jun 2027 06:27:41.383,7 Jun 2027 06:38:51.283,669.900
77,7 Jun 2027 08:02:00.580,7 Jun 2027 08:14:13.490,732.910
78,7 Jun 2027 09:37:05.653,7 Jun 2027 09:50:01.729,776.076
79,7 Jun 2027 11:13:33.938,7 Jun 2027 11:26:01.219,747.281
80,7 Jun 2027 12:51:55.307,7 Jun 2027 13:01:57.717,602.410
81,7 Jun 2027 14:33:11.901,7 Jun 2027 14:37:00.536,228.635
82,7 Jun 2027 21:07:02.706,7 Jun 2027 21:16:03.258,540.552
83,7 Jun 2027 22:42:54.800,7 Jun 2027 22:54:58.658,723.857
84,8 Jun 2027 00:18:55.064,8 Jun 2027 00:31:52.376,777.312
85,8 Jun 2027 01:54:47.377,8 Jun 2027 02:07:15.293,747.917
86,8 Jun 2027 03:30:17.633,8 Jun 2027 03:41:41.666,684.033
87,8 Jun 2027 05:05:10.852,8 Jun 2027 05:15:58.417,647.564
88,8 Jun 2027 06:39:29.814,8 Jun 2027 06:50:46.519,676.704
89,8 Jun 2027 08:13:52.221,8 Jun 2027 08:26:12.895,740.673
90,8 Jun 2027 09:49:05.980,8 Jun 2027 10:02:03.292,777.312
91,8 Jun 2027 11:25:46.813,8 Jun 2027 11:38:03.268,736.455
92,8 Jun 2027 13:04:24.885,8 Jun 2027 13:13:57.846,572.961
93,8 Jun 2027 14:46:35.478,8 Jun 2027 14:48:22.141,106.663
94,8 Jun 2027 19:44:37.339,8 Jun 2027 19:46:25.507,108.168
95,8 Jun 2027 21:19:02.204,8 Jun 2027 21:28:35.412,573.207
96,8 Jun 2027 22:54:56.792,8 Jun 2027 23:07:13.349,736.557
97,9 Jun 2027 00:30:56.768,9 Jun 2027 00:43:54.078,777.310
98,9 Jun 2027 02:06:47.152,9 Jun 2027 02:19:07.760,740.608
99,9 Jun 2027 03:42:13.494,9 Jun 2027 03:53:30.145,676.651
100,9 Jun 2027 05:17:01.547,9 Jun 2027 05:27:49.129,647.582
101,9 Jun 2027 06:51:18.289,9 Jun 2027 07:02:42.385,684.095
102,9 Jun 2027 08:25:44.695,9 Jun 2027 08:38:12.671,747.976
103,9 Jun 2027 10:01:07.691,9 Jun 2027 10:14:04.995,777.305
104,9 Jun 2027 11:38:01.514,9 Jun 2027 11:50:05.256,723.742
105,9 Jun 2027 13:16:57.062,9 Jun 2027 13:25:57.322,540.260
106,9 Jun 2027 19:55:59.361,9 Jun 2027 19:59:48.651,229.290
107,9 Jun 2027 21:31:02.345,9 Jun 2027 21:41:04.962,602.617
108,9 Jun 2027 23:06:58.845,9 Jun 2027 23:19:26.202,747.357
109,10 Jun 2027 00:42:58.328,10 Jun 2027 00:55:54.390,776.062
110,10 Jun 2027 02:18:46.545,10 Jun 2027 02:30:59.399,732.854
111,10 Jun 2027 03:54:08.714,10 Jun 2027 04:05:18.578,669.863
112,10 Jun 2027 05:28:51.695,10 Jun 2027 05:39:40.436,648.740
113,10 Jun 2027 07:03:06.911,10 Jun 2027 07:14:38.855,691.944
114,10 Jun 2027 08:37:38.086,10 Jun 2027 08:50:12.790,754.704
115,10 Jun 2027 10:13:10.835,10 Jun 2027 10:26:06.826,775.991
116,10 Jun 2027 11:50:18.109,10 Jun 2027 12:02:07.146,709.037
117,10 Jun 2027 13:29:32.060,10 Jun 2027 13:37:55.946,503.887
118,10 Jun 2027 20:07:42.449,10 Jun 2027 20:12:48.856,306.407
119,10 Jun 2027 21:43:02.986,10 Jun 2027 21:53:32.079,629.093
120,10 Jun 2027 23:19:00.928,10 Jun 2027 23:31:37.292,756.363
121,11 Jun 2027 00:54:59.709,11 Jun 2027 01:07:53.382,773.673
122,11 Jun 2027 02:30:45.535,11 Jun 2027 02:42:50.290,724.755
123,11 Jun 2027 04:06:03.292,11 Jun 2027 04:17:07.073,663.781
124,11 Jun 2027 05:40:41.351,11 Jun 2027 05:51:32.380,651.028
125,11 Jun 2027 07:14:55.792,11 Jun 2027 07:26:35.900,700.108
126,11 Jun 2027 08:49:32.462,11 Jun 2027 09:02:13.226,760.764
127,11 Jun 2027 10:25:15.480,11 Jun 2027 10:38:08.758,773.277
128,11 Jun 2027 12:02:36.670,11 Jun 2027 12:14:08.895,692.225
129,11 Jun 2027 13:42:10.165,11 Jun 2027 13:49:53.434,463.269
130,11 Jun 2027 20:19:32.480,11 Jun 2027 20:25:40.200,367.720
131,11 Jun 2027 21:55:04.018,11 Jun 2027 22:05:56.881,652.863
132,11 Jun 2027 23:31:03.011,11 Jun 2027 23:43:46.671,763.659
133,12 Jun 2027 01:07:00.887,12 Jun 2027 01:19:51.112,770.225
134,12 Jun 2027 02:42:44.082,12 Jun 2027 02:54:40.530,716.449
135,12 Jun 2027 04:17:57.198,12 Jun 2027 04:28:55.732,658.533
136,12 Jun 2027 05:52:30.587,12 Jun 2027 06:03:24.977,654.390
137,12 Jun 2027 07:26:45.034,12 Jun 2027 07:38:33.487,708.453
138,12 Jun 2027 09:01:27.909,12 Jun 2027 09:14:13.935,766.027
139,12 Jun 2027 10:37:21.673,12 Jun 2027 10:50:10.764,769.091
140,12 Jun 2027 12:14:57.262,12 Jun 2027 12:26:10.457,673.195
141,12 Jun 2027 13:54:51.836,12 Jun 2027 14:01:49.321,417.485
142,12 Jun 2027 20:31:26.182,12 Jun 2027 20:38:25.933,419.750
143,12 Jun 2027 22:07:05.353,12 Jun 2027 22:18:19.487,674.133
144,12 Jun 2027 23:43:05.073,12 Jun 2027 23:55:54.391,769.319
145,13 Jun 2027 01:19:01.844,13 Jun 2027 01:31:47.645,765.801
146,13 Jun 2027 02:54:42.152,13 Jun 2027 03:06:30.218,708.066
147,13 Jun 2027 04:29:50.428,13 Jun 2027 04:40:44.645,654.217
148,13 Jun 2027 06:04:19.486,13 Jun 2027 06:15:18.251,658.765
149,13 Jun 2027 07:38:34.739,13 Jun 2027 07:50:31.584,716.845
150,13 Jun 2027 09:13:24.492,13 Jun 2027 09:26:14.902,770.410
151,13 Jun 2027 10:49:29.474,13 Jun 2027 11:02:12.824,763.350
152,13 Jun 2027 12:27:19.970,13 Jun 2027 12:38:11.773,651.803
153,13 Jun 2027 14:07:37.805,13 Jun 2027 14:13:42.874,365.069
154,13 Jun 2027 20:43:22.176,13 Jun 2027 20:51:07.405,465.229
155,13 Jun 2027 22:19:06.931,13 Jun 2027 22:30:39.978,693.047
156,13 Jun 2027 23:55:07.073,14 Jun 2027 00:00:01.000,293.927
