dataset/facility_timing/facility_Facility-Norilsk/Norilsk-To-KinoSat_111104.csv

Acces,Start Time (UTCG),Stop Time (UTCG),Duration (sec)
1,1 Jun 2027 00:24:56.057,1 Jun 2027 00:37:50.739,774.682
2,1 Jun 2027 02:00:42.702,1 Jun 2027 02:12:50.547,727.845
3,1 Jun 2027 03:36:02.020,1 Jun 2027 03:47:08.155,666.135
4,1 Jun 2027 05:10:41.823,1 Jun 2027 05:21:32.171,650.348
5,1 Jun 2027 06:44:56.497,1 Jun 2027 06:56:33.827,697.330
6,1 Jun 2027 08:19:31.152,1 Jun 2027 08:32:09.899,758.747
7,1 Jun 2027 09:55:10.466,1 Jun 2027 10:08:04.838,774.372
8,1 Jun 2027 11:32:26.654,1 Jun 2027 11:44:04.969,698.314
9,1 Jun 2027 13:11:53.121,1 Jun 2027 13:19:50.983,477.862
10,1 Jun 2027 19:49:32.859,1 Jun 2027 19:55:18.791,345.932
11,1 Jun 2027 21:25:00.581,1 Jun 2027 21:35:44.873,644.291
12,1 Jun 2027 23:00:59.128,1 Jun 2027 23:13:40.247,761.119
13,2 Jun 2027 00:36:57.268,2 Jun 2027 00:49:48.893,771.626
14,2 Jun 2027 02:12:41.375,2 Jun 2027 02:24:40.995,719.620
15,2 Jun 2027 03:47:56.142,2 Jun 2027 03:58:56.720,660.578
16,2 Jun 2027 05:22:31.181,2 Jun 2027 05:33:24.504,653.323
17,2 Jun 2027 06:56:45.577,2 Jun 2027 07:08:31.186,705.609
18,2 Jun 2027 08:31:26.184,2 Jun 2027 08:44:10.473,764.288
19,2 Jun 2027 10:07:16.064,2 Jun 2027 10:20:06.776,770.712
20,2 Jun 2027 11:44:46.467,2 Jun 2027 11:56:06.558,680.091
21,2 Jun 2027 13:24:33.422,2 Jun 2027 13:31:47.442,434.019
22,2 Jun 2027 20:01:25.337,2 Jun 2027 20:08:06.358,401.021
23,2 Jun 2027 21:37:01.768,2 Jun 2027 21:48:08.221,666.453
24,2 Jun 2027 23:13:01.149,2 Jun 2027 23:25:48.528,767.379
25,3 Jun 2027 00:48:58.265,3 Jun 2027 01:01:45.826,767.561
26,3 Jun 2027 02:24:39.582,3 Jun 2027 02:36:30.852,711.270
27,3 Jun 2027 03:59:49.589,3 Jun 2027 04:10:45.512,655.923
28,3 Jun 2027 05:34:20.169,3 Jun 2027 05:45:17.498,657.328
29,3 Jun 2027 07:08:35.086,3 Jun 2027 07:20:29.064,713.978
30,3 Jun 2027 08:43:22.327,3 Jun 2027 08:56:11.305,768.979
31,3 Jun 2027 10:19:23.245,3 Jun 2027 10:32:08.773,765.528
32,3 Jun 2027 11:57:08.363,3 Jun 2027 12:08:07.922,659.558
33,3 Jun 2027 13:37:17.719,3 Jun 2027 13:43:41.860,384.141
34,3 Jun 2027 20:13:20.519,3 Jun 2027 20:20:49.260,448.741
35,3 Jun 2027 21:49:03.217,3 Jun 2027 22:00:29.435,686.218
36,3 Jun 2027 23:25:03.131,3 Jun 2027 23:37:55.189,772.057
37,4 Jun 2027 01:00:59.020,4 Jun 2027 01:13:41.603,762.583
38,4 Jun 2027 02:36:37.293,4 Jun 2027 02:48:20.220,702.927
39,4 Jun 2027 04:11:42.363,4 Jun 2027 04:22:34.617,652.254
40,4 Jun 2027 05:46:08.879,4 Jun 2027 05:57:11.167,662.288
41,4 Jun 2027 07:20:25.121,4 Jun 2027 07:32:27.426,722.305
42,4 Jun 2027 08:55:19.646,4 Jun 2027 09:08:12.380,772.734
43,4 Jun 2027 10:31:32.067,4 Jun 2027 10:44:10.807,758.741
44,4 Jun 2027 12:09:32.428,4 Jun 2027 12:20:08.998,636.570
45,4 Jun 2027 13:50:07.121,4 Jun 2027 13:55:33.125,326.004
46,4 Jun 2027 20:25:17.489,4 Jun 2027 20:33:28.408,490.919
47,4 Jun 2027 22:01:04.865,4 Jun 2027 22:12:48.590,703.724
48,4 Jun 2027 23:37:05.049,4 Jun 2027 23:50:00.291,775.242
49,5 Jun 2027 01:12:59.503,5 Jun 2027 01:25:36.294,756.791
50,5 Jun 2027 02:48:34.472,5 Jun 2027 03:00:09.191,694.719
51,5 Jun 2027 04:23:34.479,5 Jun 2027 04:34:24.119,649.640
52,5 Jun 2027 05:57:57.391,5 Jun 2027 06:09:05.508,668.117
53,5 Jun 2027 07:32:15.778,5 Jun 2027 07:44:26.242,730.464
54,5 Jun 2027 09:07:18.212,5 Jun 2027 09:20:13.654,775.442
55,5 Jun 2027 10:43:42.572,5 Jun 2027 10:56:12.840,750.268
56,5 Jun 2027 12:21:58.773,5 Jun 2027 12:32:09.711,610.938
57,5 Jun 2027 14:03:04.054,5 Jun 2027 14:07:18.779,254.725
58,5 Jun 2027 20:37:15.730,5 Jun 2027 20:46:04.322,528.592
59,5 Jun 2027 22:13:06.674,5 Jun 2027 22:25:05.759,719.085
60,5 Jun 2027 23:49:06.871,6 Jun 2027 00:02:03.876,777.005
61,6 Jun 2027 01:24:59.680,6 Jun 2027 01:37:29.974,750.295
62,6 Jun 2027 03:00:31.087,6 Jun 2027 03:11:57.871,686.783
63,6 Jun 2027 04:35:25.954,6 Jun 2027 04:46:14.085,648.130
64,6 Jun 2027 06:09:45.811,6 Jun 2027 06:21:00.497,674.686
65,6 Jun 2027 07:44:07.153,6 Jun 2027 07:56:25.476,738.323
66,6 Jun 2027 09:19:18.076,6 Jun 2027 09:32:15.114,777.038
67,6 Jun 2027 10:55:54.833,6 Jun 2027 11:08:14.856,740.024
68,6 Jun 2027 12:34:27.511,6 Jun 2027 12:44:09.958,582.447
69,6 Jun 2027 14:16:16.528,6 Jun 2027 14:18:50.782,154.254
70,6 Jun 2027 20:49:14.907,6 Jun 2027 20:58:37.337,562.430
71,6 Jun 2027 22:25:08.586,6 Jun 2027 22:37:21.026,732.440
72,7 Jun 2027 00:01:08.573,7 Jun 2027 00:14:06.014,777.441
73,7 Jun 2027 01:36:59.529,7 Jun 2027 01:49:22.708,743.179
74,7 Jun 2027 03:12:27.113,7 Jun 2027 03:23:46.374,679.261
75,7 Jun 2027 04:47:16.820,7 Jun 2027 04:58:04.587,647.767
76,7 Jun 2027 06:21:34.249,7 Jun 2027 06:32:56.127,681.878
77,7 Jun 2027 07:55:59.323,7 Jun 2027 08:08:25.094,745.771
78,7 Jun 2027 09:31:19.298,7 Jun 2027 09:44:16.730,777.432
79,7 Jun 2027 11:08:08.897,7 Jun 2027 11:20:16.821,727.924
80,7 Jun 2027 12:46:58.788,7 Jun 2027 12:56:09.603,550.815
81,7 Jun 2027 19:26:21.211,7 Jun 2027 19:29:36.919,195.708
82,7 Jun 2027 21:01:14.795,7 Jun 2027 21:11:07.692,592.898
83,7 Jun 2027 22:37:10.571,7 Jun 2027 22:49:34.438,743.867
84,8 Jun 2027 00:13:10.140,8 Jun 2027 00:26:06.746,776.606
85,8 Jun 2027 01:48:59.008,8 Jun 2027 02:01:14.594,735.586
86,8 Jun 2027 03:24:22.507,8 Jun 2027 03:35:34.792,672.285
87,8 Jun 2027 04:59:07.124,8 Jun 2027 05:09:55.664,648.541
88,8 Jun 2027 06:33:22.793,8 Jun 2027 06:44:52.363,689.570
89,8 Jun 2027 08:07:52.387,8 Jun 2027 08:20:25.068,752.680
90,8 Jun 2027 09:43:21.943,8 Jun 2027 09:56:18.482,776.539
91,8 Jun 2027 11:20:24.833,8 Jun 2027 11:32:18.696,713.863
92,8 Jun 2027 12:59:32.811,8 Jun 2027 13:08:08.463,515.652
93,8 Jun 2027 19:37:59.969,8 Jun 2027 19:42:41.973,282.004
94,8 Jun 2027 21:13:15.223,8 Jun 2027 21:23:35.559,620.335
95,8 Jun 2027 22:49:12.599,8 Jun 2027 23:01:46.070,753.471
96,9 Jun 2027 00:25:11.533,9 Jun 2027 00:38:06.145,774.612
97,9 Jun 2027 02:00:58.098,9 Jun 2027 02:13:05.699,727.601
98,9 Jun 2027 03:36:17.263,9 Jun 2027 03:47:23.238,665.975
99,9 Jun 2027 05:10:56.907,9 Jun 2027 05:21:47.373,650.465
100,9 Jun 2027 06:45:11.563,9 Jun 2027 06:56:49.187,697.625
101,9 Jun 2027 08:19:46.410,9 Jun 2027 08:32:25.358,758.948
102,9 Jun 2027 09:55:26.066,9 Jun 2027 10:08:20.333,774.268
103,9 Jun 2027 11:32:42.709,9 Jun 2027 11:44:20.445,697.736
104,9 Jun 2027 13:12:09.836,9 Jun 2027 13:20:06.285,476.449
105,9 Jun 2027 19:49:48.074,9 Jun 2027 19:55:35.779,347.705
106,9 Jun 2027 21:25:16.078,9 Jun 2027 21:36:01.076,644.998
107,9 Jun 2027 23:01:14.640,9 Jun 2027 23:13:55.971,761.331
108,10 Jun 2027 00:37:12.739,10 Jun 2027 00:50:04.254,771.515
109,10 Jun 2027 02:12:56.754,10 Jun 2027 02:24:56.128,719.374
110,10 Jun 2027 03:48:11.362,10 Jun 2027 03:59:11.817,660.456
111,10 Jun 2027 05:22:46.252,10 Jun 2027 05:33:39.727,653.475
112,10 Jun 2027 06:57:00.658,10 Jun 2027 07:08:46.561,705.903
113,10 Jun 2027 08:31:41.476,10 Jun 2027 08:44:25.938,764.462
114,10 Jun 2027 10:07:31.711,10 Jun 2027 10:20:22.271,770.560
115,10 Jun 2027 11:45:02.589,10 Jun 2027 11:56:22.022,679.433
116,10 Jun 2027 13:24:50.261,10 Jun 2027 13:32:02.681,432.421
117,10 Jun 2027 20:01:40.645,10 Jun 2027 20:08:23.186,402.541
118,10 Jun 2027 21:37:17.271,10 Jun 2027 21:48:24.355,667.085
119,10 Jun 2027 23:13:16.658,10 Jun 2027 23:26:04.200,767.541
120,11 Jun 2027 00:49:13.726,11 Jun 2027 01:02:01.149,767.423
121,11 Jun 2027 02:24:54.940,11 Jun 2027 02:36:45.971,711.030
122,11 Jun 2027 04:00:04.785,11 Jun 2027 04:11:00.613,655.828
123,11 Jun 2027 05:34:35.230,11 Jun 2027 05:45:32.741,657.511
124,11 Jun 2027 07:08:50.183,11 Jun 2027 07:20:44.454,714.272
125,11 Jun 2027 08:43:37.655,11 Jun 2027 08:56:26.776,769.121
126,11 Jun 2027 10:19:38.943,11 Jun 2027 10:32:24.267,765.323
127,11 Jun 2027 11:57:24.555,11 Jun 2027 12:08:23.374,658.819
128,11 Jun 2027 13:37:34.709,11 Jun 2027 13:43:57.009,382.300
129,11 Jun 2027 20:13:35.887,11 Jun 2027 20:21:05.964,450.077
130,11 Jun 2027 21:49:18.724,11 Jun 2027 22:00:45.503,686.780
131,11 Jun 2027 23:25:18.636,11 Jun 2027 23:38:10.810,772.174
132,12 Jun 2027 01:01:14.472,12 Jun 2027 01:13:56.891,762.419
133,12 Jun 2027 02:36:52.632,12 Jun 2027 02:48:35.321,702.688
134,12 Jun 2027 04:11:57.541,12 Jun 2027 04:22:49.730,652.188
135,12 Jun 2027 05:46:23.931,12 Jun 2027 05:57:26.431,662.500
136,12 Jun 2027 07:20:40.236,12 Jun 2027 07:32:42.829,722.593
137,12 Jun 2027 08:55:35.016,12 Jun 2027 09:08:27.856,772.841
138,12 Jun 2027 10:31:47.819,12 Jun 2027 10:44:26.299,758.480
139,12 Jun 2027 12:09:48.695,12 Jun 2027 12:20:24.435,635.740
140,12 Jun 2027 13:50:24.319,12 Jun 2027 13:55:48.125,323.806
141,12 Jun 2027 20:25:32.897,12 Jun 2027 20:33:45.006,492.109
142,12 Jun 2027 22:01:20.375,12 Jun 2027 22:13:04.594,704.218
143,12 Jun 2027 23:37:20.547,12 Jun 2027 23:50:15.862,775.316
144,13 Jun 2027 01:13:14.942,13 Jun 2027 01:25:51.548,756.606
145,13 Jun 2027 02:48:49.792,13 Jun 2027 03:00:24.282,694.490
146,13 Jun 2027 04:23:49.630,13 Jun 2027 04:34:39.246,649.615
147,13 Jun 2027 05:58:12.438,13 Jun 2027 06:09:20.792,668.353
148,13 Jun 2027 07:32:30.915,13 Jun 2027 07:44:41.657,730.743
149,13 Jun 2027 09:07:33.620,13 Jun 2027 09:20:29.134,775.514
150,13 Jun 2027 10:43:58.380,13 Jun 2027 10:56:28.328,749.948
151,13 Jun 2027 12:22:15.114,13 Jun 2027 12:32:25.131,610.016
152,13 Jun 2027 14:03:21.595,13 Jun 2027 14:07:33.496,251.901
153,13 Jun 2027 20:37:31.167,13 Jun 2027 20:46:20.826,529.658
154,13 Jun 2027 22:13:22.180,13 Jun 2027 22:25:21.701,719.521
155,13 Jun 2027 23:49:22.366,14 Jun 2027 00:00:01.000,638.634
