dataset/facility_timing/facility_Facility-Norilsk/Norilsk-To-KinoSat_110201.csv

Acces,Start Time (UTCG),Stop Time (UTCG),Duration (sec)
1,1 Jun 2027 00:00:01.000,1 Jun 2027 00:05:36.005,335.005
2,1 Jun 2027 01:29:03.384,1 Jun 2027 01:40:30.981,687.597
3,1 Jun 2027 03:03:31.576,1 Jun 2027 03:16:02.362,750.785
4,1 Jun 2027 04:38:58.142,1 Jun 2027 04:51:55.037,776.895
5,1 Jun 2027 06:15:56.878,1 Jun 2027 06:27:55.000,718.123
6,1 Jun 2027 07:54:59.299,1 Jun 2027 08:03:45.400,526.102
7,1 Jun 2027 14:33:44.312,1 Jun 2027 14:37:58.209,253.897
8,1 Jun 2027 16:08:52.694,1 Jun 2027 16:19:03.627,610.933
9,1 Jun 2027 17:44:49.279,1 Jun 2027 17:57:19.542,750.263
10,1 Jun 2027 19:20:48.229,1 Jun 2027 19:33:43.643,775.414
11,1 Jun 2027 20:56:35.381,1 Jun 2027 21:08:45.943,730.562
12,1 Jun 2027 22:31:55.836,1 Jun 2027 22:43:04.374,668.538
13,2 Jun 2027 00:06:37.035,2 Jun 2027 00:17:27.441,650.406
14,2 Jun 2027 01:40:52.030,2 Jun 2027 01:52:27.529,695.499
15,2 Jun 2027 03:15:25.241,2 Jun 2027 03:28:02.448,757.206
16,2 Jun 2027 04:51:01.710,2 Jun 2027 05:03:56.758,775.048
17,2 Jun 2027 06:28:14.032,2 Jun 2027 06:39:56.683,702.651
18,2 Jun 2027 08:07:35.265,2 Jun 2027 08:15:43.435,488.170
19,2 Jun 2027 14:45:29.723,2 Jun 2027 14:50:55.087,325.364
20,2 Jun 2027 16:20:53.283,2 Jun 2027 16:31:29.812,636.528
21,2 Jun 2027 17:56:51.210,2 Jun 2027 18:09:29.922,758.712
22,2 Jun 2027 19:32:49.394,2 Jun 2027 19:45:42.106,772.712
23,2 Jun 2027 21:08:34.092,2 Jun 2027 21:20:36.537,722.445
24,2 Jun 2027 22:43:50.073,2 Jun 2027 22:54:52.852,662.778
25,3 Jun 2027 00:18:26.473,3 Jun 2027 00:29:19.511,653.038
26,3 Jun 2027 01:52:40.973,3 Jun 2027 02:04:24.637,703.664
27,3 Jun 2027 03:27:19.912,3 Jun 2027 03:40:02.842,762.930
28,3 Jun 2027 05:03:06.790,3 Jun 2027 05:15:58.564,771.775
29,3 Jun 2027 06:40:33.173,3 Jun 2027 06:51:58.207,685.034
30,3 Jun 2027 08:20:14.486,3 Jun 2027 08:27:40.169,445.683
31,3 Jun 2027 14:57:20.796,3 Jun 2027 15:03:44.393,383.597
32,3 Jun 2027 16:32:54.245,3 Jun 2027 16:43:53.731,659.485
33,3 Jun 2027 18:08:53.125,3 Jun 2027 18:21:38.614,765.489
34,3 Jun 2027 19:44:50.355,3 Jun 2027 19:57:39.335,768.979
35,3 Jun 2027 21:20:32.343,3 Jun 2027 21:32:26.511,714.168
36,3 Jun 2027 22:55:43.651,3 Jun 2027 23:06:41.520,657.869
37,4 Jun 2027 00:30:15.513,4 Jun 2027 00:41:12.238,656.726
38,4 Jun 2027 02:04:30.310,4 Jun 2027 02:16:22.273,711.963
39,4 Jun 2027 03:39:15.669,4 Jun 2027 03:52:03.497,767.828
40,4 Jun 2027 05:15:13.428,4 Jun 2027 05:28:00.439,767.011
41,4 Jun 2027 06:52:54.363,4 Jun 2027 07:03:59.523,665.160
42,4 Jun 2027 08:32:57.516,4 Jun 2027 08:39:35.052,397.536
43,4 Jun 2027 15:09:15.052,4 Jun 2027 15:16:28.568,433.516
44,4 Jun 2027 16:44:55.497,4 Jun 2027 16:56:15.487,679.990
45,4 Jun 2027 18:20:55.012,4 Jun 2027 18:33:45.673,770.661
46,4 Jun 2027 19:56:51.082,4 Jun 2027 20:09:35.392,764.310
47,4 Jun 2027 21:32:30.114,4 Jun 2027 21:44:15.971,705.856
48,4 Jun 2027 23:07:36.555,4 Jun 2027 23:18:30.472,653.917
49,5 Jun 2027 00:42:04.255,5 Jun 2027 00:53:05.633,661.378
50,5 Jun 2027 02:16:20.141,5 Jun 2027 02:28:20.398,720.257
51,5 Jun 2027 03:51:12.580,5 Jun 2027 04:04:04.399,771.818
52,5 Jun 2027 05:27:21.686,5 Jun 2027 05:40:02.353,760.667
53,5 Jun 2027 07:05:17.695,5 Jun 2027 07:16:00.566,642.871
54,5 Jun 2027 08:45:45.290,5 Jun 2027 08:51:27.142,341.852
55,5 Jun 2027 15:21:11.348,5 Jun 2027 15:29:08.742,477.394
56,5 Jun 2027 16:56:56.964,5 Jun 2027 17:08:35.162,698.198
57,5 Jun 2027 18:32:56.840,5 Jun 2027 18:45:51.165,774.325
58,5 Jun 2027 20:08:51.551,5 Jun 2027 20:21:30.345,758.794
59,5 Jun 2027 21:44:27.368,5 Jun 2027 21:56:05.006,697.638
60,5 Jun 2027 23:19:28.802,5 Jun 2027 23:30:19.795,650.992
61,6 Jun 2027 00:53:52.775,6 Jun 2027 01:04:59.692,666.917
62,6 Jun 2027 02:28:10.564,6 Jun 2027 02:40:18.986,728.423
63,6 Jun 2027 04:03:10.713,6 Jun 2027 04:16:05.514,774.801
64,6 Jun 2027 05:39:31.606,6 Jun 2027 05:52:04.284,752.679
65,6 Jun 2027 07:17:43.260,6 Jun 2027 07:28:01.274,618.014
66,6 Jun 2027 08:58:39.750,6 Jun 2027 09:03:14.468,274.719
67,6 Jun 2027 15:33:09.071,6 Jun 2027 15:41:45.535,516.464
68,6 Jun 2027 17:08:58.605,6 Jun 2027 17:20:52.836,714.231
69,6 Jun 2027 18:44:58.588,6 Jun 2027 18:57:55.127,776.539
70,6 Jun 2027 20:20:51.720,6 Jun 2027 20:33:24.270,752.550
71,6 Jun 2027 21:56:24.070,6 Jun 2027 22:07:53.717,689.647
72,6 Jun 2027 23:31:20.406,6 Jun 2027 23:42:09.557,649.151
73,7 Jun 2027 01:05:41.171,7 Jun 2027 01:16:54.409,673.238
74,7 Jun 2027 02:40:01.675,7 Jun 2027 02:52:18.003,736.328
75,7 Jun 2027 04:15:10.122,7 Jun 2027 04:28:06.818,776.696
76,7 Jun 2027 05:51:43.260,7 Jun 2027 06:04:06.198,742.938
77,7 Jun 2027 07:30:11.188,7 Jun 2027 07:40:01.542,590.354
78,7 Jun 2027 09:11:46.410,7 Jun 2027 09:14:51.490,185.080
79,7 Jun 2027 15:45:07.833,7 Jun 2027 15:54:19.335,551.502
80,7 Jun 2027 17:21:00.372,7 Jun 2027 17:33:08.583,728.211
81,7 Jun 2027 18:57:00.224,7 Jun 2027 19:09:57.628,777.404
82,7 Jun 2027 20:32:51.576,7 Jun 2027 20:45:17.229,745.652
83,7 Jun 2027 22:08:20.195,7 Jun 2027 22:19:42.222,682.028
84,7 Jun 2027 23:43:11.395,7 Jun 2027 23:53:59.830,648.435
85,8 Jun 2027 01:17:29.556,8 Jun 2027 01:28:49.764,680.208
86,8 Jun 2027 02:51:53.551,8 Jun 2027 03:04:17.414,743.863
87,8 Jun 2027 04:27:10.867,8 Jun 2027 04:40:08.290,777.423
88,8 Jun 2027 06:03:56.690,8 Jun 2027 06:16:08.068,731.377
89,8 Jun 2027 07:42:41.604,8 Jun 2027 07:52:01.243,559.639
90,8 Jun 2027 14:22:26.756,8 Jun 2027 14:25:02.008,155.252
91,8 Jun 2027 15:57:07.373,8 Jun 2027 16:06:50.401,583.028
92,8 Jun 2027 17:33:02.225,8 Jun 2027 17:45:22.476,740.250
93,8 Jun 2027 19:09:01.725,8 Jun 2027 19:21:58.721,776.996
94,8 Jun 2027 20:44:51.079,8 Jun 2027 20:57:09.314,738.235
95,8 Jun 2027 22:20:15.705,8 Jun 2027 22:31:30.612,674.907
96,8 Jun 2027 23:55:01.806,9 Jun 2027 00:05:50.671,648.866
97,9 Jun 2027 01:29:18.020,9 Jun 2027 01:40:45.734,687.714
98,9 Jun 2027 03:03:46.289,9 Jun 2027 03:16:17.180,750.891
99,9 Jun 2027 04:39:13.015,9 Jun 2027 04:52:09.892,776.877
100,9 Jun 2027 06:16:11.975,9 Jun 2027 06:28:09.862,717.887
101,9 Jun 2027 07:55:14.695,9 Jun 2027 08:04:00.221,525.526
102,9 Jun 2027 14:33:58.760,9 Jun 2027 14:38:14.144,255.383
103,9 Jun 2027 16:09:07.510,9 Jun 2027 16:19:18.929,611.419
104,9 Jun 2027 17:45:04.135,9 Jun 2027 17:57:34.561,750.426
105,9 Jun 2027 19:21:03.076,9 Jun 2027 19:33:58.452,775.376
106,9 Jun 2027 20:56:50.192,9 Jun 2027 21:09:00.608,730.416
107,9 Jun 2027 22:32:10.578,9 Jun 2027 22:43:18.992,668.415
108,10 Jun 2027 00:06:51.693,10 Jun 2027 00:17:42.115,650.422
109,10 Jun 2027 01:41:06.671,10 Jun 2027 01:52:42.293,695.622
110,10 Jun 2027 03:15:39.970,10 Jun 2027 03:28:17.274,757.304
111,10 Jun 2027 04:51:16.608,10 Jun 2027 05:04:11.614,775.007
112,10 Jun 2027 06:28:29.160,10 Jun 2027 06:40:11.545,702.385
113,10 Jun 2027 08:07:50.711,10 Jun 2027 08:15:58.238,487.527
114,10 Jun 2027 14:45:44.321,10 Jun 2027 14:51:10.840,326.519
115,10 Jun 2027 16:21:08.109,10 Jun 2027 16:31:45.072,636.963
116,10 Jun 2027 17:57:06.063,10 Jun 2027 18:09:44.911,758.848
117,10 Jun 2027 19:33:04.238,10 Jun 2027 19:45:56.892,772.654
118,10 Jun 2027 21:08:48.894,10 Jun 2027 21:20:51.191,722.297
119,10 Jun 2027 22:44:04.803,10 Jun 2027 22:55:07.473,662.670
120,11 Jun 2027 00:18:41.123,11 Jun 2027 00:29:34.197,653.074
121,11 Jun 2027 01:52:55.619,11 Jun 2027 02:04:39.411,703.792
122,11 Jun 2027 03:27:34.658,11 Jun 2027 03:40:17.673,763.016
123,11 Jun 2027 05:03:21.713,11 Jun 2027 05:16:13.423,771.711
124,11 Jun 2027 06:40:48.335,11 Jun 2027 06:52:13.066,684.731
125,11 Jun 2027 08:20:29.991,11 Jun 2027 08:27:54.949,444.958
126,11 Jun 2027 14:57:35.472,11 Jun 2027 15:04:00.034,384.563
127,11 Jun 2027 16:33:09.079,11 Jun 2027 16:44:08.952,659.873
128,11 Jun 2027 18:09:07.979,11 Jun 2027 18:21:53.575,765.596
129,11 Jun 2027 19:45:05.196,11 Jun 2027 19:57:54.100,768.904
130,11 Jun 2027 21:20:47.140,11 Jun 2027 21:32:41.155,714.015
131,11 Jun 2027 22:55:58.369,11 Jun 2027 23:06:56.146,657.777
132,12 Jun 2027 00:30:30.156,12 Jun 2027 00:41:26.937,656.780
133,12 Jun 2027 02:04:44.962,12 Jun 2027 02:16:37.056,712.094
134,12 Jun 2027 03:39:30.433,12 Jun 2027 03:52:18.334,767.900
135,12 Jun 2027 05:15:28.378,12 Jun 2027 05:28:15.299,766.921
136,12 Jun 2027 06:53:09.561,12 Jun 2027 07:04:14.378,664.818
137,12 Jun 2027 08:33:13.089,12 Jun 2027 08:39:49.798,396.709
138,12 Jun 2027 15:09:29.776,12 Jun 2027 15:16:44.128,434.352
139,12 Jun 2027 16:45:10.336,12 Jun 2027 16:56:30.670,680.334
140,12 Jun 2027 18:21:09.866,12 Jun 2027 18:34:00.606,770.740
141,12 Jun 2027 19:57:05.919,12 Jun 2027 20:09:50.138,764.219
142,12 Jun 2027 21:32:44.903,12 Jun 2027 21:44:30.607,705.704
143,12 Jun 2027 23:07:51.262,12 Jun 2027 23:18:45.104,653.842
144,13 Jun 2027 00:42:18.893,13 Jun 2027 00:53:20.344,661.451
145,13 Jun 2027 02:16:34.802,13 Jun 2027 02:28:35.191,720.389
146,13 Jun 2027 03:51:27.365,13 Jun 2027 04:04:19.242,771.878
147,13 Jun 2027 05:27:36.664,13 Jun 2027 05:40:17.215,760.551
148,13 Jun 2027 07:05:32.930,13 Jun 2027 07:16:15.419,642.489
149,13 Jun 2027 08:46:00.953,13 Jun 2027 08:51:41.829,340.875
150,13 Jun 2027 15:21:26.106,13 Jun 2027 15:29:24.237,478.131
151,13 Jun 2027 16:57:11.809,13 Jun 2027 17:08:50.310,698.502
152,13 Jun 2027 18:33:11.694,13 Jun 2027 18:46:06.072,774.378
153,13 Jun 2027 20:09:06.384,13 Jun 2027 20:21:45.073,758.689
154,13 Jun 2027 21:44:42.148,13 Jun 2027 21:56:19.636,697.489
155,13 Jun 2027 23:19:43.498,13 Jun 2027 23:30:34.435,650.937
