dataset/facility_timing/facility_Facility-Norilsk/Norilsk-To-KinoSat_111406.csv

Acces,Start Time (UTCG),Stop Time (UTCG),Duration (sec)
1,1 Jun 2027 00:00:01.000,1 Jun 2027 00:06:42.794,401.794
2,1 Jun 2027 01:30:17.134,1 Jun 2027 01:43:13.556,776.422
3,1 Jun 2027 03:06:06.057,1 Jun 2027 03:18:20.277,734.221
4,1 Jun 2027 04:41:29.322,1 Jun 2027 04:52:39.951,670.628
5,1 Jun 2027 06:16:13.451,1 Jun 2027 06:27:01.060,647.608
6,1 Jun 2027 07:50:28.840,1 Jun 2027 08:01:58.432,689.592
7,1 Jun 2027 09:24:58.748,1 Jun 2027 09:37:31.763,753.015
8,1 Jun 2027 11:00:29.154,1 Jun 2027 11:13:25.652,776.498
9,1 Jun 2027 12:37:33.242,1 Jun 2027 12:49:26.242,713.000
10,1 Jun 2027 14:16:42.628,1 Jun 2027 14:25:16.330,513.703
11,1 Jun 2027 20:55:02.838,1 Jun 2027 20:59:57.339,294.500
12,1 Jun 2027 22:30:21.465,1 Jun 2027 22:40:45.924,624.459
13,2 Jun 2027 00:06:19.476,2 Jun 2027 00:18:54.333,754.857
14,2 Jun 2027 01:42:18.663,2 Jun 2027 01:55:12.884,774.221
15,2 Jun 2027 03:18:05.229,2 Jun 2027 03:30:11.363,726.134
16,2 Jun 2027 04:53:24.119,2 Jun 2027 05:04:28.466,664.347
17,2 Jun 2027 06:28:03.259,2 Jun 2027 06:38:52.927,649.668
18,2 Jun 2027 08:02:17.691,2 Jun 2027 08:13:55.441,697.750
19,2 Jun 2027 09:36:52.945,2 Jun 2027 09:49:32.229,759.285
20,2 Jun 2027 11:12:33.531,2 Jun 2027 11:25:27.665,774.134
21,2 Jun 2027 12:49:51.441,2 Jun 2027 13:01:28.145,696.704
22,2 Jun 2027 14:29:20.050,2 Jun 2027 14:37:14.280,474.230
23,2 Jun 2027 21:06:52.169,2 Jun 2027 21:12:50.032,357.862
24,2 Jun 2027 22:42:22.550,2 Jun 2027 22:53:11.295,648.745
25,3 Jun 2027 00:18:21.677,3 Jun 2027 00:31:04.151,762.475
26,3 Jun 2027 01:54:19.988,3 Jun 2027 02:07:10.935,770.947
27,3 Jun 2027 03:30:03.969,3 Jun 2027 03:42:01.777,717.808
28,3 Jun 2027 05:05:18.246,3 Jun 2027 05:16:17.121,658.875
29,3 Jun 2027 06:39:52.626,3 Jun 2027 06:50:45.449,652.823
30,3 Jun 2027 08:14:06.881,3 Jun 2027 08:25:53.002,706.121
31,3 Jun 2027 09:48:48.199,3 Jun 2027 10:01:32.983,764.784
32,3 Jun 2027 11:24:39.444,3 Jun 2027 11:37:29.764,770.321
33,3 Jun 2027 13:02:11.659,3 Jun 2027 13:13:29.874,678.216
34,3 Jun 2027 14:42:00.902,3 Jun 2027 14:49:10.781,429.879
35,3 Jun 2027 21:18:45.517,3 Jun 2027 21:25:36.764,411.247
36,3 Jun 2027 22:54:23.958,3 Jun 2027 23:05:34.438,670.479
37,4 Jun 2027 00:30:23.846,4 Jun 2027 00:43:12.289,768.443
38,4 Jun 2027 02:06:21.095,4 Jun 2027 02:19:07.769,766.675
39,4 Jun 2027 03:42:02.236,4 Jun 2027 03:53:51.613,709.377
40,4 Jun 2027 05:17:11.694,4 Jun 2027 05:28:06.010,654.316
41,4 Jun 2027 06:51:41.630,4 Jun 2027 07:02:38.644,657.014
42,4 Jun 2027 08:25:56.513,4 Jun 2027 08:37:51.083,714.570
43,4 Jun 2027 10:00:44.579,4 Jun 2027 10:13:33.994,769.415
44,4 Jun 2027 11:36:46.957,4 Jun 2027 11:49:31.920,764.963
45,4 Jun 2027 13:14:33.976,4 Jun 2027 13:25:31.376,657.399
46,4 Jun 2027 14:54:45.814,4 Jun 2027 15:01:05.188,379.374
47,4 Jun 2027 21:30:41.322,4 Jun 2027 21:38:19.067,457.745
48,4 Jun 2027 23:06:25.615,4 Jun 2027 23:17:55.452,689.837
49,5 Jun 2027 00:42:25.974,5 Jun 2027 00:55:18.814,772.839
50,5 Jun 2027 02:18:21.955,5 Jun 2027 02:31:03.451,761.495
51,5 Jun 2027 03:53:59.997,5 Jun 2027 04:05:40.965,700.968
52,5 Jun 2027 05:29:04.466,5 Jun 2027 05:39:55.238,650.772
53,5 Jun 2027 07:03:30.364,5 Jun 2027 07:14:32.516,662.152
54,5 Jun 2027 08:37:46.687,5 Jun 2027 08:49:49.645,722.957
55,5 Jun 2027 10:12:42.153,5 Jun 2027 10:25:35.246,773.092
56,5 Jun 2027 11:48:56.127,5 Jun 2027 12:01:34.112,757.985
57,5 Jun 2027 13:26:58.480,5 Jun 2027 13:37:32.585,634.106
58,5 Jun 2027 15:07:35.966,5 Jun 2027 15:12:56.306,320.340
59,5 Jun 2027 21:42:38.779,5 Jun 2027 21:50:57.746,498.967
60,5 Jun 2027 23:18:27.458,5 Jun 2027 23:30:14.415,706.956
61,6 Jun 2027 00:54:28.029,6 Jun 2027 01:07:23.775,775.746
62,6 Jun 2027 02:30:22.529,6 Jun 2027 02:42:58.055,755.526
63,6 Jun 2027 04:05:57.222,6 Jun 2027 04:17:29.935,692.713
64,6 Jun 2027 05:40:56.577,6 Jun 2027 05:51:44.868,648.291
65,6 Jun 2027 07:15:18.915,6 Jun 2027 07:26:27.061,668.146
66,6 Jun 2027 08:49:37.501,6 Jun 2027 09:01:48.663,731.161
67,6 Jun 2027 10:24:40.989,6 Jun 2027 10:37:36.693,775.704
68,6 Jun 2027 12:01:06.998,6 Jun 2027 12:13:36.303,749.304
69,6 Jun 2027 13:39:25.280,6 Jun 2027 13:49:33.426,608.146
70,6 Jun 2027 15:20:33.978,6 Jun 2027 15:24:41.497,247.519
71,6 Jun 2027 21:54:37.420,6 Jun 2027 22:03:33.269,535.849
72,6 Jun 2027 23:30:29.447,6 Jun 2027 23:42:31.397,721.949
73,7 Jun 2027 01:06:29.983,7 Jun 2027 01:19:27.227,777.244
74,7 Jun 2027 02:42:22.801,7 Jun 2027 02:54:51.646,748.845
75,7 Jun 2027 04:17:53.864,7 Jun 2027 04:29:18.639,684.775
76,7 Jun 2027 05:52:48.042,7 Jun 2027 06:03:34.990,646.948
77,7 Jun 2027 07:27:07.386,7 Jun 2027 07:38:22.264,674.878
78,7 Jun 2027 09:01:29.047,7 Jun 2027 09:13:48.094,739.047
79,7 Jun 2027 10:36:41.139,7 Jun 2027 10:49:38.329,777.190
80,7 Jun 2027 12:13:19.638,7 Jun 2027 12:25:38.469,738.831
81,7 Jun 2027 13:51:54.500,7 Jun 2027 14:01:33.788,579.288
82,7 Jun 2027 15:33:49.080,7 Jun 2027 15:36:11.479,142.399
83,7 Jun 2027 20:32:21.496,7 Jun 2027 20:33:43.972,82.476
84,7 Jun 2027 22:06:36.938,7 Jun 2027 22:16:05.943,569.005
85,7 Jun 2027 23:42:31.540,7 Jun 2027 23:54:46.481,734.940
86,8 Jun 2027 01:18:31.814,8 Jun 2027 01:31:29.227,777.413
87,8 Jun 2027 02:54:22.728,8 Jun 2027 03:06:44.302,741.574
88,8 Jun 2027 04:29:49.907,8 Jun 2027 04:41:07.168,677.261
89,8 Jun 2027 06:04:38.892,8 Jun 2027 06:15:25.659,646.767
90,8 Jun 2027 07:38:55.878,8 Jun 2027 07:50:18.102,682.223
91,8 Jun 2027 09:13:21.418,8 Jun 2027 09:25:47.906,746.488
92,8 Jun 2027 10:48:42.668,8 Jun 2027 11:01:40.114,777.447
93,8 Jun 2027 12:25:34.100,8 Jun 2027 12:37:40.580,726.480
94,8 Jun 2027 14:04:26.285,8 Jun 2027 14:13:33.537,547.252
95,8 Jun 2027 20:43:36.566,8 Jun 2027 20:47:14.611,218.045
96,8 Jun 2027 22:18:37.125,8 Jun 2027 22:28:35.986,598.862
97,8 Jun 2027 23:54:33.693,9 Jun 2027 00:06:59.713,746.020
98,9 Jun 2027 01:30:33.501,9 Jun 2027 01:43:29.829,776.328
99,9 Jun 2027 03:06:22.285,9 Jun 2027 03:18:36.118,733.833
100,9 Jun 2027 04:41:45.319,9 Jun 2027 04:52:55.645,670.327
101,9 Jun 2027 06:16:29.181,9 Jun 2027 06:27:16.921,647.740
102,9 Jun 2027 07:50:44.512,9 Jun 2027 08:02:14.558,690.046
103,9 Jun 2027 09:25:14.684,9 Jun 2027 09:37:48.067,753.383
104,9 Jun 2027 11:00:45.631,9 Jun 2027 11:13:42.026,776.395
105,9 Jun 2027 12:37:50.448,9 Jun 2027 12:49:42.601,712.153
106,9 Jun 2027 14:17:00.838,9 Jun 2027 14:25:32.484,511.646
107,9 Jun 2027 20:55:18.512,9 Jun 2027 21:00:16.494,297.982
108,9 Jun 2027 22:30:37.825,9 Jun 2027 22:41:03.572,625.747
109,10 Jun 2027 00:06:35.886,10 Jun 2027 00:19:11.168,755.282
110,10 Jun 2027 01:42:35.011,10 Jun 2027 01:55:29.094,774.083
111,10 Jun 2027 03:18:21.440,10 Jun 2027 03:30:27.168,725.728
112,10 Jun 2027 04:53:40.077,10 Jun 2027 05:04:44.160,664.083
113,10 Jun 2027 06:28:18.968,10 Jun 2027 06:39:08.814,649.846
114,10 Jun 2027 08:02:33.374,10 Jun 2027 08:14:11.594,698.220
115,10 Jun 2027 09:37:08.942,10 Jun 2027 09:49:48.546,759.604
116,10 Jun 2027 11:12:50.085,10 Jun 2027 11:25:44.046,773.961
117,10 Jun 2027 12:50:08.748,10 Jun 2027 13:01:44.495,695.747
118,10 Jun 2027 14:29:38.437,10 Jun 2027 14:37:30.361,471.923
119,10 Jun 2027 21:07:08.092,10 Jun 2027 21:13:08.831,360.739
120,10 Jun 2027 22:42:38.927,10 Jun 2027 22:53:28.822,649.895
121,11 Jun 2027 00:18:38.074,11 Jun 2027 00:31:20.893,762.819
122,11 Jun 2027 01:54:36.326,11 Jun 2027 02:07:27.079,770.753
123,11 Jun 2027 03:30:20.151,11 Jun 2027 03:42:17.545,717.394
124,11 Jun 2027 05:05:34.172,11 Jun 2027 05:16:32.825,658.653
125,11 Jun 2027 06:40:08.309,11 Jun 2027 06:51:01.369,653.060
126,11 Jun 2027 08:14:22.584,11 Jun 2027 08:26:09.181,706.597
127,11 Jun 2027 09:49:04.251,11 Jun 2027 10:01:49.312,765.062
128,11 Jun 2027 11:24:56.080,11 Jun 2027 11:37:46.146,770.066
129,11 Jun 2027 13:02:29.075,11 Jun 2027 13:13:46.211,677.135
130,11 Jun 2027 14:42:19.492,11 Jun 2027 14:49:26.756,427.264
131,11 Jun 2027 21:19:01.589,11 Jun 2027 21:25:55.313,413.724
132,11 Jun 2027 22:54:40.342,11 Jun 2027 23:05:51.856,671.514
133,12 Jun 2027 00:30:40.244,12 Jun 2027 00:43:28.945,768.701
134,12 Jun 2027 02:06:37.417,12 Jun 2027 02:19:23.850,766.433
135,12 Jun 2027 03:42:18.391,12 Jun 2027 03:54:07.353,708.962
136,12 Jun 2027 05:17:27.582,12 Jun 2027 05:28:21.733,654.151
137,12 Jun 2027 06:51:57.300,12 Jun 2027 07:02:54.603,657.302
138,12 Jun 2027 08:26:12.242,12 Jun 2027 08:38:07.286,715.044
139,12 Jun 2027 10:01:00.693,12 Jun 2027 10:13:50.333,769.641
140,12 Jun 2027 11:37:03.681,12 Jun 2027 11:49:48.301,764.620
141,12 Jun 2027 13:14:51.508,12 Jun 2027 13:25:47.694,656.186
142,12 Jun 2027 14:55:04.655,12 Jun 2027 15:01:21.013,376.358
143,12 Jun 2027 21:30:57.486,12 Jun 2027 21:38:37.417,459.932
144,12 Jun 2027 23:06:42.005,12 Jun 2027 23:18:12.761,690.756
145,13 Jun 2027 00:42:42.368,13 Jun 2027 00:55:35.387,773.019
146,13 Jun 2027 02:18:38.261,13 Jun 2027 02:31:19.474,761.212
147,13 Jun 2027 03:54:16.122,13 Jun 2027 04:05:56.683,700.561
148,13 Jun 2027 05:29:20.317,13 Jun 2027 05:40:10.978,650.661
149,13 Jun 2027 07:03:46.018,13 Jun 2027 07:14:48.509,662.491
150,13 Jun 2027 08:38:02.448,13 Jun 2027 08:50:05.870,723.422
151,13 Jun 2027 10:12:58.331,13 Jun 2027 10:25:51.594,773.263
152,13 Jun 2027 11:49:12.938,13 Jun 2027 12:01:50.491,757.553
153,13 Jun 2027 13:27:16.131,13 Jun 2027 13:37:48.882,632.750
154,13 Jun 2027 15:07:55.153,13 Jun 2027 15:13:11.886,316.733
155,13 Jun 2027 21:42:55.008,13 Jun 2027 21:51:15.925,500.917
156,13 Jun 2027 23:18:43.855,13 Jun 2027 23:30:31.618,707.763
