dataset/facility_timing/facility_Facility-Norilsk/Norilsk-To-KinoSat_110908.csv

Acces,Start Time (UTCG),Stop Time (UTCG),Duration (sec)
1,1 Jun 2027 00:00:01.000,1 Jun 2027 00:07:14.240,433.240
2,1 Jun 2027 01:30:07.877,1 Jun 2027 01:41:58.912,711.035
3,1 Jun 2027 03:05:17.472,1 Jun 2027 03:16:13.615,656.143
4,1 Jun 2027 04:39:47.773,1 Jun 2027 04:50:45.904,658.132
5,1 Jun 2027 06:14:02.842,1 Jun 2027 06:25:57.706,714.865
6,1 Jun 2027 07:48:50.657,1 Jun 2027 08:01:40.009,769.352
7,1 Jun 2027 09:24:52.441,1 Jun 2027 09:37:37.395,764.954
8,1 Jun 2027 11:02:38.723,1 Jun 2027 11:13:36.277,657.555
9,1 Jun 2027 12:42:50.189,1 Jun 2027 12:49:09.112,378.923
10,1 Jun 2027 19:18:49.516,1 Jun 2027 19:26:19.995,450.479
11,1 Jun 2027 20:54:32.151,1 Jun 2027 21:05:59.162,687.011
12,1 Jun 2027 22:30:31.898,1 Jun 2027 22:43:24.100,772.202
13,2 Jun 2027 00:06:27.551,2 Jun 2027 00:19:09.905,762.354
14,2 Jun 2027 01:42:05.488,2 Jun 2027 01:53:48.222,702.734
15,2 Jun 2027 03:17:10.156,2 Jun 2027 03:28:02.709,652.553
16,2 Jun 2027 04:51:36.435,2 Jun 2027 05:02:39.564,663.129
17,2 Jun 2027 06:25:52.887,2 Jun 2027 06:37:56.032,723.145
18,2 Jun 2027 08:00:48.019,2 Jun 2027 08:13:41.025,773.006
19,2 Jun 2027 09:37:01.319,2 Jun 2027 09:49:39.352,758.033
20,2 Jun 2027 11:15:02.878,2 Jun 2027 11:25:37.239,634.361
21,2 Jun 2027 12:55:40.068,2 Jun 2027 13:00:59.860,319.792
22,2 Jun 2027 19:30:46.444,2 Jun 2027 19:38:58.894,492.450
23,2 Jun 2027 21:06:33.726,2 Jun 2027 21:18:18.126,704.399
24,2 Jun 2027 22:42:33.730,2 Jun 2027 22:55:29.052,775.322
25,3 Jun 2027 00:18:27.942,3 Jun 2027 00:31:04.492,756.549
26,3 Jun 2027 01:54:02.568,3 Jun 2027 02:05:37.143,694.576
27,3 Jun 2027 03:29:02.178,3 Jun 2027 03:39:52.204,650.025
28,3 Jun 2027 05:03:24.909,3 Jun 2027 05:14:33.893,668.984
29,3 Jun 2027 06:37:43.559,3 Jun 2027 06:49:54.808,731.249
30,3 Jun 2027 08:12:46.627,3 Jun 2027 08:25:42.238,775.610
31,3 Jun 2027 09:49:11.883,3 Jun 2027 10:01:41.306,749.423
32,3 Jun 2027 11:27:29.322,3 Jun 2027 11:37:37.830,608.508
33,3 Jun 2027 13:08:37.878,3 Jun 2027 13:12:44.606,246.728
34,3 Jun 2027 19:42:44.631,3 Jun 2027 19:51:34.575,529.944
35,3 Jun 2027 21:18:35.453,3 Jun 2027 21:30:35.113,719.659
36,3 Jun 2027 22:54:35.472,3 Jun 2027 23:07:32.495,777.023
37,4 Jun 2027 00:30:28.027,4 Jun 2027 00:42:58.076,750.048
38,4 Jun 2027 02:05:59.084,4 Jun 2027 02:17:25.784,686.700
39,4 Jun 2027 03:40:53.573,4 Jun 2027 03:51:42.163,648.590
40,4 Jun 2027 05:15:13.303,4 Jun 2027 05:26:28.868,675.565
41,4 Jun 2027 06:49:34.949,4 Jun 2027 07:01:54.002,739.052
42,4 Jun 2027 08:24:46.534,4 Jun 2027 08:37:43.633,777.099
43,4 Jun 2027 10:01:24.206,4 Jun 2027 10:13:43.236,739.030
44,4 Jun 2027 11:39:58.162,4 Jun 2027 11:49:37.943,579.780
45,4 Jun 2027 13:21:53.075,4 Jun 2027 13:24:13.829,140.754
46,4 Jun 2027 19:54:43.746,4 Jun 2027 20:04:07.375,563.629
47,4 Jun 2027 21:30:37.290,4 Jun 2027 21:42:50.205,732.915
48,4 Jun 2027 23:06:37.090,4 Jun 2027 23:19:34.498,777.408
49,5 Jun 2027 00:42:27.785,5 Jun 2027 00:54:50.725,742.940
50,5 Jun 2027 02:17:55.011,5 Jun 2027 02:29:14.247,679.236
51,5 Jun 2027 03:52:44.356,5 Jun 2027 04:03:32.659,648.303
52,5 Jun 2027 05:27:01.712,5 Jun 2027 05:38:24.474,682.762
53,5 Jun 2027 07:01:27.146,5 Jun 2027 07:13:53.569,746.424
54,5 Jun 2027 08:36:47.800,5 Jun 2027 08:49:45.184,777.383
55,5 Jun 2027 10:13:38.328,5 Jun 2027 10:25:45.116,726.788
56,5 Jun 2027 11:52:29.557,5 Jun 2027 12:01:37.437,547.880
57,5 Jun 2027 18:31:49.529,5 Jun 2027 18:35:08.170,198.641
58,5 Jun 2027 20:06:43.567,5 Jun 2027 20:16:37.518,593.951
59,5 Jun 2027 21:42:39.199,5 Jun 2027 21:55:03.449,744.250
60,5 Jun 2027 23:18:38.573,5 Jun 2027 23:31:35.102,776.529
61,6 Jun 2027 00:54:27.171,6 Jun 2027 01:06:42.525,735.355
62,6 Jun 2027 02:29:50.308,6 Jun 2027 02:41:02.635,672.327
63,6 Jun 2027 04:04:34.588,6 Jun 2027 04:15:23.731,649.143
64,6 Jun 2027 05:38:50.240,6 Jun 2027 05:50:20.686,690.446
65,6 Jun 2027 07:13:20.235,6 Jun 2027 07:25:53.492,753.257
66,6 Jun 2027 08:48:50.489,6 Jun 2027 09:01:46.867,776.378
67,6 Jun 2027 10:25:54.323,6 Jun 2027 10:37:46.902,712.579
68,6 Jun 2027 12:05:03.713,6 Jun 2027 12:13:36.127,512.414
69,6 Jun 2027 18:43:28.565,6 Jun 2027 18:48:12.668,284.103
70,6 Jun 2027 20:18:43.927,6 Jun 2027 20:29:05.185,621.258
71,6 Jun 2027 21:54:41.148,6 Jun 2027 22:07:14.921,753.773
72,6 Jun 2027 23:30:39.880,6 Jun 2027 23:43:34.380,774.500
73,7 Jun 2027 01:06:26.168,7 Jun 2027 01:18:33.557,727.389
74,7 Jun 2027 02:41:44.968,7 Jun 2027 02:52:51.058,666.090
75,7 Jun 2027 04:16:24.307,7 Jun 2027 04:27:15.432,651.125
76,7 Jun 2027 05:50:39.000,7 Jun 2027 06:02:17.481,698.481
77,7 Jun 2027 07:25:14.285,7 Jun 2027 07:37:53.730,759.445
78,7 Jun 2027 09:00:54.655,7 Jun 2027 09:13:48.647,773.993
79,7 Jun 2027 10:38:12.260,7 Jun 2027 10:49:48.557,696.297
80,7 Jun 2027 12:17:40.898,7 Jun 2027 12:25:33.754,472.856
81,7 Jun 2027 18:55:16.716,7 Jun 2027 19:01:06.147,349.431
82,7 Jun 2027 20:30:44.711,7 Jun 2027 20:41:30.509,645.798
83,7 Jun 2027 22:06:43.107,7 Jun 2027 22:19:24.669,761.562
84,7 Jun 2027 23:42:41.001,7 Jun 2027 23:55:32.376,771.375
85,8 Jun 2027 01:18:24.726,8 Jun 2027 01:30:23.920,719.194
86,8 Jun 2027 02:53:38.975,8 Jun 2027 03:04:39.615,660.640
87,8 Jun 2027 04:28:13.593,8 Jun 2027 04:39:07.776,654.182
88,8 Jun 2027 06:02:28.091,8 Jun 2027 06:14:14.822,706.731
89,8 Jun 2027 07:37:09.379,8 Jun 2027 07:49:54.254,764.874
90,8 Jun 2027 09:13:00.342,8 Jun 2027 09:25:50.512,770.170
91,8 Jun 2027 10:50:32.201,8 Jun 2027 11:01:50.036,677.835
92,8 Jun 2027 12:30:21.525,8 Jun 2027 12:37:29.896,428.371
93,8 Jun 2027 19:07:09.277,8 Jun 2027 19:13:53.287,404.010
94,8 Jun 2027 20:42:45.825,8 Jun 2027 20:53:53.608,667.783
95,8 Jun 2027 22:18:45.047,8 Jun 2027 22:31:32.751,767.703
96,8 Jun 2027 23:54:41.901,9 Jun 2027 00:07:29.164,767.263
97,9 Jun 2027 01:30:22.823,9 Jun 2027 01:42:13.703,710.880
98,9 Jun 2027 03:05:32.308,9 Jun 2027 03:16:28.394,656.086
99,9 Jun 2027 04:40:02.520,9 Jun 2027 04:51:00.778,658.258
100,9 Jun 2027 06:14:17.616,9 Jun 2027 06:26:12.678,715.062
101,9 Jun 2027 07:49:05.587,9 Jun 2027 08:01:55.033,769.446
102,9 Jun 2027 09:25:07.620,9 Jun 2027 09:37:52.433,764.813
103,9 Jun 2027 11:02:54.232,9 Jun 2027 11:13:51.284,657.053
104,9 Jun 2027 12:43:06.242,9 Jun 2027 12:49:23.906,377.664
105,9 Jun 2027 19:19:04.476,9 Jun 2027 19:26:35.833,451.357
106,9 Jun 2027 20:54:47.200,9 Jun 2027 21:06:14.580,687.379
107,9 Jun 2027 22:30:46.944,9 Jun 2027 22:43:39.219,772.275
108,10 Jun 2027 00:06:42.560,10 Jun 2027 00:19:24.806,762.246
109,10 Jun 2027 01:42:20.421,10 Jun 2027 01:54:03.000,702.579
110,10 Jun 2027 03:17:24.978,10 Jun 2027 03:28:17.497,652.518
111,10 Jun 2027 04:51:51.178,10 Jun 2027 05:02:54.452,663.274
112,10 Jun 2027 06:26:07.674,10 Jun 2027 06:38:11.011,723.338
113,10 Jun 2027 08:01:02.975,10 Jun 2027 08:13:56.052,773.077
114,10 Jun 2027 09:37:16.533,10 Jun 2027 09:49:54.388,757.855
115,10 Jun 2027 11:15:18.436,10 Jun 2027 11:25:52.236,633.800
116,10 Jun 2027 12:55:56.266,10 Jun 2027 13:01:14.548,318.281
117,10 Jun 2027 19:31:01.430,10 Jun 2027 19:39:14.662,493.232
118,10 Jun 2027 21:06:48.777,10 Jun 2027 21:18:33.501,704.724
119,10 Jun 2027 22:42:48.773,10 Jun 2027 22:55:44.140,775.368
120,11 Jun 2027 00:18:42.943,11 Jun 2027 00:31:19.370,756.427
121,11 Jun 2027 01:54:17.488,11 Jun 2027 02:05:51.915,694.427
122,11 Jun 2027 03:29:16.985,11 Jun 2027 03:40:07.000,650.014
123,11 Jun 2027 05:03:39.648,11 Jun 2027 05:14:48.793,669.145
124,11 Jun 2027 06:37:58.360,11 Jun 2027 06:50:09.796,731.436
125,11 Jun 2027 08:13:01.611,11 Jun 2027 08:25:57.267,775.656
126,11 Jun 2027 09:49:27.134,11 Jun 2027 10:01:56.339,749.205
127,11 Jun 2027 11:27:44.931,11 Jun 2027 11:37:52.814,607.883
128,11 Jun 2027 13:08:54.323,11 Jun 2027 13:12:59.085,244.762
129,11 Jun 2027 19:42:59.636,11 Jun 2027 19:51:50.281,530.645
130,11 Jun 2027 21:18:50.505,11 Jun 2027 21:30:50.447,719.942
131,11 Jun 2027 22:54:50.510,11 Jun 2027 23:07:47.552,777.042
132,12 Jun 2027 00:30:43.019,12 Jun 2027 00:43:12.933,749.914
133,12 Jun 2027 02:06:13.994,12 Jun 2027 02:17:40.550,686.556
134,12 Jun 2027 03:41:08.365,12 Jun 2027 03:51:56.970,648.604
135,12 Jun 2027 05:15:28.040,12 Jun 2027 05:26:43.781,675.740
136,12 Jun 2027 06:49:49.766,12 Jun 2027 07:02:08.996,739.230
137,12 Jun 2027 08:25:01.546,12 Jun 2027 08:37:58.664,777.118
138,12 Jun 2027 10:01:39.495,12 Jun 2027 10:13:58.265,738.770
139,12 Jun 2027 11:40:13.827,12 Jun 2027 11:49:52.911,579.084
140,12 Jun 2027 13:22:10.284,12 Jun 2027 13:24:27.582,137.299
141,12 Jun 2027 19:54:58.764,12 Jun 2027 20:04:23.024,564.259
142,12 Jun 2027 21:30:52.341,12 Jun 2027 21:43:05.494,733.153
143,12 Jun 2027 23:06:52.124,12 Jun 2027 23:19:49.525,777.401
144,13 Jun 2027 00:42:42.768,13 Jun 2027 00:55:05.564,742.796
145,13 Jun 2027 02:18:09.901,13 Jun 2027 02:29:29.011,679.110
146,13 Jun 2027 03:52:59.140,13 Jun 2027 04:03:47.478,648.338
147,13 Jun 2027 05:27:16.451,13 Jun 2027 05:38:39.400,682.948
148,13 Jun 2027 07:01:41.981,13 Jun 2027 07:14:08.570,746.589
149,13 Jun 2027 08:37:02.842,13 Jun 2027 08:50:00.215,777.373
150,13 Jun 2027 10:13:53.657,13 Jun 2027 10:26:00.141,726.484
151,13 Jun 2027 11:52:45.281,13 Jun 2027 12:01:52.385,547.104
152,13 Jun 2027 18:32:04.021,13 Jun 2027 18:35:24.635,200.614
153,13 Jun 2027 20:06:58.596,13 Jun 2027 20:16:53.114,594.518
154,13 Jun 2027 21:42:54.249,13 Jun 2027 21:55:18.705,744.455
155,13 Jun 2027 23:18:53.601,13 Jun 2027 23:31:50.100,776.499
