dataset/facility_timing/facility_Facility-Norilsk/Norilsk-To-KinoSat_110805.csv

Acces,Start Time (UTCG),Stop Time (UTCG),Duration (sec)
1,1 Jun 2027 00:27:11.543,1 Jun 2027 00:39:25.321,733.778
2,1 Jun 2027 02:02:33.746,1 Jun 2027 02:13:44.845,671.099
3,1 Jun 2027 03:37:16.953,1 Jun 2027 03:48:06.603,649.649
4,1 Jun 2027 05:11:32.368,1 Jun 2027 05:23:04.621,692.253
5,1 Jun 2027 06:46:03.450,1 Jun 2027 06:58:38.138,754.688
6,1 Jun 2027 08:21:35.846,1 Jun 2027 08:34:31.806,775.959
7,1 Jun 2027 09:58:42.604,1 Jun 2027 10:10:31.773,709.169
8,1 Jun 2027 11:37:56.068,1 Jun 2027 11:46:20.120,504.052
9,1 Jun 2027 18:16:10.502,1 Jun 2027 18:21:08.907,298.405
10,1 Jun 2027 19:51:28.762,1 Jun 2027 20:01:55.231,626.469
11,1 Jun 2027 21:27:26.190,1 Jun 2027 21:40:01.679,755.489
12,1 Jun 2027 23:03:24.705,1 Jun 2027 23:16:18.645,773.939
13,2 Jun 2027 00:39:10.424,2 Jun 2027 00:51:16.195,725.771
14,2 Jun 2027 02:14:28.248,2 Jun 2027 02:25:33.273,665.025
15,2 Jun 2027 03:49:06.567,2 Jun 2027 03:59:58.415,651.848
16,2 Jun 2027 05:23:21.175,2 Jun 2027 05:35:01.510,700.335
17,2 Jun 2027 06:57:57.709,2 Jun 2027 07:10:38.413,760.704
18,2 Jun 2027 08:33:40.310,2 Jun 2027 08:46:33.582,773.272
19,2 Jun 2027 10:11:00.932,2 Jun 2027 10:22:33.368,692.435
20,2 Jun 2027 11:50:33.928,2 Jun 2027 11:58:17.429,463.501
21,2 Jun 2027 18:27:59.723,2 Jun 2027 18:34:00.848,361.125
22,2 Jun 2027 20:03:29.590,2 Jun 2027 20:14:20.054,650.465
23,2 Jun 2027 21:39:28.115,2 Jun 2027 21:52:11.050,762.935
24,2 Jun 2027 23:15:25.755,2 Jun 2027 23:28:16.368,770.613
25,3 Jun 2027 00:51:08.865,3 Jun 2027 01:03:06.411,717.546
26,3 Jun 2027 02:26:22.094,3 Jun 2027 02:37:21.857,659.763
27,3 Jun 2027 04:00:55.754,3 Jun 2027 04:11:50.882,655.128
28,3 Jun 2027 05:35:10.339,3 Jun 2027 05:46:58.939,708.600
29,3 Jun 2027 07:09:53.016,3 Jun 2027 07:22:38.964,765.948
30,3 Jun 2027 08:45:46.309,3 Jun 2027 08:58:35.433,769.124
31,3 Jun 2027 10:23:21.286,3 Jun 2027 10:34:34.773,673.486
32,3 Jun 2027 12:03:15.346,3 Jun 2027 12:10:13.135,417.789
33,3 Jun 2027 18:39:52.875,3 Jun 2027 18:46:46.928,414.053
34,3 Jun 2027 20:15:30.731,3 Jun 2027 20:26:42.678,671.947
35,3 Jun 2027 21:51:30.025,3 Jun 2027 22:04:18.766,768.741
36,3 Jun 2027 23:27:26.584,3 Jun 2027 23:40:12.896,766.311
37,4 Jun 2027 01:03:06.839,4 Jun 2027 01:14:56.071,709.231
38,4 Jun 2027 02:38:15.271,4 Jun 2027 02:49:10.686,655.415
39,4 Jun 2027 04:12:44.604,4 Jun 2027 04:23:44.011,659.407
40,4 Jun 2027 05:46:59.958,4 Jun 2027 05:58:56.872,716.914
41,4 Jun 2027 07:21:49.453,4 Jun 2027 07:34:39.774,770.320
42,4 Jun 2027 08:57:53.910,4 Jun 2027 09:10:37.335,763.425
43,4 Jun 2027 10:35:43.746,4 Jun 2027 10:46:35.933,652.187
44,4 Jun 2027 12:16:01.056,4 Jun 2027 12:22:06.503,365.447
45,4 Jun 2027 18:51:48.446,4 Jun 2027 18:59:28.629,460.184
46,4 Jun 2027 20:27:32.123,4 Jun 2027 20:39:03.187,691.065
47,4 Jun 2027 22:03:31.877,4 Jun 2027 22:16:24.887,773.010
48,4 Jun 2027 23:39:27.159,4 Jun 2027 23:52:08.290,761.131
49,5 Jun 2027 01:15:04.303,5 Jun 2027 01:26:45.272,700.968
50,5 Jun 2027 02:50:07.779,5 Jun 2027 03:00:59.855,652.077
51,5 Jun 2027 04:24:33.205,5 Jun 2027 04:35:37.801,664.596
52,5 Jun 2027 05:58:50.130,5 Jun 2027 06:10:55.282,725.152
53,5 Jun 2027 07:33:47.086,5 Jun 2027 07:46:40.810,773.724
54,5 Jun 2027 09:10:03.149,5 Jun 2027 09:22:39.265,756.116
55,5 Jun 2027 10:48:08.398,5 Jun 2027 10:58:36.781,628.383
56,5 Jun 2027 12:28:52.479,5 Jun 2027 12:33:56.091,303.612
57,5 Jun 2027 19:03:45.658,5 Jun 2027 19:12:06.739,501.081
58,5 Jun 2027 20:39:33.704,5 Jun 2027 20:51:21.668,707.963
59,5 Jun 2027 22:15:33.662,5 Jun 2027 22:28:29.470,775.809
60,5 Jun 2027 23:51:27.454,6 Jun 2027 00:04:02.624,755.169
61,6 Jun 2027 01:27:01.232,6 Jun 2027 01:38:34.108,692.877
62,6 Jun 2027 03:01:59.639,6 Jun 2027 03:12:49.435,649.796
63,6 Jun 2027 04:36:21.637,6 Jun 2027 04:47:32.256,670.619
64,6 Jun 2027 06:10:40.953,6 Jun 2027 06:22:54.131,733.178
65,6 Jun 2027 07:45:45.971,6 Jun 2027 07:58:42.038,776.067
66,6 Jun 2027 09:22:14.096,6 Jun 2027 09:34:41.186,747.089
67,6 Jun 2027 11:00:35.364,6 Jun 2027 11:10:37.234,601.870
68,6 Jun 2027 12:41:53.025,6 Jun 2027 12:45:38.470,225.446
69,6 Jun 2027 19:15:44.035,6 Jun 2027 19:24:41.715,537.680
70,6 Jun 2027 20:51:35.428,6 Jun 2027 21:03:38.188,722.760
71,6 Jun 2027 22:27:35.348,6 Jun 2027 22:40:32.558,777.209
72,7 Jun 2027 00:03:27.439,7 Jun 2027 00:15:55.974,748.535
73,7 Jun 2027 01:38:57.595,7 Jun 2027 01:50:22.688,685.093
74,7 Jun 2027 03:13:50.874,7 Jun 2027 03:24:39.497,648.623
75,7 Jun 2027 04:48:10.018,7 Jun 2027 04:59:27.360,677.342
76,7 Jun 2027 06:22:32.506,7 Jun 2027 06:34:53.388,740.882
77,7 Jun 2027 07:57:46.172,7 Jun 2027 08:10:43.447,777.275
78,7 Jun 2027 09:34:26.809,7 Jun 2027 09:46:43.076,736.266
79,7 Jun 2027 11:13:04.761,7 Jun 2027 11:22:37.181,572.420
80,7 Jun 2027 12:55:18.407,7 Jun 2027 12:56:57.885,99.479
81,7 Jun 2027 17:53:27.640,7 Jun 2027 17:54:54.252,86.612
82,7 Jun 2027 19:27:43.282,7 Jun 2027 19:37:13.869,570.586
83,7 Jun 2027 21:03:37.252,7 Jun 2027 21:15:52.830,735.578
84,7 Jun 2027 22:39:36.907,7 Jun 2027 22:52:34.218,777.311
85,8 Jun 2027 00:15:27.088,8 Jun 2027 00:27:48.407,741.318
86,8 Jun 2027 01:50:53.354,8 Jun 2027 02:02:11.114,677.761
87,8 Jun 2027 03:25:41.510,8 Jun 2027 03:36:30.108,648.598
88,8 Jun 2027 04:59:58.436,8 Jun 2027 05:11:23.085,684.650
89,8 Jun 2027 06:34:24.888,8 Jun 2027 06:46:53.013,748.125
90,8 Jun 2027 08:09:47.747,8 Jun 2027 08:22:44.996,777.249
91,8 Jun 2027 09:46:41.337,8 Jun 2027 09:58:44.904,723.567
92,8 Jun 2027 11:25:36.752,8 Jun 2027 11:34:36.467,539.715
93,8 Jun 2027 18:04:43.422,8 Jun 2027 18:08:23.370,219.948
94,8 Jun 2027 19:39:43.202,8 Jun 2027 19:49:43.408,600.206
95,8 Jun 2027 21:15:39.144,8 Jun 2027 21:28:05.640,746.496
96,8 Jun 2027 22:51:38.324,8 Jun 2027 23:04:34.494,776.170
97,9 Jun 2027 00:27:26.359,9 Jun 2027 00:39:40.013,733.654
98,9 Jun 2027 02:02:48.483,9 Jun 2027 02:13:59.490,671.006
99,9 Jun 2027 03:37:31.601,9 Jun 2027 03:48:21.305,649.705
100,9 Jun 2027 05:11:46.996,9 Jun 2027 05:23:19.407,692.411
101,9 Jun 2027 06:46:18.181,9 Jun 2027 06:58:52.979,754.799
102,9 Jun 2027 08:21:50.747,9 Jun 2027 08:34:46.673,775.925
103,9 Jun 2027 09:58:57.748,9 Jun 2027 10:10:46.633,708.885
104,9 Jun 2027 11:38:11.563,9 Jun 2027 11:46:34.894,503.331
105,9 Jun 2027 18:16:25.165,9 Jun 2027 18:21:24.667,299.502
106,9 Jun 2027 19:51:43.631,9 Jun 2027 20:02:10.509,626.879
107,9 Jun 2027 21:27:41.065,9 Jun 2027 21:40:16.686,755.622
108,9 Jun 2027 23:03:39.562,9 Jun 2027 23:16:33.459,773.897
109,10 Jun 2027 00:39:25.235,10 Jun 2027 00:51:30.875,725.640
110,10 Jun 2027 02:14:42.972,10 Jun 2027 02:25:47.922,664.950
111,10 Jun 2027 03:49:21.204,10 Jun 2027 04:00:13.131,651.928
112,10 Jun 2027 05:23:35.812,10 Jun 2027 05:35:16.308,700.496
113,10 Jun 2027 06:58:12.450,10 Jun 2027 07:10:53.262,760.812
114,10 Jun 2027 08:33:55.241,10 Jun 2027 08:46:48.448,773.207
115,10 Jun 2027 10:11:16.117,10 Jun 2027 10:22:48.219,692.102
116,10 Jun 2027 11:50:49.482,10 Jun 2027 11:58:32.175,462.693
117,10 Jun 2027 18:28:14.460,10 Jun 2027 18:34:16.492,362.032
118,10 Jun 2027 20:03:44.461,10 Jun 2027 20:14:35.293,650.832
119,10 Jun 2027 21:39:42.991,10 Jun 2027 21:52:26.033,763.041
120,10 Jun 2027 23:15:40.607,10 Jun 2027 23:28:31.157,770.550
121,11 Jun 2027 00:51:23.663,11 Jun 2027 01:03:21.081,717.418
122,11 Jun 2027 02:26:36.806,11 Jun 2027 02:37:36.510,659.704
123,11 Jun 2027 04:01:10.388,11 Jun 2027 04:12:05.607,655.220
124,11 Jun 2027 05:35:24.983,11 Jun 2027 05:47:13.745,708.762
125,11 Jun 2027 07:10:07.779,11 Jun 2027 07:22:53.816,766.038
126,11 Jun 2027 08:46:01.267,11 Jun 2027 08:58:50.299,769.032
127,11 Jun 2027 10:23:36.507,11 Jun 2027 10:34:49.618,673.111
128,11 Jun 2027 12:03:30.972,11 Jun 2027 12:10:27.841,416.868
129,11 Jun 2027 18:40:07.657,11 Jun 2027 18:47:02.492,414.836
130,11 Jun 2027 20:15:45.606,11 Jun 2027 20:26:57.879,672.274
131,11 Jun 2027 21:51:44.899,11 Jun 2027 22:04:33.720,768.821
132,11 Jun 2027 23:27:41.430,11 Jun 2027 23:40:27.665,766.234
133,12 Jun 2027 01:03:21.627,12 Jun 2027 01:15:10.732,709.104
134,12 Jun 2027 02:38:29.969,12 Jun 2027 02:49:25.344,655.375
135,12 Jun 2027 04:12:59.232,12 Jun 2027 04:23:58.747,659.515
136,12 Jun 2027 05:47:14.611,12 Jun 2027 05:59:11.685,717.075
137,12 Jun 2027 07:22:04.236,12 Jun 2027 07:34:54.629,770.393
138,12 Jun 2027 08:58:08.896,12 Jun 2027 09:10:52.199,763.303
139,12 Jun 2027 10:35:59.005,12 Jun 2027 10:46:50.770,651.765
140,12 Jun 2027 12:16:16.775,12 Jun 2027 12:22:21.149,364.373
141,12 Jun 2027 18:52:03.257,12 Jun 2027 18:59:44.129,460.872
142,12 Jun 2027 20:27:46.999,12 Jun 2027 20:39:18.353,691.354
143,12 Jun 2027 22:03:46.749,12 Jun 2027 22:16:39.815,773.066
144,12 Jun 2027 23:39:41.999,12 Jun 2027 23:52:23.040,761.041
145,13 Jun 2027 01:15:19.080,13 Jun 2027 01:26:59.926,700.845
146,13 Jun 2027 02:50:22.464,13 Jun 2027 03:01:14.520,652.056
147,13 Jun 2027 04:24:47.828,13 Jun 2027 04:35:52.548,664.720
148,13 Jun 2027 05:59:04.793,13 Jun 2027 06:11:10.103,725.310
149,13 Jun 2027 07:34:01.890,13 Jun 2027 07:46:55.667,773.777
150,13 Jun 2027 09:10:18.166,13 Jun 2027 09:22:54.127,755.962
151,13 Jun 2027 10:48:23.698,13 Jun 2027 10:58:51.609,627.911
152,13 Jun 2027 12:29:08.332,13 Jun 2027 12:34:10.635,302.303
153,13 Jun 2027 19:04:00.489,13 Jun 2027 19:12:22.183,501.694
154,13 Jun 2027 20:39:48.582,13 Jun 2027 20:51:36.799,708.217
155,13 Jun 2027 22:15:48.531,13 Jun 2027 22:28:44.371,775.840
156,13 Jun 2027 23:51:42.288,14 Jun 2027 00:00:01.000,498.712
