dataset/facility_timing/facility_Facility-Norilsk/Norilsk-To-KinoSat_110405.csv

Acces,Start Time (UTCG),Stop Time (UTCG),Duration (sec)
1,1 Jun 2027 00:43:23.789,1 Jun 2027 00:54:14.119,650.331
2,1 Jun 2027 02:17:46.379,1 Jun 2027 02:28:56.038,669.659
3,1 Jun 2027 03:52:05.244,1 Jun 2027 04:04:17.094,731.851
4,1 Jun 2027 05:27:08.797,1 Jun 2027 05:40:04.540,775.743
5,1 Jun 2027 07:03:34.756,1 Jun 2027 07:16:03.513,748.757
6,1 Jun 2027 08:41:53.157,1 Jun 2027 08:51:59.762,606.604
7,1 Jun 2027 10:23:04.347,1 Jun 2027 10:27:04.661,240.314
8,1 Jun 2027 16:57:07.181,1 Jun 2027 17:05:58.165,530.984
9,1 Jun 2027 18:32:57.907,1 Jun 2027 18:44:58.005,720.099
10,1 Jun 2027 20:08:57.782,1 Jun 2027 20:21:54.817,777.034
11,1 Jun 2027 21:44:50.139,1 Jun 2027 21:57:19.998,749.859
12,1 Jun 2027 23:20:20.928,1 Jun 2027 23:31:47.559,686.631
13,2 Jun 2027 00:55:15.115,2 Jun 2027 01:06:04.070,648.955
14,2 Jun 2027 02:29:34.751,2 Jun 2027 02:40:50.998,676.248
15,2 Jun 2027 04:03:56.643,2 Jun 2027 04:16:16.251,739.608
16,2 Jun 2027 05:39:08.740,2 Jun 2027 05:52:05.879,777.140
17,2 Jun 2027 07:15:47.119,2 Jun 2027 07:28:05.375,738.256
18,2 Jun 2027 08:54:22.074,2 Jun 2027 09:03:59.767,577.693
19,2 Jun 2027 10:36:22.040,2 Jun 2027 10:38:31.349,129.309
20,2 Jun 2027 17:09:06.237,2 Jun 2027 17:18:30.791,564.554
21,2 Jun 2027 18:44:59.678,2 Jun 2027 18:57:12.957,733.279
22,2 Jun 2027 20:20:59.332,2 Jun 2027 20:33:56.713,777.381
23,2 Jun 2027 21:56:49.824,2 Jun 2027 22:09:12.576,742.751
24,2 Jun 2027 23:32:16.773,2 Jun 2027 23:43:35.991,679.218
25,3 Jun 2027 01:07:05.845,3 Jun 2027 01:17:54.558,648.713
26,3 Jun 2027 02:41:23.142,3 Jun 2027 02:52:46.585,683.443
27,3 Jun 2027 04:15:48.855,3 Jun 2027 04:28:15.778,746.923
28,3 Jun 2027 05:51:10.038,3 Jun 2027 06:04:07.375,777.336
29,3 Jun 2027 07:28:01.283,3 Jun 2027 07:40:07.184,725.901
30,3 Jun 2027 09:06:53.552,3 Jun 2027 09:15:59.145,545.593
31,3 Jun 2027 15:46:11.615,3 Jun 2027 15:49:32.530,200.915
32,3 Jun 2027 17:21:05.997,3 Jun 2027 17:31:00.766,594.770
33,3 Jun 2027 18:57:01.523,3 Jun 2027 19:09:26.072,744.549
34,3 Jun 2027 20:33:00.742,3 Jun 2027 20:45:57.214,776.472
35,3 Jun 2027 22:08:49.141,3 Jun 2027 22:21:04.307,735.166
36,3 Jun 2027 23:44:11.997,3 Jun 2027 23:55:24.353,672.356
37,4 Jun 2027 01:18:56.011,4 Jun 2027 01:29:45.624,649.612
38,4 Jun 2027 02:53:11.656,4 Jun 2027 03:04:42.775,691.119
39,4 Jun 2027 04:27:41.958,4 Jun 2027 04:40:15.654,753.696
40,4 Jun 2027 06:03:12.754,4 Jun 2027 06:16:09.002,776.248
41,4 Jun 2027 07:40:17.319,4 Jun 2027 07:52:08.899,711.580
42,4 Jun 2027 09:19:27.806,4 Jun 2027 09:27:57.703,509.898
43,4 Jun 2027 15:57:50.847,4 Jun 2027 16:02:36.597,285.750
44,4 Jun 2027 17:33:06.301,4 Jun 2027 17:43:28.280,621.978
45,4 Jun 2027 19:09:03.407,4 Jun 2027 19:21:37.414,754.007
46,4 Jun 2027 20:45:01.984,4 Jun 2027 20:57:56.397,774.412
47,4 Jun 2027 22:20:48.060,4 Jun 2027 22:32:55.282,727.222
48,4 Jun 2027 23:56:06.580,5 Jun 2027 00:07:12.750,666.170
49,5 Jun 2027 01:30:45.684,5 Jun 2027 01:41:37.311,651.627
50,5 Jun 2027 03:05:00.407,5 Jun 2027 03:16:39.541,699.134
51,5 Jun 2027 04:39:36.030,5 Jun 2027 04:52:15.851,759.821
52,5 Jun 2027 06:15:16.950,5 Jun 2027 06:28:10.725,773.775
53,5 Jun 2027 07:52:35.297,5 Jun 2027 08:04:10.480,695.183
54,5 Jun 2027 09:32:05.103,5 Jun 2027 09:39:55.176,470.073
55,5 Jun 2027 16:09:39.030,5 Jun 2027 16:15:29.813,350.783
56,5 Jun 2027 17:45:07.023,5 Jun 2027 17:55:53.452,646.429
57,5 Jun 2027 19:21:05.300,5 Jun 2027 19:33:47.040,761.740
58,5 Jun 2027 20:57:03.037,5 Jun 2027 21:09:54.302,771.265
59,5 Jun 2027 22:32:46.544,5 Jun 2027 22:44:45.590,719.047
60,6 Jun 2027 00:08:00.515,6 Jun 2027 00:19:01.290,660.775
61,6 Jun 2027 01:42:34.926,6 Jun 2027 01:53:29.644,654.718
62,6 Jun 2027 03:16:49.494,6 Jun 2027 03:28:36.853,707.359
63,6 Jun 2027 04:51:31.143,6 Jun 2027 05:04:16.325,765.181
64,6 Jun 2027 06:27:22.666,6 Jun 2027 06:40:12.532,769.866
65,6 Jun 2027 08:04:55.280,6 Jun 2027 08:16:11.883,676.603
66,6 Jun 2027 09:44:45.876,6 Jun 2027 09:51:51.129,425.253
67,6 Jun 2027 16:21:31.576,6 Jun 2027 16:28:16.750,405.174
68,6 Jun 2027 17:57:08.075,6 Jun 2027 18:08:16.405,668.330
69,6 Jun 2027 19:33:07.175,6 Jun 2027 19:45:55.006,767.830
70,6 Jun 2027 21:09:03.868,6 Jun 2027 21:21:51.005,767.137
71,6 Jun 2027 22:44:44.567,6 Jun 2027 22:56:35.324,710.757
72,7 Jun 2027 00:19:53.778,7 Jun 2027 00:30:50.052,656.274
73,7 Jun 2027 01:54:23.813,7 Jun 2027 02:05:22.632,658.819
74,7 Jun 2027 03:28:39.018,7 Jun 2027 03:40:34.676,715.658
75,7 Jun 2027 05:03:27.371,7 Jun 2027 05:16:17.060,769.690
76,7 Jun 2027 06:39:29.972,7 Jun 2027 06:52:14.392,764.420
77,7 Jun 2027 08:17:17.353,7 Jun 2027 08:28:13.051,655.698
78,7 Jun 2027 09:57:30.794,7 Jun 2027 10:03:44.890,374.096
79,7 Jun 2027 16:33:26.736,7 Jun 2027 16:40:59.113,452.377
80,7 Jun 2027 18:09:09.389,7 Jun 2027 18:20:37.238,687.850
81,7 Jun 2027 19:45:09.007,7 Jun 2027 19:58:01.363,772.356
82,7 Jun 2027 21:21:04.458,7 Jun 2027 21:33:46.566,762.108
83,7 Jun 2027 22:56:42.093,7 Jun 2027 23:08:24.577,702.485
84,8 Jun 2027 00:31:46.381,8 Jun 2027 00:42:39.139,652.758
85,8 Jun 2027 02:06:12.436,8 Jun 2027 02:17:16.290,663.854
86,8 Jun 2027 03:40:29.077,8 Jun 2027 03:52:32.975,723.897
87,8 Jun 2027 05:15:24.779,8 Jun 2027 05:28:18.028,773.249
88,8 Jun 2027 06:51:38.912,8 Jun 2027 07:04:16.286,757.374
89,8 Jun 2027 08:29:41.601,8 Jun 2027 08:40:13.918,632.317
90,8 Jun 2027 10:10:21.130,8 Jun 2027 10:15:35.168,314.038
91,8 Jun 2027 16:45:23.644,8 Jun 2027 16:53:37.773,494.129
92,8 Jun 2027 18:21:10.902,8 Jun 2027 18:32:56.026,705.124
93,8 Jun 2027 19:57:10.769,8 Jun 2027 20:10:06.178,775.409
94,8 Jun 2027 21:33:04.772,8 Jun 2027 21:45:41.056,756.284
95,8 Jun 2027 23:08:39.086,8 Jun 2027 23:20:13.453,694.367
96,9 Jun 2027 00:43:38.326,9 Jun 2027 00:54:28.629,650.303
97,9 Jun 2027 02:18:00.877,9 Jun 2027 02:29:10.612,669.734
98,9 Jun 2027 03:52:19.768,9 Jun 2027 04:04:31.722,731.954
99,9 Jun 2027 05:27:23.433,9 Jun 2027 05:40:19.192,775.759
100,9 Jun 2027 07:03:49.542,9 Jun 2027 07:16:18.175,748.633
101,9 Jun 2027 08:42:08.143,9 Jun 2027 08:52:14.406,606.263
102,9 Jun 2027 10:23:19.791,9 Jun 2027 10:27:19.044,239.254
103,9 Jun 2027 16:57:21.801,9 Jun 2027 17:06:13.233,531.432
104,9 Jun 2027 18:33:12.567,9 Jun 2027 18:45:12.843,720.277
105,9 Jun 2027 20:09:12.442,9 Jun 2027 20:22:09.489,777.048
106,9 Jun 2027 21:45:04.778,9 Jun 2027 21:57:34.550,749.772
107,9 Jun 2027 23:20:35.520,9 Jun 2027 23:32:02.054,686.533
108,10 Jun 2027 00:55:29.646,10 Jun 2027 01:06:18.586,648.940
109,10 Jun 2027 02:29:49.246,10 Jun 2027 02:41:05.577,676.332
110,10 Jun 2027 04:04:11.180,10 Jun 2027 04:16:30.881,739.701
111,10 Jun 2027 05:39:23.387,10 Jun 2027 05:52:20.536,777.149
112,10 Jun 2027 07:16:01.924,10 Jun 2027 07:28:20.039,738.114
113,10 Jun 2027 08:54:37.090,10 Jun 2027 09:04:14.406,577.316
114,10 Jun 2027 10:36:37.943,10 Jun 2027 10:38:45.293,127.350
115,10 Jun 2027 15:35:38.839,10 Jun 2027 15:35:49.997,11.159
116,10 Jun 2027 17:09:20.867,10 Jun 2027 17:18:45.824,564.957
117,10 Jun 2027 18:45:14.340,10 Jun 2027 18:57:27.768,733.428
118,10 Jun 2027 20:21:13.990,10 Jun 2027 20:34:11.367,777.377
119,10 Jun 2027 21:57:04.458,10 Jun 2027 22:09:27.116,742.658
120,10 Jun 2027 23:32:31.357,10 Jun 2027 23:43:50.484,679.127
121,11 Jun 2027 01:07:20.365,11 Jun 2027 01:18:09.081,648.716
122,11 Jun 2027 02:41:37.637,11 Jun 2027 02:53:01.172,683.535
123,11 Jun 2027 04:16:03.402,11 Jun 2027 04:28:30.414,747.011
124,11 Jun 2027 05:51:24.703,11 Jun 2027 06:04:22.034,777.330
125,11 Jun 2027 07:28:16.111,11 Jun 2027 07:40:21.846,725.735
126,11 Jun 2027 09:07:08.602,11 Jun 2027 09:16:13.774,545.172
127,11 Jun 2027 15:46:25.888,11 Jun 2027 15:49:48.089,202.200
128,11 Jun 2027 17:21:20.636,11 Jun 2027 17:31:15.766,595.130
129,11 Jun 2027 18:57:16.185,11 Jun 2027 19:09:40.865,744.679
130,11 Jun 2027 20:33:15.398,11 Jun 2027 20:46:11.851,776.453
131,11 Jun 2027 22:09:03.769,11 Jun 2027 22:21:18.837,735.068
132,11 Jun 2027 23:44:26.573,11 Jun 2027 23:55:38.846,672.273
133,12 Jun 2027 01:19:10.524,12 Jun 2027 01:30:00.154,649.630
134,12 Jun 2027 02:53:26.153,12 Jun 2027 03:04:57.370,691.217
135,12 Jun 2027 04:27:56.517,12 Jun 2027 04:40:30.293,753.776
136,12 Jun 2027 06:03:27.437,12 Jun 2027 06:16:23.663,776.226
137,12 Jun 2027 07:40:32.171,12 Jun 2027 07:52:23.559,711.388
138,12 Jun 2027 09:19:42.892,12 Jun 2027 09:28:12.318,509.426
139,12 Jun 2027 15:58:05.298,12 Jun 2027 16:02:51.954,286.655
140,12 Jun 2027 17:33:20.947,12 Jun 2027 17:43:43.248,622.301
141,12 Jun 2027 19:09:18.069,12 Jun 2027 19:21:52.184,754.114
142,12 Jun 2027 20:45:16.638,12 Jun 2027 20:58:11.018,774.380
143,12 Jun 2027 22:21:02.682,12 Jun 2027 22:33:09.804,727.121
144,12 Jun 2027 23:56:21.147,13 Jun 2027 00:07:27.245,666.098
145,13 Jun 2027 01:31:00.191,13 Jun 2027 01:41:51.851,651.660
146,13 Jun 2027 03:05:14.907,13 Jun 2027 03:16:54.144,699.237
147,13 Jun 2027 04:39:50.601,13 Jun 2027 04:52:30.494,759.893
148,13 Jun 2027 06:15:31.651,13 Jun 2027 06:28:25.386,773.735
149,13 Jun 2027 07:52:50.174,13 Jun 2027 08:04:25.138,694.964
150,13 Jun 2027 09:32:20.232,13 Jun 2027 09:40:09.773,469.542
151,13 Jun 2027 16:09:53.557,13 Jun 2027 16:15:45.071,351.514
152,13 Jun 2027 17:45:21.675,13 Jun 2027 17:56:08.391,646.716
153,13 Jun 2027 19:21:19.963,13 Jun 2027 19:34:01.789,761.826
154,13 Jun 2027 20:57:17.687,13 Jun 2027 21:10:08.907,771.220
155,13 Jun 2027 22:33:01.160,13 Jun 2027 22:45:00.105,718.944
