dataset/facility_timing/facility_Facility-Norilsk/Norilsk-To-KinoSat_111209.csv

Acces,Start Time (UTCG),Stop Time (UTCG),Duration (sec)
1,1 Jun 2027 01:09:03.067,1 Jun 2027 01:21:52.694,769.627
2,1 Jun 2027 02:44:45.871,1 Jun 2027 02:56:41.059,715.188
3,1 Jun 2027 04:19:58.302,1 Jun 2027 04:30:56.086,657.784
4,1 Jun 2027 05:54:31.033,1 Jun 2027 06:05:25.943,654.910
5,1 Jun 2027 07:28:45.538,1 Jun 2027 07:40:35.179,709.641
6,1 Jun 2027 09:03:29.365,1 Jun 2027 09:16:16.076,766.712
7,1 Jun 2027 10:39:24.726,1 Jun 2027 10:52:13.094,768.367
8,1 Jun 2027 12:17:02.443,1 Jun 2027 12:28:12.721,670.278
9,1 Jun 2027 13:57:00.205,1 Jun 2027 14:03:50.661,410.456
10,1 Jun 2027 20:33:27.417,1 Jun 2027 20:40:34.326,426.909
11,1 Jun 2027 22:09:07.559,1 Jun 2027 22:20:24.654,677.095
12,1 Jun 2027 23:45:07.377,1 Jun 2027 23:57:57.407,770.030
13,2 Jun 2027 01:21:03.988,2 Jun 2027 01:33:49.053,765.066
14,2 Jun 2027 02:56:43.871,2 Jun 2027 03:08:30.673,706.802
15,2 Jun 2027 04:31:51.437,2 Jun 2027 04:42:45.046,653.609
16,2 Jun 2027 06:06:19.890,2 Jun 2027 06:17:19.318,659.428
17,2 Jun 2027 07:40:35.319,2 Jun 2027 07:52:33.346,718.027
18,2 Jun 2027 09:15:26.119,2 Jun 2027 09:28:17.080,770.961
19,2 Jun 2027 10:51:32.767,2 Jun 2027 11:04:15.159,762.392
20,2 Jun 2027 12:29:25.466,2 Jun 2027 12:40:14.003,648.537
21,2 Jun 2027 14:09:46.879,2 Jun 2027 14:15:43.796,356.918
22,2 Jun 2027 20:45:23.682,2 Jun 2027 20:53:15.241,471.559
23,2 Jun 2027 22:21:09.171,2 Jun 2027 22:32:44.843,695.672
24,2 Jun 2027 23:57:09.376,3 Jun 2027 00:10:03.301,773.925
25,3 Jun 2027 01:33:04.654,3 Jun 2027 01:45:44.290,759.636
26,3 Jun 2027 03:08:41.354,3 Jun 2027 03:20:19.841,698.486
27,3 Jun 2027 04:43:43.904,3 Jun 2027 04:54:34.365,650.460
28,3 Jun 2027 06:18:08.504,3 Jun 2027 06:29:13.361,664.857
29,3 Jun 2027 07:52:25.675,3 Jun 2027 08:04:31.987,726.312
30,3 Jun 2027 09:27:24.090,3 Jun 2027 09:40:18.305,774.215
31,3 Jun 2027 11:03:42.466,3 Jun 2027 11:16:17.248,754.782
32,3 Jun 2027 12:41:50.706,3 Jun 2027 12:52:14.967,624.260
33,3 Jun 2027 14:22:39.576,3 Jun 2027 14:27:32.847,293.271
34,3 Jun 2027 20:57:21.434,3 Jun 2027 21:05:52.707,511.273
35,3 Jun 2027 22:33:10.960,3 Jun 2027 22:45:03.011,712.051
36,4 Jun 2027 00:09:11.297,4 Jun 2027 00:22:07.648,776.351
37,4 Jun 2027 01:45:05.025,4 Jun 2027 01:57:38.479,753.454
38,4 Jun 2027 03:20:38.289,4 Jun 2027 03:32:08.665,690.376
39,4 Jun 2027 04:55:35.718,4 Jun 2027 05:06:24.115,648.397
40,4 Jun 2027 06:29:56.971,4 Jun 2027 06:41:08.065,671.093
41,4 Jun 2027 08:04:16.706,4 Jun 2027 08:16:31.062,734.356
42,4 Jun 2027 09:39:23.333,4 Jun 2027 09:52:19.725,776.391
43,4 Jun 2027 11:15:53.892,4 Jun 2027 11:28:19.324,745.432
44,4 Jun 2027 12:54:18.289,4 Jun 2027 13:04:15.513,597.224
45,4 Jun 2027 14:35:42.301,4 Jun 2027 14:39:13.776,211.475
46,4 Jun 2027 21:09:20.262,4 Jun 2027 21:18:27.128,546.865
47,4 Jun 2027 22:45:12.875,4 Jun 2027 22:57:19.235,726.359
48,5 Jun 2027 00:21:13.108,5 Jun 2027 00:34:10.515,777.407
49,5 Jun 2027 01:57:05.084,5 Jun 2027 02:09:31.686,746.602
50,5 Jun 2027 03:32:34.646,5 Jun 2027 03:43:57.261,682.615
51,5 Jun 2027 05:07:26.905,5 Jun 2027 05:18:14.370,647.465
52,5 Jun 2027 06:41:45.407,5 Jun 2027 06:53:03.422,678.014
53,5 Jun 2027 08:16:08.490,5 Jun 2027 08:28:30.543,742.053
54,5 Jun 2027 09:51:23.908,5 Jun 2027 10:04:21.318,777.410
55,5 Jun 2027 11:28:07.104,5 Jun 2027 11:40:21.366,734.262
56,5 Jun 2027 13:06:48.330,5 Jun 2027 13:16:15.537,567.207
57,5 Jun 2027 14:49:19.358,5 Jun 2027 14:50:22.247,62.889
58,5 Jun 2027 19:46:44.031,5 Jun 2027 19:49:02.730,138.699
59,5 Jun 2027 21:21:19.893,5 Jun 2027 21:30:58.788,578.895
60,5 Jun 2027 22:57:14.882,5 Jun 2027 23:09:33.582,738.699
61,6 Jun 2027 00:33:14.787,6 Jun 2027 00:46:11.959,777.172
62,6 Jun 2027 02:09:04.794,6 Jun 2027 02:21:23.992,739.197
63,6 Jun 2027 03:44:30.389,6 Jun 2027 03:55:45.724,675.336
64,6 Jun 2027 05:19:17.497,6 Jun 2027 05:30:05.190,647.693
65,6 Jun 2027 06:53:33.902,6 Jun 2027 07:04:59.402,685.500
66,6 Jun 2027 08:28:01.126,6 Jun 2027 08:40:30.385,749.258
67,6 Jun 2027 10:03:25.882,6 Jun 2027 10:16:23.047,777.165
68,6 Jun 2027 11:40:22.152,6 Jun 2027 11:52:23.339,721.187
69,6 Jun 2027 13:19:21.010,6 Jun 2027 13:28:14.876,533.866
70,6 Jun 2027 19:58:13.090,6 Jun 2027 20:02:18.496,245.406
71,6 Jun 2027 21:33:20.133,6 Jun 2027 21:43:27.877,607.744
72,6 Jun 2027 23:09:16.945,6 Jun 2027 23:21:46.104,749.159
73,7 Jun 2027 00:45:16.318,7 Jun 2027 00:58:12.022,775.704
74,7 Jun 2027 02:21:04.116,7 Jun 2027 02:33:15.488,731.372
75,7 Jun 2027 03:56:25.491,7 Jun 2027 04:07:34.160,668.668
76,7 Jun 2027 05:31:07.550,7 Jun 2027 05:41:56.612,649.062
77,7 Jun 2027 07:05:22.563,7 Jun 2027 07:16:55.977,693.414
78,7 Jun 2027 08:39:54.696,7 Jun 2027 08:52:30.566,755.870
79,7 Jun 2027 10:15:29.299,7 Jun 2027 10:28:24.904,775.605
80,7 Jun 2027 11:52:39.101,7 Jun 2027 12:04:25.210,706.109
81,7 Jun 2027 13:31:56.557,7 Jun 2027 13:40:13.324,496.767
82,7 Jun 2027 20:09:57.914,7 Jun 2027 20:15:16.612,318.697
83,7 Jun 2027 21:45:20.855,7 Jun 2027 21:55:54.559,633.703
84,7 Jun 2027 23:21:19.035,7 Jun 2027 23:33:56.876,757.841
85,8 Jun 2027 00:57:17.662,8 Jun 2027 01:10:10.776,773.114
86,8 Jun 2027 02:33:03.033,8 Jun 2027 02:45:06.254,723.222
87,8 Jun 2027 04:08:19.943,8 Jun 2027 04:19:22.679,662.736
88,8 Jun 2027 05:42:57.128,8 Jun 2027 05:53:48.673,651.544
89,8 Jun 2027 07:17:11.504,8 Jun 2027 07:28:53.130,701.626
90,8 Jun 2027 08:51:49.267,8 Jun 2027 09:04:31.057,761.790
91,8 Jun 2027 10:27:34.229,8 Jun 2027 10:40:26.847,772.618
92,8 Jun 2027 12:04:58.032,8 Jun 2027 12:16:26.930,688.898
93,8 Jun 2027 13:44:35.276,8 Jun 2027 13:52:10.557,455.281
94,8 Jun 2027 20:21:48.788,8 Jun 2027 20:28:06.757,377.970
95,8 Jun 2027 21:57:21.955,8 Jun 2027 22:08:18.946,656.992
96,8 Jun 2027 23:33:21.112,8 Jun 2027 23:46:05.943,764.830
97,9 Jun 2027 01:09:18.804,9 Jun 2027 01:22:08.280,769.476
98,9 Jun 2027 02:45:01.490,9 Jun 2027 02:56:56.381,714.892
99,9 Jun 2027 04:20:13.730,9 Jun 2027 04:31:11.375,657.645
100,9 Jun 2027 05:54:46.290,9 Jun 2027 06:05:41.396,655.106
101,9 Jun 2027 07:29:00.823,9 Jun 2027 07:40:50.815,709.991
102,9 Jun 2027 09:03:44.914,9 Jun 2027 09:16:31.816,766.901
103,9 Jun 2027 10:39:40.711,9 Jun 2027 10:52:28.866,768.155
104,9 Jun 2027 12:17:19.007,9 Jun 2027 12:28:28.450,669.443
105,9 Jun 2027 13:57:17.668,9 Jun 2027 14:04:06.086,408.419
106,9 Jun 2027 20:33:42.999,9 Jun 2027 20:40:51.622,428.623
107,9 Jun 2027 22:09:23.341,9 Jun 2027 22:20:41.155,677.814
108,9 Jun 2027 23:45:23.162,9 Jun 2027 23:58:13.359,770.197
109,10 Jun 2027 01:21:19.713,10 Jun 2027 01:34:04.595,764.882
110,10 Jun 2027 02:56:59.469,10 Jun 2027 03:08:45.977,706.508
111,10 Jun 2027 04:32:06.838,10 Jun 2027 04:43:00.348,653.510
112,10 Jun 2027 06:06:35.136,10 Jun 2027 06:17:34.796,659.660
113,10 Jun 2027 07:40:50.624,10 Jun 2027 07:52:48.998,718.374
114,10 Jun 2027 09:15:41.715,10 Jun 2027 09:28:32.828,771.113
115,10 Jun 2027 10:51:48.815,10 Jun 2027 11:04:30.929,762.115
116,10 Jun 2027 12:29:42.115,10 Jun 2027 12:40:29.719,647.604
117,10 Jun 2027 14:10:04.549,10 Jun 2027 14:15:59.088,354.539
118,10 Jun 2027 20:45:39.323,10 Jun 2027 20:53:32.402,473.079
119,10 Jun 2027 22:21:24.957,10 Jun 2027 22:33:01.265,696.309
120,10 Jun 2027 23:57:25.156,11 Jun 2027 00:10:19.194,774.037
121,11 Jun 2027 01:33:20.367,11 Jun 2027 01:45:59.790,759.423
122,11 Jun 2027 03:08:56.930,11 Jun 2027 03:20:35.130,698.200
123,11 Jun 2027 04:43:59.279,11 Jun 2027 04:54:49.682,650.403
124,11 Jun 2027 06:18:23.742,11 Jun 2027 06:29:28.864,665.122
125,11 Jun 2027 07:52:41.004,11 Jun 2027 08:04:47.655,726.650
126,11 Jun 2027 09:27:39.734,11 Jun 2027 09:40:34.057,774.322
127,11 Jun 2027 11:03:58.579,11 Jun 2027 11:16:33.016,754.437
128,11 Jun 2027 12:42:07.445,11 Jun 2027 12:52:30.665,623.220
129,11 Jun 2027 14:22:57.551,11 Jun 2027 14:27:47.906,290.355
130,11 Jun 2027 20:57:37.115,11 Jun 2027 21:06:09.748,512.633
131,11 Jun 2027 22:33:26.748,11 Jun 2027 22:45:19.357,712.610
132,12 Jun 2027 00:09:27.071,12 Jun 2027 00:22:23.482,776.412
133,12 Jun 2027 01:45:20.724,12 Jun 2027 01:57:53.940,753.217
134,12 Jun 2027 03:20:53.840,12 Jun 2027 03:32:23.943,690.103
135,12 Jun 2027 04:55:51.066,12 Jun 2027 05:06:39.450,648.384
136,12 Jun 2027 06:30:12.206,12 Jun 2027 06:41:23.591,671.386
137,12 Jun 2027 08:04:32.063,12 Jun 2027 08:16:46.744,734.681
138,12 Jun 2027 09:39:39.023,12 Jun 2027 09:52:35.481,776.458
139,12 Jun 2027 11:16:10.073,12 Jun 2027 11:28:35.089,745.015
140,12 Jun 2027 12:54:35.122,12 Jun 2027 13:04:31.188,596.066
141,12 Jun 2027 14:36:00.878,12 Jun 2027 14:39:28.303,207.425
142,12 Jun 2027 21:09:35.973,12 Jun 2027 21:18:44.062,548.089
143,12 Jun 2027 22:45:28.665,12 Jun 2027 22:57:35.508,726.843
144,13 Jun 2027 00:21:28.875,13 Jun 2027 00:34:26.294,777.419
145,13 Jun 2027 01:57:20.768,13 Jun 2027 02:09:47.110,746.342
146,13 Jun 2027 03:32:50.172,13 Jun 2027 03:44:12.533,682.360
147,13 Jun 2027 05:07:42.228,13 Jun 2027 05:18:29.725,647.497
148,13 Jun 2027 06:42:00.642,13 Jun 2027 06:53:18.972,678.329
149,13 Jun 2027 08:16:23.879,13 Jun 2027 08:28:46.237,742.359
150,13 Jun 2027 09:51:39.654,13 Jun 2027 10:04:37.077,777.423
151,13 Jun 2027 11:28:23.351,13 Jun 2027 11:40:37.124,733.773
152,13 Jun 2027 13:07:05.264,13 Jun 2027 13:16:31.180,565.916
153,13 Jun 2027 14:49:43.510,13 Jun 2027 14:50:31.269,47.759
154,13 Jun 2027 19:46:58.053,13 Jun 2027 19:49:21.866,143.813
155,13 Jun 2027 21:21:35.624,13 Jun 2027 21:31:15.619,579.995
156,13 Jun 2027 22:57:30.675,13 Jun 2027 23:09:49.781,739.106
