dataset/facility_timing/facility_Facility-Norilsk/Norilsk-To-KinoSat_111903.csv

Acces,Start Time (UTCG),Stop Time (UTCG),Duration (sec)
1,1 Jun 2027 00:04:09.212,1 Jun 2027 00:13:21.398,552.186
2,1 Jun 2027 01:40:03.350,1 Jun 2027 01:52:11.717,728.367
3,1 Jun 2027 03:16:04.417,1 Jun 2027 03:29:01.990,777.573
4,1 Jun 2027 04:51:57.009,1 Jun 2027 05:04:22.344,745.335
5,1 Jun 2027 06:27:26.986,1 Jun 2027 06:38:47.278,680.292
6,1 Jun 2027 08:02:19.292,1 Jun 2027 08:13:04.179,644.887
7,1 Jun 2027 09:36:37.454,1 Jun 2027 09:47:53.610,676.155
8,1 Jun 2027 11:11:00.181,1 Jun 2027 11:23:21.412,741.231
9,1 Jun 2027 12:46:15.444,1 Jun 2027 12:59:12.931,777.486
10,1 Jun 2027 14:22:58.562,1 Jun 2027 14:35:13.815,735.253
11,1 Jun 2027 16:01:39.325,1 Jun 2027 16:11:09.257,569.932
12,1 Jun 2027 17:43:55.026,1 Jun 2027 17:45:31.941,96.916
13,1 Jun 2027 22:41:22.418,1 Jun 2027 22:44:08.735,166.317
14,2 Jun 2027 00:16:09.377,2 Jun 2027 00:25:53.171,583.794
15,2 Jun 2027 01:52:05.747,2 Jun 2027 02:04:26.245,740.498
16,2 Jun 2027 03:28:06.447,2 Jun 2027 03:41:03.572,777.125
17,2 Jun 2027 05:03:57.026,2 Jun 2027 05:16:14.763,737.737
18,2 Jun 2027 06:39:22.977,2 Jun 2027 06:50:35.860,672.883
19,2 Jun 2027 08:14:10.053,2 Jun 2027 08:24:55.208,645.155
20,2 Jun 2027 09:48:26.073,2 Jun 2027 09:59:49.896,683.823
21,2 Jun 2027 11:22:52.994,2 Jun 2027 11:35:21.602,748.608
22,2 Jun 2027 12:58:17.675,2 Jun 2027 13:11:15.019,777.344
23,2 Jun 2027 14:35:13.941,2 Jun 2027 14:47:16.178,722.237
24,2 Jun 2027 16:14:12.320,2 Jun 2027 16:23:09.088,536.767
25,2 Jun 2027 22:52:57.374,2 Jun 2027 22:57:19.310,261.936
26,3 Jun 2027 00:28:10.120,3 Jun 2027 00:38:22.389,612.269
27,3 Jun 2027 02:04:08.192,3 Jun 2027 02:16:38.947,750.755
28,3 Jun 2027 03:40:08.314,3 Jun 2027 03:53:03.776,775.462
29,3 Jun 2027 05:15:56.663,3 Jun 2027 05:28:06.353,729.690
30,3 Jun 2027 06:51:18.326,3 Jun 2027 07:02:24.430,666.104
31,3 Jun 2027 08:26:00.253,3 Jun 2027 08:36:46.866,646.614
32,3 Jun 2027 10:00:14.869,3 Jun 2027 10:11:46.789,691.920
33,3 Jun 2027 11:34:46.756,3 Jun 2027 11:47:22.128,755.371
34,3 Jun 2027 13:10:21.372,3 Jun 2027 13:23:17.235,775.863
35,3 Jun 2027 14:47:31.239,3 Jun 2027 14:59:18.436,707.197
36,3 Jun 2027 16:26:48.163,3 Jun 2027 16:35:08.063,499.900
37,3 Jun 2027 23:04:44.393,3 Jun 2027 23:10:15.905,331.513
38,4 Jun 2027 00:40:11.322,4 Jun 2027 00:50:49.195,637.873
39,4 Jun 2027 02:16:10.655,4 Jun 2027 02:28:49.873,759.218
40,4 Jun 2027 03:52:10.004,4 Jun 2027 04:05:02.645,772.642
41,4 Jun 2027 05:27:55.867,4 Jun 2027 05:39:57.214,721.347
42,4 Jun 2027 07:03:13.003,4 Jun 2027 07:14:13.092,660.088
43,4 Jun 2027 08:37:49.966,4 Jun 2027 08:48:39.176,649.210
44,4 Jun 2027 10:12:03.947,4 Jun 2027 10:23:44.268,700.321
45,4 Jun 2027 11:46:41.535,4 Jun 2027 11:59:22.972,761.437
46,4 Jun 2027 13:22:26.601,4 Jun 2027 13:35:19.549,772.948
47,4 Jun 2027 14:59:50.536,4 Jun 2027 15:11:20.553,690.017
48,4 Jun 2027 16:39:27.158,4 Jun 2027 16:47:05.869,458.710
49,4 Jun 2027 23:16:36.620,4 Jun 2027 23:23:05.355,388.735
50,5 Jun 2027 00:52:12.876,5 Jun 2027 01:03:13.720,660.844
51,5 Jun 2027 02:28:13.107,5 Jun 2027 02:40:59.082,765.976
52,5 Jun 2027 04:04:11.475,5 Jun 2027 04:17:00.255,768.781
53,5 Jun 2027 05:39:54.617,5 Jun 2027 05:51:47.439,712.822
54,5 Jun 2027 07:15:06.993,5 Jun 2027 07:26:01.942,654.949
55,5 Jun 2027 08:49:39.265,5 Jun 2027 09:00:32.173,652.909
56,5 Jun 2027 10:23:53.414,5 Jun 2027 10:35:42.289,708.875
57,5 Jun 2027 11:58:37.415,5 Jun 2027 12:11:24.086,766.672
58,5 Jun 2027 13:34:33.403,5 Jun 2027 13:47:21.936,768.533
59,5 Jun 2027 15:12:11.897,5 Jun 2027 15:23:22.478,670.581
60,5 Jun 2027 16:52:09.779,5 Jun 2027 16:59:02.039,412.259
61,5 Jun 2027 23:28:31.830,5 Jun 2027 23:35:49.856,438.026
62,6 Jun 2027 01:04:14.703,6 Jun 2027 01:15:36.055,681.352
63,6 Jun 2027 02:40:15.522,6 Jun 2027 02:53:06.629,771.108
64,6 Jun 2027 04:16:12.715,6 Jun 2027 04:28:56.666,763.952
65,6 Jun 2027 05:51:52.872,6 Jun 2027 06:03:37.127,704.255
66,6 Jun 2027 07:27:00.293,6 Jun 2027 07:37:51.083,650.790
67,6 Jun 2027 09:01:28.237,6 Jun 2027 09:12:25.853,657.616
68,6 Jun 2027 10:35:43.374,6 Jun 2027 10:47:40.819,717.445
69,6 Jun 2027 12:10:34.463,6 Jun 2027 12:23:25.455,770.992
70,6 Jun 2027 13:46:41.847,6 Jun 2027 13:59:24.376,762.528
71,6 Jun 2027 15:24:35.405,6 Jun 2027 15:35:24.157,648.752
72,6 Jun 2027 17:04:56.793,6 Jun 2027 17:10:55.796,359.003
73,6 Jun 2027 23:40:28.966,6 Jun 2027 23:48:30.440,481.474
74,7 Jun 2027 01:16:16.743,7 Jun 2027 01:27:56.287,699.544
75,7 Jun 2027 02:52:17.876,7 Jun 2027 03:05:12.580,774.703
76,7 Jun 2027 04:28:13.685,7 Jun 2027 04:40:51.947,758.262
77,7 Jun 2027 06:03:50.598,7 Jun 2027 06:15:26.376,695.778
78,7 Jun 2027 07:38:52.911,7 Jun 2027 07:49:40.605,647.694
79,7 Jun 2027 09:13:16.967,7 Jun 2027 09:24:20.220,663.253
80,7 Jun 2027 10:47:33.927,7 Jun 2027 10:59:39.820,725.894
81,7 Jun 2027 12:22:32.751,7 Jun 2027 12:35:27.052,774.301
82,7 Jun 2027 13:58:51.975,7 Jun 2027 14:11:26.833,754.858
83,7 Jun 2027 15:37:01.151,7 Jun 2027 15:47:25.525,624.374
84,7 Jun 2027 17:17:49.717,7 Jun 2027 17:22:45.596,295.879
85,7 Jun 2027 23:52:27.460,8 Jun 2027 00:01:07.684,520.224
86,8 Jun 2027 01:28:18.946,8 Jun 2027 01:40:14.495,715.549
87,8 Jun 2027 03:04:20.142,8 Jun 2027 03:17:16.971,776.829
88,8 Jun 2027 04:40:14.354,8 Jun 2027 04:52:46.170,751.816
89,8 Jun 2027 06:15:47.764,8 Jun 2027 06:27:15.293,687.529
90,8 Jun 2027 07:50:44.864,8 Jun 2027 08:01:30.578,645.714
91,8 Jun 2027 09:25:05.561,8 Jun 2027 09:36:15.265,669.704
92,8 Jun 2027 10:59:25.169,8 Jun 2027 11:11:39.264,734.094
93,8 Jun 2027 12:34:32.332,8 Jun 2027 12:47:28.835,776.504
94,8 Jun 2027 14:11:03.855,8 Jun 2027 14:23:29.282,745.427
95,8 Jun 2027 15:49:29.256,8 Jun 2027 15:59:26.481,597.224
96,8 Jun 2027 17:30:52.336,8 Jun 2027 17:34:27.627,215.290
97,9 Jun 2027 00:04:26.933,9 Jun 2027 00:13:41.953,555.020
98,9 Jun 2027 01:40:21.266,9 Jun 2027 01:52:30.750,729.484
99,9 Jun 2027 03:16:22.290,9 Jun 2027 03:29:19.876,777.586
100,9 Jun 2027 04:52:14.705,9 Jun 2027 05:04:39.415,744.710
101,9 Jun 2027 06:27:44.329,9 Jun 2027 06:39:03.988,679.659
102,9 Jun 2027 08:02:36.169,9 Jun 2027 08:13:21.082,644.913
103,9 Jun 2027 09:36:54.121,9 Jun 2027 09:48:10.969,676.848
104,9 Jun 2027 11:11:17.194,9 Jun 2027 11:23:39.115,741.921
105,9 Jun 2027 12:46:33.270,9 Jun 2027 12:59:30.797,777.527
106,9 Jun 2027 14:23:17.538,9 Jun 2027 14:35:31.697,734.160
107,9 Jun 2027 16:01:59.837,9 Jun 2027 16:11:26.919,567.082
108,9 Jun 2027 17:44:25.414,9 Jun 2027 17:45:41.085,75.671
109,9 Jun 2027 22:41:37.124,9 Jun 2027 22:44:33.493,176.369
110,10 Jun 2027 00:16:27.151,10 Jun 2027 00:26:13.498,586.347
111,10 Jun 2027 01:52:23.665,10 Jun 2027 02:04:45.113,741.448
112,10 Jun 2027 03:28:24.308,10 Jun 2027 03:41:21.334,777.027
113,10 Jun 2027 05:04:14.687,10 Jun 2027 05:16:31.756,737.069
114,10 Jun 2027 06:39:40.263,10 Jun 2027 06:50:52.565,672.302
115,10 Jun 2027 08:14:26.879,10 Jun 2027 08:25:12.163,645.284
116,10 Jun 2027 09:48:42.751,10 Jun 2027 10:00:07.308,684.557
117,10 Jun 2027 11:23:10.087,10 Jun 2027 11:35:39.329,749.242
118,10 Jun 2027 12:58:35.631,10 Jun 2027 13:11:32.895,777.265
119,10 Jun 2027 14:35:33.084,10 Jun 2027 14:47:34.051,720.967
120,10 Jun 2027 16:14:33.077,10 Jun 2027 16:23:26.679,533.603
121,10 Jun 2027 22:53:13.725,10 Jun 2027 22:57:42.257,268.531
122,11 Jun 2027 00:28:27.935,11 Jun 2027 00:38:42.502,614.567
123,11 Jun 2027 02:04:26.110,11 Jun 2027 02:16:57.658,751.548
124,11 Jun 2027 03:40:26.157,11 Jun 2027 03:53:21.420,775.263
125,11 Jun 2027 05:16:14.286,11 Jun 2027 05:28:23.278,728.992
126,11 Jun 2027 06:51:35.551,11 Jun 2027 07:02:41.137,665.586
127,11 Jun 2027 08:26:17.033,11 Jun 2027 08:37:03.877,646.844
128,11 Jun 2027 10:00:31.568,11 Jun 2027 10:12:04.252,692.684
129,11 Jun 2027 11:35:03.937,11 Jun 2027 11:47:39.886,755.948
130,11 Jun 2027 13:10:39.459,11 Jun 2027 13:23:35.123,775.664
131,11 Jun 2027 14:47:50.556,11 Jun 2027 14:59:36.296,705.740
132,11 Jun 2027 16:27:09.187,11 Jun 2027 16:35:25.558,496.371
133,11 Jun 2027 23:05:01.325,11 Jun 2027 23:10:38.102,336.777
134,12 Jun 2027 00:40:29.162,12 Jun 2027 00:51:09.108,639.946
135,12 Jun 2027 02:16:28.574,12 Jun 2027 02:29:08.431,759.856
136,12 Jun 2027 03:52:27.823,12 Jun 2027 04:05:20.177,772.354
137,12 Jun 2027 05:28:13.453,12 Jun 2027 05:40:14.084,720.631
138,12 Jun 2027 07:03:30.164,12 Jun 2027 07:14:29.813,659.649
139,12 Jun 2027 08:38:06.711,12 Jun 2027 08:48:56.246,649.535
140,12 Jun 2027 10:12:20.681,12 Jun 2027 10:24:01.777,701.096
141,12 Jun 2027 11:46:58.813,12 Jun 2027 11:59:40.753,761.940
142,12 Jun 2027 13:22:44.826,12 Jun 2027 13:35:37.437,772.612
143,12 Jun 2027 15:00:10.033,12 Jun 2027 15:11:38.395,688.362
144,12 Jun 2027 16:39:48.485,12 Jun 2027 16:47:23.234,454.750
145,12 Jun 2027 23:16:53.859,12 Jun 2027 23:23:27.067,393.208
146,13 Jun 2027 00:52:30.741,13 Jun 2027 01:03:33.436,662.696
147,13 Jun 2027 02:28:31.016,13 Jun 2027 02:41:17.489,766.473
148,13 Jun 2027 04:04:29.275,13 Jun 2027 04:17:17.678,768.403
149,13 Jun 2027 05:40:12.155,13 Jun 2027 05:52:04.253,712.098
150,13 Jun 2027 07:15:24.096,13 Jun 2027 07:26:18.683,654.587
151,13 Jun 2027 08:49:55.972,13 Jun 2027 09:00:49.300,653.328
152,13 Jun 2027 10:24:10.183,13 Jun 2027 10:35:59.842,709.659
153,13 Jun 2027 11:58:54.789,13 Jun 2027 12:11:41.888,767.099
154,13 Jun 2027 13:34:51.769,13 Jun 2027 13:47:39.827,768.058
155,13 Jun 2027 15:12:31.579,13 Jun 2027 15:23:40.295,668.716
156,13 Jun 2027 16:52:31.462,13 Jun 2027 16:59:19.219,407.758
157,13 Jun 2027 23:28:49.260,13 Jun 2027 23:36:11.202,441.942
