dataset/facility_timing/facility_Facility-Norilsk/Norilsk-To-KinoSat_111704.csv

Acces,Start Time (UTCG),Stop Time (UTCG),Duration (sec)
1,1 Jun 2027 00:02:10.412,1 Jun 2027 00:13:12.158,661.746
2,1 Jun 2027 01:38:10.447,1 Jun 2027 01:50:56.638,766.191
3,1 Jun 2027 03:14:08.548,1 Jun 2027 03:26:57.135,768.587
4,1 Jun 2027 04:49:51.333,1 Jun 2027 05:01:43.948,712.615
5,1 Jun 2027 06:25:03.261,1 Jun 2027 06:35:58.493,655.231
6,1 Jun 2027 07:59:35.220,1 Jun 2027 08:10:29.039,653.819
7,1 Jun 2027 09:33:49.517,1 Jun 2027 09:45:39.403,709.886
8,1 Jun 2027 11:08:34.119,1 Jun 2027 11:21:21.253,767.134
9,1 Jun 2027 12:44:31.013,1 Jun 2027 12:57:19.001,767.988
10,1 Jun 2027 14:22:10.724,1 Jun 2027 14:33:19.248,668.524
11,1 Jun 2027 16:02:10.712,1 Jun 2027 16:08:57.744,407.032
12,1 Jun 2027 22:38:29.416,1 Jun 2027 22:45:49.058,439.642
13,2 Jun 2027 00:14:12.149,2 Jun 2027 00:25:34.271,682.122
14,2 Jun 2027 01:50:12.758,2 Jun 2027 02:03:04.014,771.256
15,2 Jun 2027 03:26:09.682,2 Jun 2027 03:38:53.421,763.738
16,2 Jun 2027 05:01:49.471,2 Jun 2027 05:13:33.570,704.098
17,2 Jun 2027 06:36:56.450,2 Jun 2027 06:47:47.619,651.168
18,2 Jun 2027 08:11:24.134,2 Jun 2027 08:22:22.708,658.574
19,2 Jun 2027 09:45:39.481,2 Jun 2027 09:57:37.883,718.401
20,2 Jun 2027 11:20:31.205,2 Jun 2027 11:33:22.549,771.344
21,2 Jun 2027 12:56:39.511,2 Jun 2027 13:09:21.346,761.836
22,2 Jun 2027 14:34:34.314,2 Jun 2027 14:45:20.797,646.483
23,2 Jun 2027 16:14:58.118,2 Jun 2027 16:20:51.044,352.926
24,2 Jun 2027 22:50:26.485,2 Jun 2027 22:58:29.374,482.888
25,3 Jun 2027 00:26:14.097,3 Jun 2027 00:37:54.292,700.196
26,3 Jun 2027 02:02:15.013,3 Jun 2027 02:15:09.797,774.784
27,3 Jun 2027 03:38:10.544,3 Jun 2027 03:50:48.585,758.040
28,3 Jun 2027 05:13:47.081,3 Jun 2027 05:25:22.760,695.679
29,3 Jun 2027 06:48:48.964,3 Jun 2027 06:59:37.127,648.164
30,3 Jun 2027 08:23:12.815,3 Jun 2027 08:34:17.056,664.241
31,3 Jun 2027 09:57:30.044,3 Jun 2027 10:09:36.836,726.792
32,3 Jun 2027 11:32:29.527,3 Jun 2027 11:45:24.069,774.542
33,3 Jun 2027 13:08:49.689,3 Jun 2027 13:21:23.707,754.018
34,3 Jun 2027 14:47:00.146,3 Jun 2027 14:57:22.024,621.878
35,3 Jun 2027 16:27:51.684,3 Jun 2027 16:32:40.132,288.448
36,3 Jun 2027 23:02:24.902,3 Jun 2027 23:11:06.367,521.465
37,4 Jun 2027 00:38:16.205,4 Jun 2027 00:50:12.298,716.093
38,4 Jun 2027 02:14:17.179,4 Jun 2027 02:27:14.030,776.851
39,4 Jun 2027 03:50:11.106,4 Jun 2027 04:02:42.699,751.594
40,4 Jun 2027 05:25:44.132,4 Jun 2027 05:37:11.627,687.495
41,4 Jun 2027 07:00:40.818,4 Jun 2027 07:11:27.089,646.271
42,4 Jun 2027 08:35:01.369,4 Jun 2027 08:46:12.076,670.707
43,4 Jun 2027 10:09:21.300,4 Jun 2027 10:21:36.226,734.926
44,4 Jun 2027 11:44:29.149,4 Jun 2027 11:57:25.774,776.625
45,4 Jun 2027 13:21:01.621,4 Jun 2027 13:33:26.055,744.434
46,4 Jun 2027 14:59:28.345,4 Jun 2027 15:09:22.829,594.484
47,4 Jun 2027 16:40:55.701,4 Jun 2027 16:44:20.682,204.982
48,4 Jun 2027 23:14:24.292,4 Jun 2027 23:23:40.398,556.106
49,5 Jun 2027 00:50:18.430,5 Jun 2027 01:02:28.359,729.929
50,5 Jun 2027 02:26:19.227,5 Jun 2027 02:39:16.785,777.559
51,5 Jun 2027 04:02:11.348,5 Jun 2027 04:14:35.844,744.497
52,5 Jun 2027 05:37:40.583,5 Jun 2027 05:49:00.279,679.696
53,5 Jun 2027 07:12:32.031,5 Jun 2027 07:23:17.582,645.551
54,5 Jun 2027 08:46:49.897,5 Jun 2027 08:58:07.751,677.854
55,5 Jun 2027 10:21:13.342,5 Jun 2027 10:33:36.015,742.674
56,5 Jun 2027 11:56:30.125,5 Jun 2027 12:09:27.654,777.529
57,5 Jun 2027 13:33:15.350,5 Jun 2027 13:45:28.368,733.018
58,5 Jun 2027 15:11:59.030,5 Jun 2027 15:21:23.098,564.068
59,5 Jun 2027 16:54:42.476,5 Jun 2027 16:55:20.352,37.876
60,5 Jun 2027 21:51:34.166,5 Jun 2027 21:54:32.941,178.774
61,5 Jun 2027 23:26:24.419,5 Jun 2027 23:36:11.714,587.295
62,6 Jun 2027 01:02:20.734,6 Jun 2027 01:14:42.537,741.803
63,6 Jun 2027 02:38:21.143,6 Jun 2027 02:51:18.106,776.963
64,6 Jun 2027 04:14:11.226,6 Jun 2027 04:26:28.093,736.867
65,6 Jun 2027 05:49:36.408,6 Jun 2027 06:00:48.823,672.415
66,6 Jun 2027 07:24:22.653,6 Jun 2027 07:35:08.650,645.997
67,6 Jun 2027 08:58:38.503,6 Jun 2027 09:10:04.056,685.553
68,6 Jun 2027 10:33:06.259,6 Jun 2027 10:45:36.170,749.911
69,6 Jun 2027 12:08:32.519,6 Jun 2027 12:21:29.670,777.151
70,6 Jun 2027 13:45:30.947,6 Jun 2027 13:57:30.615,719.668
71,6 Jun 2027 15:24:32.388,6 Jun 2027 15:33:22.676,530.288
72,6 Jun 2027 22:03:10.972,6 Jun 2027 22:07:41.172,270.200
73,6 Jun 2027 23:38:25.112,6 Jun 2027 23:48:40.501,615.388
74,7 Jun 2027 01:14:23.082,7 Jun 2027 01:26:54.904,751.822
75,7 Jun 2027 02:50:22.895,7 Jun 2027 03:03:18.050,775.155
76,7 Jun 2027 04:26:10.707,7 Jun 2027 04:38:19.540,728.833
77,7 Jun 2027 06:01:31.581,7 Jun 2027 06:12:37.365,665.784
78,7 Jun 2027 07:36:12.734,7 Jun 2027 07:47:00.353,647.618
79,7 Jun 2027 09:10:27.306,7 Jun 2027 09:22:00.963,693.657
80,7 Jun 2027 10:45:00.121,7 Jun 2027 10:57:36.659,756.538
81,7 Jun 2027 12:20:36.390,7 Jun 2027 12:33:31.805,775.414
82,7 Jun 2027 13:57:48.478,7 Jun 2027 14:09:32.747,704.269
83,7 Jun 2027 15:37:08.634,7 Jun 2027 15:45:21.339,492.705
84,7 Jun 2027 22:14:58.572,7 Jun 2027 22:20:36.698,338.126
85,7 Jun 2027 23:50:26.249,8 Jun 2027 00:01:06.905,640.656
86,8 Jun 2027 01:26:25.449,8 Jun 2027 01:39:05.510,760.061
87,8 Jun 2027 03:02:24.455,8 Jun 2027 03:15:16.686,772.231
88,8 Jun 2027 04:38:09.768,8 Jun 2027 04:50:10.266,720.498
89,8 Jun 2027 06:13:26.088,8 Jun 2027 06:24:26.008,659.920
90,8 Jun 2027 07:48:02.339,8 Jun 2027 07:58:52.707,650.368
91,8 Jun 2027 09:22:16.400,8 Jun 2027 09:33:58.441,702.041
92,8 Jun 2027 10:56:55.020,8 Jun 2027 11:09:37.452,762.432
93,8 Jun 2027 12:32:41.784,8 Jun 2027 12:45:34.035,772.251
94,8 Jun 2027 14:10:08.001,8 Jun 2027 14:21:34.733,686.732
95,8 Jun 2027 15:49:48.109,8 Jun 2027 15:57:18.767,450.658
96,8 Jun 2027 22:26:51.054,8 Jun 2027 22:33:25.412,394.357
97,9 Jun 2027 00:02:27.730,9 Jun 2027 00:13:31.033,663.303
98,9 Jun 2027 01:38:27.798,9 Jun 2027 01:51:14.408,766.609
99,9 Jun 2027 03:14:25.808,9 Jun 2027 03:27:14.072,768.264
100,9 Jun 2027 04:50:08.364,9 Jun 2027 05:02:00.372,712.007
101,9 Jun 2027 06:25:19.919,9 Jun 2027 06:36:14.860,654.941
102,9 Jun 2027 07:59:51.544,9 Jun 2027 08:10:45.735,654.190
103,9 Jun 2027 09:34:05.901,9 Jun 2027 09:45:56.457,710.556
104,9 Jun 2027 11:08:51.022,9 Jun 2027 11:21:38.514,767.492
105,9 Jun 2027 12:44:48.763,9 Jun 2027 12:57:36.333,767.570
106,9 Jun 2027 14:22:29.599,9 Jun 2027 14:33:36.516,666.917
107,9 Jun 2027 16:02:31.318,9 Jun 2027 16:09:14.437,403.119
108,9 Jun 2027 22:38:46.373,9 Jun 2027 22:46:09.310,442.937
109,10 Jun 2027 00:14:29.481,10 Jun 2027 00:25:52.989,683.508
110,10 Jun 2027 01:50:30.103,10 Jun 2027 02:03:21.664,771.561
111,10 Jun 2027 03:26:26.917,10 Jun 2027 03:39:10.270,763.353
112,10 Jun 2027 05:02:06.461,10 Jun 2027 05:13:49.958,703.497
113,10 Jun 2027 06:37:13.056,10 Jun 2027 06:48:04.011,650.955
114,10 Jun 2027 08:11:40.439,10 Jun 2027 08:22:39.453,659.014
115,10 Jun 2027 09:45:55.907,10 Jun 2027 09:57:54.970,719.063
116,10 Jun 2027 11:20:48.199,10 Jun 2027 11:33:39.827,771.629
117,10 Jun 2027 12:56:57.386,10 Jun 2027 13:09:38.678,761.292
118,10 Jun 2027 14:34:53.355,10 Jun 2027 14:45:38.035,644.680
119,10 Jun 2027 16:15:19.125,10 Jun 2027 16:21:07.480,348.355
120,10 Jun 2027 22:50:43.549,10 Jun 2027 22:58:49.369,485.820
121,11 Jun 2027 00:26:31.438,11 Jun 2027 00:38:12.858,701.420
122,11 Jun 2027 02:02:32.350,11 Jun 2027 02:15:27.329,774.979
123,11 Jun 2027 03:38:27.752,11 Jun 2027 03:51:05.357,757.606
124,11 Jun 2027 05:14:04.032,11 Jun 2027 05:25:39.119,695.087
125,11 Jun 2027 06:49:05.518,11 Jun 2027 06:59:53.549,648.031
126,11 Jun 2027 08:23:29.103,11 Jun 2027 08:34:33.846,664.743
127,11 Jun 2027 09:57:46.522,11 Jun 2027 10:09:53.958,727.436
128,11 Jun 2027 11:32:46.615,11 Jun 2027 11:45:41.358,774.742
129,11 Jun 2027 13:09:07.697,11 Jun 2027 13:21:41.036,753.339
130,11 Jun 2027 14:47:19.366,11 Jun 2027 14:57:39.231,619.865
131,11 Jun 2027 16:28:13.289,11 Jun 2027 16:32:56.115,282.826
132,11 Jun 2027 23:02:42.040,11 Jun 2027 23:11:26.136,524.095
133,12 Jun 2027 00:38:33.553,12 Jun 2027 00:50:30.717,717.164
134,12 Jun 2027 02:14:34.505,12 Jun 2027 02:27:31.450,776.945
135,12 Jun 2027 03:50:28.291,12 Jun 2027 04:02:59.397,751.106
136,12 Jun 2027 05:26:01.033,12 Jun 2027 05:37:27.968,686.935
137,12 Jun 2027 07:00:57.322,12 Jun 2027 07:11:43.548,646.226
138,12 Jun 2027 08:35:17.655,12 Jun 2027 08:46:28.917,671.262
139,12 Jun 2027 10:09:37.831,12 Jun 2027 10:21:53.375,735.544
140,12 Jun 2027 11:44:46.338,12 Jun 2027 11:57:43.074,776.736
141,12 Jun 2027 13:21:19.759,12 Jun 2027 13:33:43.379,743.620
142,12 Jun 2027 14:59:47.744,12 Jun 2027 15:09:39.995,592.251
143,12 Jun 2027 16:41:18.528,12 Jun 2027 16:44:35.580,197.052
144,12 Jun 2027 23:14:41.485,12 Jun 2027 23:23:59.960,558.475
145,13 Jun 2027 00:50:35.781,13 Jun 2027 01:02:46.636,730.855
146,13 Jun 2027 02:26:36.541,13 Jun 2027 02:39:34.096,777.556
147,13 Jun 2027 04:02:28.505,13 Jun 2027 04:14:52.465,743.960
148,13 Jun 2027 05:37:57.436,13 Jun 2027 05:49:16.608,679.172
149,13 Jun 2027 07:12:48.489,13 Jun 2027 07:23:34.082,645.593
150,13 Jun 2027 08:47:06.186,13 Jun 2027 08:58:24.638,678.451
151,13 Jun 2027 10:21:29.935,13 Jun 2027 10:33:53.189,743.254
152,13 Jun 2027 11:56:47.417,13 Jun 2027 12:09:44.962,777.545
153,13 Jun 2027 13:33:33.625,13 Jun 2027 13:45:45.684,732.060
154,13 Jun 2027 15:12:18.626,13 Jun 2027 15:21:40.212,561.586
155,13 Jun 2027 21:51:49.055,13 Jun 2027 21:54:55.819,186.764
156,13 Jun 2027 23:26:41.658,13 Jun 2027 23:36:31.088,589.431
