dataset/area_work/orbit_5/KinoSat_110509.csv

Acces,Start Time (UTCG),Stop Time (UTCG),Duration (sec)
1,1 Jun 2027 03:10:15.087,1 Jun 2027 03:13:46.913,211.826
2,1 Jun 2027 04:45:25.089,1 Jun 2027 04:52:01.702,396.613
3,1 Jun 2027 06:21:50.600,1 Jun 2027 06:27:57.883,367.283
4,1 Jun 2027 07:59:05.030,1 Jun 2027 08:03:41.832,276.803
5,1 Jun 2027 09:35:19.551,1 Jun 2027 09:40:01.535,281.984
6,2 Jun 2027 03:22:08.037,2 Jun 2027 03:26:10.323,242.286
7,2 Jun 2027 04:57:04.235,2 Jun 2027 05:04:10.177,425.942
8,2 Jun 2027 06:33:22.807,2 Jun 2027 06:39:47.601,384.794
9,2 Jun 2027 08:11:38.311,2 Jun 2027 08:15:31.023,232.711
10,2 Jun 2027 09:46:58.432,2 Jun 2027 09:51:09.759,251.327
11,2 Jun 2027 09:51:30.844,2 Jun 2027 09:52:29.443,58.599
12,3 Jun 2027 03:32:26.698,3 Jun 2027 03:33:00.271,33.573
13,3 Jun 2027 03:33:51.856,3 Jun 2027 03:38:25.451,273.595
14,3 Jun 2027 05:08:37.543,3 Jun 2027 05:16:12.091,454.548
15,3 Jun 2027 06:45:42.041,3 Jun 2027 06:52:04.706,382.665
16,3 Jun 2027 08:23:41.200,3 Jun 2027 08:27:36.313,235.113
17,3 Jun 2027 09:56:50.267,3 Jun 2027 10:03:04.600,374.333
18,3 Jun 2027 10:03:09.394,3 Jun 2027 10:04:46.222,96.828
19,4 Jun 2027 03:43:33.316,4 Jun 2027 03:45:16.522,103.206
20,4 Jun 2027 03:45:36.330,4 Jun 2027 03:50:37.701,301.371
21,4 Jun 2027 03:51:27.868,4 Jun 2027 03:51:49.443,21.575
22,4 Jun 2027 05:20:54.897,4 Jun 2027 05:28:15.048,440.151
23,4 Jun 2027 06:57:43.677,4 Jun 2027 07:04:11.699,388.022
24,4 Jun 2027 08:35:40.710,4 Jun 2027 08:39:39.772,239.062
25,4 Jun 2027 10:09:17.399,4 Jun 2027 10:16:45.279,447.880
26,5 Jun 2027 03:55:01.513,5 Jun 2027 04:02:58.498,476.985
27,5 Jun 2027 04:03:20.526,5 Jun 2027 04:04:03.249,42.723
28,5 Jun 2027 05:32:50.244,5 Jun 2027 05:40:15.834,445.591
29,5 Jun 2027 07:09:34.650,5 Jun 2027 07:15:30.188,355.537
30,5 Jun 2027 07:15:35.382,5 Jun 2027 07:16:20.423,45.041
31,5 Jun 2027 08:47:42.236,5 Jun 2027 08:51:49.465,247.228
32,5 Jun 2027 10:21:33.287,5 Jun 2027 10:27:51.273,377.987
33,6 Jun 2027 04:07:49.951,6 Jun 2027 04:15:08.452,438.501
34,6 Jun 2027 04:15:19.770,6 Jun 2027 04:16:19.960,60.190
35,6 Jun 2027 05:44:56.648,6 Jun 2027 05:52:15.988,439.340
36,6 Jun 2027 07:21:59.092,6 Jun 2027 07:28:06.529,367.438
37,6 Jun 2027 08:58:56.370,6 Jun 2027 09:03:48.438,292.068
38,6 Jun 2027 10:34:00.009,6 Jun 2027 10:34:27.988,27.979
39,6 Jun 2027 10:35:38.699,6 Jun 2027 10:38:52.978,194.279
40,7 Jun 2027 04:19:48.678,7 Jun 2027 04:27:16.759,448.081
41,7 Jun 2027 04:27:17.949,7 Jun 2027 04:28:18.917,60.968
42,7 Jun 2027 05:57:22.505,7 Jun 2027 06:04:04.609,402.104
43,7 Jun 2027 07:34:16.791,7 Jun 2027 07:38:40.725,263.934
44,7 Jun 2027 07:38:43.151,7 Jun 2027 07:39:51.168,68.017
45,7 Jun 2027 09:11:10.060,7 Jun 2027 09:15:38.293,268.233
46,7 Jun 2027 10:48:49.826,7 Jun 2027 10:50:26.843,97.018
47,8 Jun 2027 03:00:00.000,8 Jun 2027 03:01:53.934,113.934
48,8 Jun 2027 04:33:17.360,8 Jun 2027 04:39:12.936,355.576
49,8 Jun 2027 04:39:16.514,8 Jun 2027 04:40:15.311,58.798
50,8 Jun 2027 06:09:29.897,8 Jun 2027 06:16:10.186,400.289
51,8 Jun 2027 07:47:13.359,8 Jun 2027 07:51:38.029,264.670
52,8 Jun 2027 09:23:19.622,8 Jun 2027 09:27:41.217,261.595
53,9 Jun 2027 03:10:29.682,9 Jun 2027 03:14:01.350,211.669
54,9 Jun 2027 04:45:39.765,9 Jun 2027 04:52:16.309,396.544
55,9 Jun 2027 06:22:04.801,9 Jun 2027 06:28:12.499,367.699
56,9 Jun 2027 07:59:19.860,9 Jun 2027 08:03:56.565,276.705
57,9 Jun 2027 09:35:34.234,9 Jun 2027 09:40:16.058,281.823
58,10 Jun 2027 03:22:22.544,10 Jun 2027 03:26:25.178,242.634
59,10 Jun 2027 04:57:18.657,10 Jun 2027 05:04:24.885,426.228
60,10 Jun 2027 06:33:37.600,10 Jun 2027 06:40:02.291,384.691
61,10 Jun 2027 08:11:52.860,10 Jun 2027 08:15:45.859,232.999
62,10 Jun 2027 09:47:13.092,10 Jun 2027 09:51:24.507,251.415
63,10 Jun 2027 09:51:45.494,10 Jun 2027 09:52:44.128,58.634
64,11 Jun 2027 03:32:41.218,11 Jun 2027 03:33:19.660,38.442
65,11 Jun 2027 03:34:06.504,11 Jun 2027 03:38:40.156,273.651
66,11 Jun 2027 05:08:52.003,11 Jun 2027 05:16:26.444,454.441
67,11 Jun 2027 06:45:56.917,11 Jun 2027 06:52:19.444,382.527
68,11 Jun 2027 08:23:55.910,11 Jun 2027 08:27:50.862,234.952
69,11 Jun 2027 09:57:04.717,11 Jun 2027 10:03:19.078,374.361
70,11 Jun 2027 10:03:24.230,11 Jun 2027 10:05:00.676,96.446
71,12 Jun 2027 03:43:47.679,12 Jun 2027 03:45:31.011,103.331
72,12 Jun 2027 03:45:50.851,12 Jun 2027 03:50:52.466,301.616
73,12 Jun 2027 03:51:42.366,12 Jun 2027 03:52:04.138,21.772
74,12 Jun 2027 05:21:09.961,12 Jun 2027 05:28:29.717,439.757
75,12 Jun 2027 06:57:58.368,12 Jun 2027 07:04:26.642,388.274
76,12 Jun 2027 08:35:55.503,12 Jun 2027 08:39:54.446,238.944
77,12 Jun 2027 10:09:32.185,12 Jun 2027 10:16:59.749,447.564
78,13 Jun 2027 03:55:15.881,13 Jun 2027 04:03:13.231,477.349
79,13 Jun 2027 04:03:35.062,13 Jun 2027 04:04:17.986,42.924
80,13 Jun 2027 05:33:04.856,13 Jun 2027 05:40:30.409,445.553
81,13 Jun 2027 07:09:49.246,13 Jun 2027 07:15:44.557,355.310
82,13 Jun 2027 07:15:49.640,13 Jun 2027 07:16:34.894,45.254
83,13 Jun 2027 08:47:57.151,13 Jun 2027 08:52:03.930,246.779
84,13 Jun 2027 10:21:48.048,13 Jun 2027 10:28:05.473,377.424
