dataset/facility_timing/facility_Facility-Murmansk2/Murmansk2-To-KinoSat_111602.csv

Acces,Start Time (UTCG),Stop Time (UTCG),Duration (sec)
1,1 Jun 2027 02:03:40.756,1 Jun 2027 02:11:08.728,447.972
2,1 Jun 2027 03:39:17.279,1 Jun 2027 03:50:50.891,693.612
3,1 Jun 2027 05:15:15.526,1 Jun 2027 05:28:10.098,774.572
4,1 Jun 2027 06:51:10.901,1 Jun 2027 07:03:45.937,755.036
5,1 Jun 2027 08:26:48.172,1 Jun 2027 08:38:12.098,683.925
6,1 Jun 2027 10:01:48.916,1 Jun 2027 10:12:16.484,627.568
7,1 Jun 2027 11:36:06.011,1 Jun 2027 11:46:49.954,643.942
8,1 Jun 2027 13:10:12.496,1 Jun 2027 13:22:07.790,715.294
9,1 Jun 2027 14:45:02.230,1 Jun 2027 14:57:54.460,772.229
10,1 Jun 2027 16:21:16.443,1 Jun 2027 16:33:52.797,756.354
11,1 Jun 2027 17:59:27.260,1 Jun 2027 18:09:47.052,619.792
12,1 Jun 2027 19:40:43.410,1 Jun 2027 19:44:42.272,238.861
13,2 Jun 2027 02:15:36.469,2 Jun 2027 02:23:49.441,492.972
14,2 Jun 2027 03:51:18.780,2 Jun 2027 04:03:09.786,711.006
15,2 Jun 2027 05:27:17.534,2 Jun 2027 05:40:14.242,776.708
16,2 Jun 2027 07:03:11.503,2 Jun 2027 07:15:39.257,747.754
17,2 Jun 2027 08:38:45.235,2 Jun 2027 08:49:59.684,674.449
18,2 Jun 2027 10:13:40.244,2 Jun 2027 10:24:05.318,625.075
19,2 Jun 2027 11:47:53.294,2 Jun 2027 11:58:44.506,651.212
20,2 Jun 2027 13:22:02.356,2 Jun 2027 13:34:07.051,724.694
21,2 Jun 2027 14:57:00.821,2 Jun 2027 15:09:56.038,775.217
22,2 Jun 2027 16:33:27.933,2 Jun 2027 16:45:54.808,746.875
23,2 Jun 2027 18:11:56.209,2 Jun 2027 18:21:46.860,590.652
24,2 Jun 2027 19:54:11.064,2 Jun 2027 19:55:59.845,108.781
25,3 Jun 2027 02:27:33.772,3 Jun 2027 02:36:26.477,532.704
26,3 Jun 2027 04:03:20.489,3 Jun 2027 04:15:26.584,726.096
27,3 Jun 2027 05:39:19.459,3 Jun 2027 05:52:16.813,777.355
28,3 Jun 2027 07:15:11.800,3 Jun 2027 07:27:31.525,739.725
29,3 Jun 2027 08:50:41.663,3 Jun 2027 09:01:47.027,665.364
30,3 Jun 2027 10:25:30.825,3 Jun 2027 10:35:54.748,623.923
31,3 Jun 2027 11:59:40.496,3 Jun 2027 12:10:39.781,659.286
32,3 Jun 2027 13:33:53.029,3 Jun 2027 13:46:06.730,733.701
33,3 Jun 2027 15:09:00.827,3 Jun 2027 15:21:57.768,776.941
34,3 Jun 2027 16:45:41.334,3 Jun 2027 16:57:56.744,735.410
35,3 Jun 2027 18:24:27.925,3 Jun 2027 18:33:45.944,558.019
36,4 Jun 2027 02:39:32.228,4 Jun 2027 02:49:00.278,568.050
37,4 Jun 2027 04:15:22.342,4 Jun 2027 04:27:41.358,739.016
38,4 Jun 2027 05:51:21.280,4 Jun 2027 06:04:17.857,776.577
39,4 Jun 2027 07:27:11.743,4 Jun 2027 07:39:22.828,731.085
40,4 Jun 2027 09:02:37.423,4 Jun 2027 09:13:34.246,656.823
41,4 Jun 2027 10:37:20.712,4 Jun 2027 10:47:44.844,624.133
42,4 Jun 2027 12:11:27.736,4 Jun 2027 12:22:35.749,668.013
43,4 Jun 2027 13:45:44.607,4 Jun 2027 13:58:06.785,742.178
44,4 Jun 2027 15:21:02.313,4 Jun 2027 15:33:59.628,777.316
45,4 Jun 2027 16:57:56.696,4 Jun 2027 17:09:58.559,721.863
46,4 Jun 2027 18:37:02.658,4 Jun 2027 18:45:44.078,521.419
47,5 Jun 2027 01:17:00.597,5 Jun 2027 01:19:39.129,158.533
48,5 Jun 2027 02:51:31.559,5 Jun 2027 03:01:31.147,599.588
49,5 Jun 2027 04:27:24.308,5 Jun 2027 04:39:54.181,749.873
50,5 Jun 2027 06:03:22.971,5 Jun 2027 06:16:17.434,774.462
51,5 Jun 2027 07:39:11.294,5 Jun 2027 07:51:13.256,721.962
52,5 Jun 2027 09:14:32.480,5 Jun 2027 09:25:21.466,648.986
53,5 Jun 2027 10:49:09.953,5 Jun 2027 10:59:35.653,625.700
54,5 Jun 2027 12:23:15.134,5 Jun 2027 12:34:32.373,677.239
55,5 Jun 2027 13:57:37.177,5 Jun 2027 14:10:07.175,749.998
56,5 Jun 2027 15:33:05.345,5 Jun 2027 15:46:01.576,776.232
57,5 Jun 2027 17:10:14.114,5 Jun 2027 17:22:00.202,706.088
58,5 Jun 2027 18:49:40.735,5 Jun 2027 18:57:40.946,480.211
59,6 Jun 2027 01:28:29.551,6 Jun 2027 01:32:54.810,265.259
60,6 Jun 2027 03:03:31.558,6 Jun 2027 03:13:59.312,627.754
61,6 Jun 2027 04:39:26.344,6 Jun 2027 04:52:05.127,758.783
62,6 Jun 2027 06:15:24.499,6 Jun 2027 06:28:15.614,771.115
63,6 Jun 2027 07:51:10.424,6 Jun 2027 08:03:02.902,712.479
64,6 Jun 2027 09:26:26.805,6 Jun 2027 09:37:08.806,642.001
65,6 Jun 2027 11:00:58.621,6 Jun 2027 11:11:27.207,628.586
66,6 Jun 2027 12:35:02.815,6 Jun 2027 12:46:29.614,686.799
67,6 Jun 2027 14:09:30.823,6 Jun 2027 14:22:07.870,757.047
68,6 Jun 2027 15:45:09.970,6 Jun 2027 15:58:03.598,773.628
69,6 Jun 2027 17:22:33.654,6 Jun 2027 17:34:01.631,687.977
70,6 Jun 2027 19:02:22.668,6 Jun 2027 19:09:36.062,433.393
71,7 Jun 2027 01:40:13.577,7 Jun 2027 01:45:53.343,339.766
72,7 Jun 2027 03:15:32.075,7 Jun 2027 03:26:24.935,652.860
73,7 Jun 2027 04:51:28.420,7 Jun 2027 05:04:14.251,765.831
74,7 Jun 2027 06:27:25.832,7 Jun 2027 06:40:12.456,766.625
75,7 Jun 2027 08:03:09.091,7 Jun 2027 08:14:51.864,702.773
76,7 Jun 2027 09:38:20.374,7 Jun 2027 09:48:56.372,635.998
77,7 Jun 2027 11:12:46.788,7 Jun 2027 11:23:19.525,632.737
78,7 Jun 2027 12:46:50.885,7 Jun 2027 12:58:27.426,696.542
79,7 Jun 2027 14:21:25.622,7 Jun 2027 14:34:08.830,763.208
80,7 Jun 2027 15:57:16.256,7 Jun 2027 16:10:05.661,769.405
81,7 Jun 2027 17:34:55.415,7 Jun 2027 17:46:02.776,667.361
82,7 Jun 2027 19:15:09.284,7 Jun 2027 19:21:28.584,379.301
83,8 Jun 2027 01:52:03.740,8 Jun 2027 01:58:43.662,399.922
84,8 Jun 2027 03:27:33.010,8 Jun 2027 03:38:48.156,675.146
85,8 Jun 2027 05:03:30.493,8 Jun 2027 05:16:21.623,771.130
86,8 Jun 2027 06:39:26.949,8 Jun 2027 06:52:08.033,761.084
87,8 Jun 2027 08:15:07.243,8 Jun 2027 08:26:40.248,693.004
88,8 Jun 2027 09:50:13.172,8 Jun 2027 10:00:44.274,631.102
89,8 Jun 2027 11:24:34.547,8 Jun 2027 11:35:12.613,638.066
90,8 Jun 2027 12:58:39.458,8 Jun 2027 13:10:25.779,706.322
91,8 Jun 2027 14:33:21.647,8 Jun 2027 14:46:10.032,768.385
92,8 Jun 2027 16:09:24.260,8 Jun 2027 16:22:07.742,763.482
93,8 Jun 2027 17:47:19.500,8 Jun 2027 17:58:03.561,644.061
94,8 Jun 2027 19:28:02.163,8 Jun 2027 19:33:16.936,314.773
95,9 Jun 2027 02:03:57.347,9 Jun 2027 02:11:28.432,451.084
96,9 Jun 2027 03:39:34.272,9 Jun 2027 03:51:09.098,694.826
97,9 Jun 2027 05:15:32.548,9 Jun 2027 05:28:27.304,774.756
98,9 Jun 2027 06:51:27.817,9 Jun 2027 07:04:02.406,754.589
99,9 Jun 2027 08:27:04.854,9 Jun 2027 08:38:28.166,683.311
100,9 Jun 2027 10:02:05.205,9 Jun 2027 10:12:32.620,627.415
101,9 Jun 2027 11:36:22.015,9 Jun 2027 11:47:06.465,644.450
102,9 Jun 2027 13:10:28.655,9 Jun 2027 13:22:24.620,715.965
103,9 Jun 2027 14:45:18.967,9 Jun 2027 14:58:11.440,772.474
104,9 Jun 2027 16:21:34.045,9 Jun 2027 16:34:09.800,755.756
105,9 Jun 2027 17:59:46.034,9 Jun 2027 18:10:03.901,617.867
106,9 Jun 2027 19:41:05.161,9 Jun 2027 19:44:57.256,232.095
107,10 Jun 2027 02:15:53.176,10 Jun 2027 02:24:08.886,495.710
108,10 Jun 2027 03:51:35.791,10 Jun 2027 04:03:27.850,712.059
109,10 Jun 2027 05:27:34.548,10 Jun 2027 05:40:31.341,776.793
110,10 Jun 2027 07:03:28.400,10 Jun 2027 07:15:55.652,747.252
111,10 Jun 2027 08:39:01.869,10 Jun 2027 08:50:15.732,673.863
112,10 Jun 2027 10:13:56.479,10 Jun 2027 10:24:21.489,625.010
113,10 Jun 2027 11:48:09.285,10 Jun 2027 11:59:01.066,651.782
114,10 Jun 2027 13:22:18.564,10 Jun 2027 13:34:23.908,725.343
115,10 Jun 2027 14:57:17.651,10 Jun 2027 15:10:13.028,775.377
116,10 Jun 2027 16:33:45.663,10 Jun 2027 16:46:11.807,746.143
117,10 Jun 2027 18:12:15.168,10 Jun 2027 18:22:03.661,588.493
118,10 Jun 2027 19:54:37.374,10 Jun 2027 19:56:10.409,93.035
119,11 Jun 2027 02:27:50.560,11 Jun 2027 02:36:45.695,535.135
120,11 Jun 2027 04:03:37.501,11 Jun 2027 04:15:44.508,727.006
121,11 Jun 2027 05:39:36.467,11 Jun 2027 05:52:33.804,777.337
122,11 Jun 2027 07:15:28.669,11 Jun 2027 07:27:47.853,739.184
123,11 Jun 2027 08:50:58.251,11 Jun 2027 09:02:03.063,664.811
124,11 Jun 2027 10:25:47.012,11 Jun 2027 10:36:10.962,623.951
125,11 Jun 2027 11:59:56.486,11 Jun 2027 12:10:56.387,659.901
126,11 Jun 2027 13:34:09.296,11 Jun 2027 13:46:23.610,734.314
127,11 Jun 2027 15:09:17.756,11 Jun 2027 15:22:14.768,777.012
128,11 Jun 2027 16:45:59.195,11 Jun 2027 16:58:13.730,734.534
129,11 Jun 2027 18:24:47.083,11 Jun 2027 18:34:02.682,555.600
130,12 Jun 2027 02:39:49.078,12 Jun 2027 02:49:19.294,570.216
131,12 Jun 2027 04:15:39.368,12 Jun 2027 04:27:59.148,739.780
132,12 Jun 2027 05:51:38.278,12 Jun 2027 06:04:34.747,776.469
133,12 Jun 2027 07:27:28.583,12 Jun 2027 07:39:39.099,730.516
134,12 Jun 2027 09:02:53.959,12 Jun 2027 09:13:50.280,656.322
135,12 Jun 2027 10:37:36.853,12 Jun 2027 10:48:01.104,624.251
136,12 Jun 2027 12:11:43.733,12 Jun 2027 12:22:52.398,668.665
137,12 Jun 2027 13:46:00.938,12 Jun 2027 13:58:23.683,742.744
138,12 Jun 2027 15:21:19.342,12 Jun 2027 15:34:16.630,777.288
139,12 Jun 2027 16:58:14.694,12 Jun 2027 17:10:15.529,720.834
140,12 Jun 2027 18:37:22.036,12 Jun 2027 18:46:00.735,518.699
141,13 Jun 2027 01:17:14.535,13 Jun 2027 01:20:02.029,167.494
142,13 Jun 2027 02:51:48.451,13 Jun 2027 03:01:49.982,601.531
143,13 Jun 2027 04:27:41.335,13 Jun 2027 04:40:11.847,750.513
144,13 Jun 2027 06:03:39.953,13 Jun 2027 06:16:34.231,774.278
145,13 Jun 2027 07:39:28.109,13 Jun 2027 07:51:29.467,721.358
146,13 Jun 2027 09:14:48.965,13 Jun 2027 09:25:37.504,648.539
147,13 Jun 2027 10:49:26.052,13 Jun 2027 10:59:51.961,625.909
148,13 Jun 2027 12:23:31.147,13 Jun 2027 12:34:49.063,677.916
149,13 Jun 2027 13:57:53.579,13 Jun 2027 14:10:24.097,750.518
150,13 Jun 2027 15:33:22.482,13 Jun 2027 15:46:18.580,776.099
151,13 Jun 2027 17:10:32.252,13 Jun 2027 17:22:17.157,704.905
152,13 Jun 2027 18:50:00.360,13 Jun 2027 18:57:57.494,477.134
