dataset/facility_timing/facility_Facility-Murmansk2/Murmansk2-To-KinoSat_110810.csv

Acces,Start Time (UTCG),Stop Time (UTCG),Duration (sec)
1,1 Jun 2027 01:17:30.382,1 Jun 2027 01:30:12.781,762.399
2,1 Jun 2027 02:53:27.342,1 Jun 2027 03:06:16.329,768.986
3,1 Jun 2027 04:29:11.031,1 Jun 2027 04:40:59.321,708.290
4,1 Jun 2027 06:04:23.894,1 Jun 2027 06:15:04.774,640.880
5,1 Jun 2027 07:38:52.413,1 Jun 2027 07:49:26.066,633.653
6,1 Jun 2027 09:12:56.901,1 Jun 2027 09:24:31.372,694.472
7,1 Jun 2027 10:47:29.398,1 Jun 2027 11:00:10.903,761.505
8,1 Jun 2027 12:23:15.866,1 Jun 2027 12:36:06.577,770.711
9,1 Jun 2027 14:00:49.449,1 Jun 2027 14:12:03.096,673.647
10,1 Jun 2027 15:40:55.267,1 Jun 2027 15:47:30.215,394.948
11,1 Jun 2027 22:18:13.422,1 Jun 2027 22:24:22.566,369.145
12,1 Jun 2027 23:53:36.049,2 Jun 2027 00:04:40.083,664.034
13,2 Jun 2027 01:29:32.082,2 Jun 2027 01:42:20.614,768.532
14,2 Jun 2027 03:05:28.201,2 Jun 2027 03:18:12.239,764.037
15,2 Jun 2027 04:41:09.077,2 Jun 2027 04:52:47.813,698.736
16,2 Jun 2027 06:16:16.759,2 Jun 2027 06:26:52.395,635.636
17,2 Jun 2027 07:50:40.189,2 Jun 2027 08:01:18.607,638.418
18,2 Jun 2027 09:24:45.144,2 Jun 2027 09:36:29.195,704.051
19,2 Jun 2027 10:59:24.752,2 Jun 2027 11:12:11.663,766.911
20,2 Jun 2027 12:35:22.935,2 Jun 2027 12:48:08.282,765.347
21,2 Jun 2027 14:13:12.320,2 Jun 2027 14:24:03.605,651.285
22,2 Jun 2027 15:53:45.638,2 Jun 2027 15:59:19.459,333.821
23,2 Jun 2027 22:30:04.912,2 Jun 2027 22:37:09.542,424.629
24,3 Jun 2027 00:05:36.760,3 Jun 2027 00:17:01.677,684.917
25,3 Jun 2027 01:41:33.781,3 Jun 2027 01:54:26.750,772.969
26,3 Jun 2027 03:17:28.827,3 Jun 2027 03:30:06.933,758.106
27,3 Jun 2027 04:53:06.600,3 Jun 2027 05:04:35.791,689.192
28,3 Jun 2027 06:28:08.875,3 Jun 2027 06:38:40.397,631.522
29,3 Jun 2027 08:02:27.633,3 Jun 2027 08:13:11.892,644.259
30,3 Jun 2027 09:36:33.957,3 Jun 2027 09:48:27.515,713.559
31,3 Jun 2027 11:11:21.360,3 Jun 2027 11:24:12.640,771.279
32,3 Jun 2027 12:47:31.742,3 Jun 2027 13:00:09.976,758.234
33,3 Jun 2027 14:25:37.573,3 Jun 2027 14:36:03.697,626.124
34,3 Jun 2027 16:06:44.644,3 Jun 2027 16:11:02.132,257.488
35,3 Jun 2027 22:41:59.205,3 Jun 2027 22:49:51.637,472.432
36,4 Jun 2027 00:17:37.769,4 Jun 2027 00:29:21.058,703.289
37,4 Jun 2027 01:53:35.439,4 Jun 2027 02:06:31.237,775.798
38,4 Jun 2027 03:29:29.188,4 Jun 2027 03:42:00.484,751.296
39,4 Jun 2027 05:05:03.564,4 Jun 2027 05:16:23.382,679.818
40,4 Jun 2027 06:40:00.244,4 Jun 2027 06:50:28.884,628.640
41,4 Jun 2027 08:14:14.855,4 Jun 2027 08:25:05.917,651.063
42,4 Jun 2027 09:48:23.443,4 Jun 2027 10:00:26.295,722.852
43,4 Jun 2027 11:23:19.285,4 Jun 2027 11:36:13.805,774.520
44,4 Jun 2027 12:59:42.343,4 Jun 2027 13:12:11.630,749.287
45,4 Jun 2027 14:38:05.351,4 Jun 2027 14:48:03.248,597.897
46,4 Jun 2027 16:20:02.814,4 Jun 2027 16:22:27.683,144.869
47,4 Jun 2027 22:53:55.377,4 Jun 2027 23:02:29.784,514.406
48,5 Jun 2027 00:29:38.998,5 Jun 2027 00:41:38.319,719.322
49,5 Jun 2027 02:05:37.031,5 Jun 2027 02:18:34.143,777.112
50,5 Jun 2027 03:41:29.252,5 Jun 2027 03:53:52.973,743.720
51,5 Jun 2027 05:16:59.919,5 Jun 2027 05:28:10.685,670.766
52,5 Jun 2027 06:51:50.884,5 Jun 2027 07:02:17.920,627.035
53,5 Jun 2027 08:26:01.952,5 Jun 2027 08:37:00.662,658.710
54,5 Jun 2027 10:00:13.688,5 Jun 2027 10:12:25.495,731.808
55,5 Jun 2027 11:35:18.595,5 Jun 2027 11:48:15.123,776.528
56,5 Jun 2027 13:11:54.801,5 Jun 2027 13:24:13.206,738.405
57,5 Jun 2027 14:50:35.828,5 Jun 2027 15:00:02.111,566.283
58,5 Jun 2027 23:05:52.889,5 Jun 2027 23:15:04.528,551.639
59,6 Jun 2027 00:41:40.409,6 Jun 2027 00:53:53.553,733.144
60,6 Jun 2027 02:17:38.527,6 Jun 2027 02:30:35.524,776.997
61,6 Jun 2027 03:53:28.986,6 Jun 2027 04:05:44.481,735.495
62,6 Jun 2027 05:28:55.630,6 Jun 2027 05:39:57.826,662.196
63,6 Jun 2027 07:03:40.834,6 Jun 2027 07:14:07.588,626.754
64,6 Jun 2027 08:37:49.053,6 Jun 2027 08:48:56.092,667.039
65,6 Jun 2027 10:12:04.802,6 Jun 2027 10:24:25.074,740.272
66,6 Jun 2027 11:47:19.342,6 Jun 2027 12:00:16.574,777.232
67,6 Jun 2027 13:24:09.187,6 Jun 2027 13:36:14.676,725.489
68,6 Jun 2027 15:03:09.239,6 Jun 2027 15:12:00.081,530.843
69,6 Jun 2027 21:44:08.957,6 Jun 2027 21:44:49.756,40.799
70,6 Jun 2027 23:17:51.411,6 Jun 2027 23:27:36.223,584.811
71,7 Jun 2027 00:53:41.944,7 Jun 2027 01:06:06.822,744.878
72,7 Jun 2027 02:29:39.909,7 Jun 2027 02:42:35.439,775.530
73,7 Jun 2027 04:05:28.352,7 Jun 2027 04:17:35.084,726.732
74,7 Jun 2027 05:40:50.672,7 Jun 2027 05:51:44.915,654.243
75,7 Jun 2027 07:15:30.126,7 Jun 2027 07:25:57.929,627.803
76,7 Jun 2027 08:49:36.271,7 Jun 2027 09:00:52.184,675.913
77,7 Jun 2027 10:23:56.854,7 Jun 2027 10:36:25.002,748.148
78,7 Jun 2027 11:59:21.589,7 Jun 2027 12:12:18.129,776.540
79,7 Jun 2027 13:36:25.575,7 Jun 2027 13:48:15.982,710.408
80,7 Jun 2027 15:15:45.877,7 Jun 2027 15:23:56.870,490.992
81,7 Jun 2027 21:55:03.370,7 Jun 2027 21:58:39.936,216.566
82,7 Jun 2027 23:29:50.693,7 Jun 2027 23:40:05.130,614.437
83,8 Jun 2027 01:05:43.572,8 Jun 2027 01:18:18.210,754.639
84,8 Jun 2027 02:41:41.138,8 Jun 2027 02:54:33.950,772.812
85,8 Jun 2027 04:17:27.317,8 Jun 2027 04:29:24.888,717.570
86,8 Jun 2027 05:52:44.999,8 Jun 2027 06:03:32.071,647.072
87,8 Jun 2027 07:27:18.834,8 Jun 2027 07:37:48.988,630.153
88,8 Jun 2027 09:01:23.720,8 Jun 2027 09:12:48.891,685.171
89,8 Jun 2027 10:35:49.946,8 Jun 2027 10:48:25.240,755.294
90,8 Jun 2027 12:11:25.391,8 Jun 2027 12:24:19.761,774.369
91,8 Jun 2027 13:48:44.038,8 Jun 2027 14:00:17.089,693.051
92,8 Jun 2027 15:28:26.211,8 Jun 2027 15:35:52.040,445.830
93,8 Jun 2027 22:06:41.150,8 Jun 2027 22:11:44.708,303.558
94,8 Jun 2027 23:41:50.570,8 Jun 2027 23:52:31.437,640.867
95,9 Jun 2027 01:17:45.257,9 Jun 2027 01:30:27.769,762.512
96,9 Jun 2027 02:53:42.196,9 Jun 2027 03:06:31.109,768.913
97,9 Jun 2027 04:29:25.832,9 Jun 2027 04:41:13.972,708.140
98,9 Jun 2027 06:04:38.602,9 Jun 2027 06:15:19.407,640.806
99,9 Jun 2027 07:39:07.029,9 Jun 2027 07:49:40.783,633.753
100,9 Jun 2027 09:13:11.522,9 Jun 2027 09:24:46.179,694.657
101,9 Jun 2027 10:47:44.142,9 Jun 2027 11:00:25.756,761.614
102,9 Jun 2027 12:23:30.820,9 Jun 2027 12:36:21.441,770.622
103,9 Jun 2027 14:01:04.675,9 Jun 2027 14:12:17.932,673.257
104,9 Jun 2027 15:41:10.963,9 Jun 2027 15:47:44.862,393.899
105,9 Jun 2027 22:18:28.124,9 Jun 2027 22:24:38.235,370.112
106,9 Jun 2027 23:53:50.912,10 Jun 2027 00:04:55.306,664.395
107,10 Jun 2027 01:29:46.954,10 Jun 2027 01:42:35.571,768.617
108,10 Jun 2027 03:05:43.049,10 Jun 2027 03:18:26.998,763.948
109,10 Jun 2027 04:41:23.867,10 Jun 2027 04:53:02.454,698.588
110,10 Jun 2027 06:16:31.452,10 Jun 2027 06:27:07.034,635.582
111,10 Jun 2027 07:50:54.797,10 Jun 2027 08:01:33.336,638.538
112,10 Jun 2027 09:24:59.774,10 Jun 2027 09:36:44.009,704.235
113,10 Jun 2027 10:59:39.518,10 Jun 2027 11:12:26.519,767.001
114,10 Jun 2027 12:35:37.914,10 Jun 2027 12:48:23.145,765.230
115,10 Jun 2027 14:13:27.588,10 Jun 2027 14:24:18.432,650.844
116,10 Jun 2027 15:54:01.461,10 Jun 2027 15:59:34.013,332.553
117,10 Jun 2027 22:30:19.667,10 Jun 2027 22:37:25.120,425.452
118,11 Jun 2027 00:05:51.626,11 Jun 2027 00:17:16.862,685.235
119,11 Jun 2027 01:41:48.651,11 Jun 2027 01:54:41.678,773.027
120,11 Jun 2027 03:17:43.669,11 Jun 2027 03:30:21.672,758.002
121,11 Jun 2027 04:53:21.379,11 Jun 2027 05:04:50.425,689.047
122,11 Jun 2027 06:28:23.553,11 Jun 2027 06:38:55.044,631.491
123,11 Jun 2027 08:02:42.236,11 Jun 2027 08:13:26.633,644.397
124,11 Jun 2027 09:36:48.597,11 Jun 2027 09:48:42.336,713.739
125,11 Jun 2027 11:11:36.148,11 Jun 2027 11:24:27.497,771.350
126,11 Jun 2027 12:47:46.752,11 Jun 2027 13:00:24.836,758.084
127,11 Jun 2027 14:25:52.885,11 Jun 2027 14:36:18.512,625.627
128,11 Jun 2027 16:07:00.685,11 Jun 2027 16:11:16.503,255.818
129,11 Jun 2027 22:42:13.993,11 Jun 2027 22:50:07.143,473.150
130,12 Jun 2027 00:17:52.638,12 Jun 2027 00:29:36.205,703.568
131,12 Jun 2027 01:53:50.306,12 Jun 2027 02:06:46.137,775.830
132,12 Jun 2027 03:29:44.024,12 Jun 2027 03:42:15.204,751.180
133,12 Jun 2027 05:05:18.331,12 Jun 2027 05:16:38.010,679.680
134,12 Jun 2027 06:40:14.908,12 Jun 2027 06:50:43.540,628.632
135,12 Jun 2027 08:14:29.454,12 Jun 2027 08:25:20.670,651.216
136,12 Jun 2027 09:48:38.096,12 Jun 2027 10:00:41.123,723.027
137,12 Jun 2027 11:23:34.096,12 Jun 2027 11:36:28.665,774.568
138,12 Jun 2027 12:59:57.385,12 Jun 2027 13:12:26.487,749.102
139,12 Jun 2027 14:38:20.710,12 Jun 2027 14:48:18.049,597.339
140,12 Jun 2027 16:20:19.542,12 Jun 2027 16:22:41.401,141.858
141,12 Jun 2027 22:54:10.190,12 Jun 2027 23:02:45.230,515.040
142,13 Jun 2027 00:29:53.869,13 Jun 2027 00:41:53.431,719.562
143,13 Jun 2027 02:05:51.895,13 Jun 2027 02:18:49.016,777.120
144,13 Jun 2027 03:41:44.081,13 Jun 2027 03:54:07.675,743.594
145,13 Jun 2027 05:17:14.673,13 Jun 2027 05:28:25.311,670.638
146,13 Jun 2027 06:52:05.535,13 Jun 2027 07:02:32.586,627.051
147,13 Jun 2027 08:26:16.550,13 Jun 2027 08:37:15.427,658.877
148,13 Jun 2027 10:00:28.355,13 Jun 2027 10:12:40.328,731.974
149,13 Jun 2027 11:35:33.430,13 Jun 2027 11:48:29.982,776.552
150,13 Jun 2027 13:12:09.876,13 Jun 2027 13:24:28.059,738.183
151,13 Jun 2027 14:50:51.239,13 Jun 2027 15:00:16.894,565.656
152,13 Jun 2027 23:06:07.719,13 Jun 2027 23:15:19.920,552.201
