dataset/facility_timing/facility_Facility-Murmansk2/Murmansk2-To-KinoSat_110405.csv

Acces,Start Time (UTCG),Stop Time (UTCG),Duration (sec)
1,1 Jun 2027 00:46:58.202,1 Jun 2027 00:59:43.206,765.004
2,1 Jun 2027 02:22:39.523,1 Jun 2027 02:34:20.056,700.533
3,1 Jun 2027 03:57:48.074,1 Jun 2027 04:08:24.765,636.691
4,1 Jun 2027 05:32:12.359,1 Jun 2027 05:42:50.103,637.744
5,1 Jun 2027 07:06:17.211,1 Jun 2027 07:17:59.757,702.545
6,1 Jun 2027 08:40:55.592,1 Jun 2027 08:53:41.691,766.099
7,1 Jun 2027 10:16:51.767,1 Jun 2027 10:29:38.094,766.327
8,1 Jun 2027 11:54:38.452,1 Jun 2027 12:05:33.556,655.104
9,1 Jun 2027 13:35:06.961,1 Jun 2027 13:40:51.402,344.441
10,1 Jun 2027 20:11:36.596,1 Jun 2027 20:18:31.704,415.109
11,1 Jun 2027 21:47:06.863,1 Jun 2027 21:58:28.174,681.312
12,1 Jun 2027 23:23:03.654,1 Jun 2027 23:35:55.929,772.275
13,2 Jun 2027 00:58:58.837,2 Jun 2027 01:11:38.091,759.255
14,2 Jun 2027 02:34:37.110,2 Jun 2027 02:46:08.102,690.992
15,2 Jun 2027 04:09:40.298,2 Jun 2027 04:20:12.677,632.380
16,2 Jun 2027 05:43:59.837,2 Jun 2027 05:54:43.236,643.398
17,2 Jun 2027 07:18:05.904,2 Jun 2027 07:29:57.967,712.063
18,2 Jun 2027 08:52:51.959,2 Jun 2027 09:05:42.594,770.634
19,2 Jun 2027 10:29:00.245,2 Jun 2027 10:41:39.757,759.511
20,2 Jun 2027 12:07:03.258,2 Jun 2027 12:17:33.690,630.432
21,2 Jun 2027 13:48:04.174,2 Jun 2027 13:52:35.438,271.265
22,2 Jun 2027 20:23:30.413,2 Jun 2027 20:31:14.557,464.144
23,2 Jun 2027 21:59:07.782,2 Jun 2027 22:10:47.904,700.123
24,2 Jun 2027 23:35:05.284,2 Jun 2027 23:48:00.673,775.389
25,3 Jun 2027 01:10:59.214,3 Jun 2027 01:23:31.819,752.605
26,3 Jun 2027 02:46:34.147,3 Jun 2027 02:57:55.739,681.592
27,3 Jun 2027 04:21:31.776,3 Jun 2027 04:32:01.058,629.282
28,3 Jun 2027 05:55:47.079,3 Jun 2027 06:06:37.105,650.027
29,3 Jun 2027 07:29:55.256,3 Jun 2027 07:41:56.638,721.382
30,3 Jun 2027 09:04:49.634,3 Jun 2027 09:17:43.692,774.058
31,3 Jun 2027 10:41:10.505,3 Jun 2027 10:53:41.385,750.880
32,3 Jun 2027 12:19:30.560,3 Jun 2027 12:29:33.303,602.743
33,3 Jun 2027 14:01:17.368,3 Jun 2027 14:04:05.535,168.166
34,3 Jun 2027 20:35:26.244,3 Jun 2027 20:43:53.330,507.086
35,3 Jun 2027 22:11:08.940,3 Jun 2027 22:23:05.503,716.563
36,3 Jun 2027 23:47:06.856,4 Jun 2027 00:00:03.828,776.972
37,4 Jun 2027 01:22:59.301,4 Jun 2027 01:35:24.470,745.169
38,4 Jun 2027 02:58:30.583,4 Jun 2027 03:09:43.071,672.488
39,4 Jun 2027 04:33:22.523,4 Jun 2027 04:43:49.974,627.451
40,4 Jun 2027 06:07:34.179,4 Jun 2027 06:18:31.702,657.524
41,4 Jun 2027 07:41:45.349,4 Jun 2027 07:53:55.735,730.386
42,4 Jun 2027 09:16:48.680,4 Jun 2027 09:29:44.955,776.274
43,4 Jun 2027 10:53:22.609,4 Jun 2027 11:05:42.943,740.334
44,4 Jun 2027 12:32:00.524,4 Jun 2027 12:41:32.258,571.733
45,4 Jun 2027 20:47:23.496,4 Jun 2027 20:56:28.619,545.122
46,4 Jun 2027 22:23:10.287,4 Jun 2027 22:35:21.056,730.769
47,4 Jun 2027 23:59:08.336,5 Jun 2027 00:12:05.454,777.118
48,5 Jun 2027 01:34:59.064,5 Jun 2027 01:47:16.128,737.064
49,5 Jun 2027 03:10:26.383,5 Jun 2027 03:21:30.217,663.835
50,5 Jun 2027 04:45:12.570,5 Jun 2027 04:55:39.507,626.937
51,5 Jun 2027 06:19:21.261,5 Jun 2027 06:30:26.989,665.727
52,5 Jun 2027 07:53:36.289,5 Jun 2027 08:05:55.222,738.933
53,5 Jun 2027 09:28:49.149,5 Jun 2027 09:41:46.357,777.207
54,5 Jun 2027 11:05:36.624,5 Jun 2027 11:17:44.397,727.773
55,5 Jun 2027 12:44:33.378,5 Jun 2027 12:53:30.357,536.980
56,5 Jun 2027 20:59:21.812,5 Jun 2027 21:09:00.798,578.986
57,5 Jun 2027 22:35:11.767,5 Jun 2027 22:47:34.637,742.869
58,6 Jun 2027 00:11:09.709,6 Jun 2027 00:24:05.595,775.886
59,6 Jun 2027 01:46:58.466,6 Jun 2027 01:59:06.866,728.400
60,6 Jun 2027 03:22:21.516,6 Jun 2027 03:33:17.289,655.773
61,6 Jun 2027 04:57:01.960,6 Jun 2027 05:07:29.706,627.746
62,6 Jun 2027 06:31:08.439,6 Jun 2027 06:42:22.934,674.494
63,6 Jun 2027 08:05:28.165,6 Jun 2027 08:17:55.060,746.895
64,6 Jun 2027 09:40:51.111,6 Jun 2027 09:53:47.859,776.748
65,6 Jun 2027 11:17:52.632,6 Jun 2027 11:29:45.707,713.074
66,6 Jun 2027 12:57:09.401,6 Jun 2027 13:05:27.337,497.936
67,6 Jun 2027 19:36:39.826,6 Jun 2027 19:39:55.881,196.055
68,6 Jun 2027 21:11:20.925,6 Jun 2027 21:21:30.152,609.227
69,6 Jun 2027 22:47:13.343,6 Jun 2027 22:59:46.323,752.981
70,7 Jun 2027 00:23:10.937,7 Jun 2027 00:36:04.326,773.389
71,7 Jun 2027 01:58:57.472,7 Jun 2027 02:10:56.788,719.317
72,7 Jun 2027 03:34:15.954,7 Jun 2027 03:45:04.413,648.459
73,7 Jun 2027 05:08:50.752,7 Jun 2027 05:19:20.614,629.862
74,7 Jun 2027 06:42:55.830,7 Jun 2027 06:54:19.509,683.680
75,7 Jun 2027 08:17:21.047,7 Jun 2027 08:29:55.214,754.167
76,7 Jun 2027 09:52:54.618,7 Jun 2027 10:05:49.445,774.826
77,7 Jun 2027 11:30:10.700,7 Jun 2027 11:41:46.817,696.117
78,7 Jun 2027 13:09:49.024,7 Jun 2027 13:17:22.778,453.754
79,7 Jun 2027 19:48:14.597,7 Jun 2027 19:53:03.946,289.349
80,7 Jun 2027 21:23:20.665,7 Jun 2027 21:33:56.886,636.221
81,7 Jun 2027 22:59:14.985,7 Jun 2027 23:11:56.178,761.193
82,8 Jun 2027 00:35:11.991,8 Jun 2027 00:48:01.702,769.711
83,8 Jun 2027 02:10:56.042,8 Jun 2027 02:22:45.980,709.938
84,8 Jun 2027 03:46:09.660,8 Jun 2027 03:56:51.696,642.036
85,8 Jun 2027 05:20:39.018,8 Jun 2027 05:31:12.256,633.238
86,8 Jun 2027 06:54:43.551,8 Jun 2027 07:06:16.666,693.115
87,8 Jun 2027 08:29:15.031,8 Jun 2027 08:41:55.647,760.616
88,8 Jun 2027 10:04:59.726,8 Jun 2027 10:17:51.086,771.360
89,8 Jun 2027 11:42:30.915,8 Jun 2027 11:53:47.673,676.758
90,8 Jun 2027 13:22:32.914,8 Jun 2027 13:29:16.025,403.111
91,8 Jun 2027 20:00:00.316,8 Jun 2027 20:05:59.017,358.701
92,8 Jun 2027 21:35:20.894,8 Jun 2027 21:46:21.149,660.255
93,8 Jun 2027 23:11:16.651,8 Jun 2027 23:24:04.260,767.609
94,9 Jun 2027 00:47:12.855,9 Jun 2027 00:59:57.789,764.935
95,9 Jun 2027 02:22:54.137,9 Jun 2027 02:34:34.548,700.411
96,9 Jun 2027 03:58:02.625,9 Jun 2027 04:08:39.249,636.625
97,9 Jun 2027 05:32:26.847,9 Jun 2027 05:43:04.650,637.804
98,9 Jun 2027 07:06:31.707,9 Jun 2027 07:18:14.372,702.664
99,9 Jun 2027 08:41:10.179,9 Jun 2027 08:53:56.340,766.161
100,9 Jun 2027 10:17:06.501,9 Jun 2027 10:29:52.755,766.254
101,9 Jun 2027 11:54:53.387,9 Jun 2027 12:05:48.203,654.816
102,9 Jun 2027 13:35:22.255,9 Jun 2027 13:41:05.892,343.637
103,9 Jun 2027 20:11:51.137,9 Jun 2027 20:18:46.913,415.776
104,9 Jun 2027 21:47:21.511,9 Jun 2027 21:58:43.076,681.565
105,9 Jun 2027 23:23:18.314,9 Jun 2027 23:36:10.639,772.325
106,10 Jun 2027 00:59:13.483,10 Jun 2027 01:11:52.659,759.176
107,10 Jun 2027 02:34:51.718,10 Jun 2027 02:46:22.588,690.871
108,10 Jun 2027 04:09:54.837,10 Jun 2027 04:20:27.167,632.330
109,10 Jun 2027 05:44:14.320,10 Jun 2027 05:54:57.793,643.473
110,10 Jun 2027 07:18:20.407,10 Jun 2027 07:30:12.586,712.179
111,10 Jun 2027 08:53:06.562,10 Jun 2027 09:05:57.246,770.684
112,10 Jun 2027 10:29:15.002,10 Jun 2027 10:41:54.417,759.415
113,10 Jun 2027 12:07:18.222,10 Jun 2027 12:17:48.330,630.107
114,10 Jun 2027 13:48:19.596,10 Jun 2027 13:52:49.826,270.229
115,10 Jun 2027 20:23:44.986,10 Jun 2027 20:31:29.708,464.722
116,10 Jun 2027 21:59:22.433,10 Jun 2027 22:11:02.778,700.345
117,10 Jun 2027 23:35:19.943,10 Jun 2027 23:48:15.362,775.418
118,11 Jun 2027 01:11:13.857,11 Jun 2027 01:23:46.372,752.515
119,11 Jun 2027 02:46:48.746,11 Jun 2027 02:58:10.220,681.474
120,11 Jun 2027 04:21:46.305,11 Jun 2027 04:32:15.554,629.249
121,11 Jun 2027 05:56:01.558,11 Jun 2027 06:06:51.671,650.114
122,11 Jun 2027 07:30:09.767,11 Jun 2027 07:42:11.263,721.496
123,11 Jun 2027 09:05:04.253,11 Jun 2027 09:17:58.351,774.098
124,11 Jun 2027 10:41:25.284,11 Jun 2027 10:53:56.045,750.761
125,11 Jun 2027 12:19:45.557,11 Jun 2027 12:29:47.935,602.378
126,11 Jun 2027 14:01:33.128,11 Jun 2027 14:04:19.610,166.482
127,11 Jun 2027 20:35:40.840,11 Jun 2027 20:44:08.432,507.592
128,11 Jun 2027 22:11:23.594,11 Jun 2027 22:23:20.350,716.755
129,11 Jun 2027 23:47:21.514,12 Jun 2027 00:00:18.497,776.983
130,12 Jun 2027 01:23:13.939,12 Jun 2027 01:35:39.010,745.071
131,12 Jun 2027 02:58:45.173,12 Jun 2027 03:09:57.550,672.376
132,12 Jun 2027 04:33:37.042,12 Jun 2027 04:44:04.477,627.435
133,12 Jun 2027 06:07:48.656,12 Jun 2027 06:18:46.278,657.622
134,12 Jun 2027 07:41:59.869,12 Jun 2027 07:54:10.365,730.496
135,12 Jun 2027 09:17:03.316,12 Jun 2027 09:29:59.610,776.294
136,12 Jun 2027 10:53:37.411,12 Jun 2027 11:05:57.601,740.189
137,12 Jun 2027 12:32:15.557,12 Jun 2027 12:41:46.879,571.322
138,12 Jun 2027 20:47:38.109,12 Jun 2027 20:56:43.679,545.570
139,12 Jun 2027 22:23:24.944,12 Jun 2027 22:35:35.877,730.933
140,12 Jun 2027 23:59:22.993,13 Jun 2027 00:12:20.103,777.111
141,13 Jun 2027 01:35:13.697,13 Jun 2027 01:47:30.657,736.959
142,13 Jun 2027 03:10:40.964,13 Jun 2027 03:21:44.695,663.731
143,13 Jun 2027 04:45:27.079,13 Jun 2027 04:55:54.019,626.940
144,13 Jun 2027 06:19:35.738,13 Jun 2027 06:30:41.573,665.835
145,13 Jun 2027 07:53:50.820,13 Jun 2027 08:06:09.857,739.038
146,13 Jun 2027 09:29:03.803,13 Jun 2027 09:42:01.014,777.210
147,13 Jun 2027 11:05:51.452,13 Jun 2027 11:17:59.053,727.601
148,13 Jun 2027 12:44:48.449,13 Jun 2027 12:53:44.968,536.519
149,13 Jun 2027 20:59:36.437,13 Jun 2027 21:09:15.821,579.384
150,13 Jun 2027 22:35:26.426,13 Jun 2027 22:47:49.433,743.007
