dataset/facility_timing/facility_Facility-Murmansk2/Murmansk2-To-KinoSat_111408.csv

Acces,Start Time (UTCG),Stop Time (UTCG),Duration (sec)
1,1 Jun 2027 01:13:38.438,1 Jun 2027 01:20:58.930,440.492
2,1 Jun 2027 02:49:13.527,1 Jun 2027 03:00:44.331,690.804
3,1 Jun 2027 04:25:11.408,1 Jun 2027 04:38:05.490,774.081
4,1 Jun 2027 06:01:06.706,1 Jun 2027 06:13:42.775,756.069
5,1 Jun 2027 07:36:44.177,1 Jun 2027 07:48:09.817,685.640
6,1 Jun 2027 09:11:45.462,1 Jun 2027 09:22:14.249,628.787
7,1 Jun 2027 10:46:03.114,1 Jun 2027 10:56:47.043,643.929
8,1 Jun 2027 12:20:09.513,1 Jun 2027 12:32:04.150,714.637
9,1 Jun 2027 13:54:58.427,1 Jun 2027 14:07:50.325,771.898
10,1 Jun 2027 15:31:11.314,1 Jun 2027 15:43:48.358,757.044
11,1 Jun 2027 17:09:20.401,1 Jun 2027 17:19:42.481,622.079
12,1 Jun 2027 18:50:33.224,1 Jun 2027 18:54:39.048,245.825
13,2 Jun 2027 01:25:33.720,2 Jun 2027 01:33:40.094,486.374
14,2 Jun 2027 03:01:14.879,2 Jun 2027 03:13:03.400,708.521
15,2 Jun 2027 04:37:13.312,2 Jun 2027 04:50:09.760,776.447
16,2 Jun 2027 06:13:07.240,2 Jun 2027 06:25:36.181,748.940
17,2 Jun 2027 07:48:41.220,2 Jun 2027 07:59:57.412,676.192
18,2 Jun 2027 09:23:36.815,2 Jun 2027 09:34:02.971,626.156
19,2 Jun 2027 10:57:50.379,2 Jun 2027 11:08:41.429,651.050
20,2 Jun 2027 12:31:59.249,2 Jun 2027 12:44:03.261,724.012
21,2 Jun 2027 14:06:56.800,2 Jun 2027 14:19:51.779,774.979
22,2 Jun 2027 15:43:22.511,2 Jun 2027 15:55:50.263,747.752
23,2 Jun 2027 17:21:48.964,2 Jun 2027 17:31:42.221,593.258
24,2 Jun 2027 19:03:56.931,2 Jun 2027 19:06:00.096,123.165
25,3 Jun 2027 01:37:30.679,3 Jun 2027 01:46:17.499,526.820
26,3 Jun 2027 03:13:16.443,3 Jun 2027 03:25:20.365,723.921
27,3 Jun 2027 04:49:15.142,3 Jun 2027 05:02:12.450,777.308
28,3 Jun 2027 06:25:07.470,3 Jun 2027 06:37:28.529,741.058
29,3 Jun 2027 08:00:37.637,3 Jun 2027 08:11:44.746,667.109
30,3 Jun 2027 09:35:27.424,3 Jun 2027 09:45:52.275,624.851
31,3 Jun 2027 11:09:37.551,3 Jun 2027 11:20:36.535,658.985
32,3 Jun 2027 12:43:49.783,3 Jun 2027 12:56:02.796,733.013
33,3 Jun 2027 14:18:56.576,3 Jun 2027 14:31:53.387,776.811
34,3 Jun 2027 15:55:35.605,3 Jun 2027 16:07:52.094,736.490
35,3 Jun 2027 17:34:20.270,3 Jun 2027 17:43:41.251,560.981
36,4 Jun 2027 01:49:28.848,4 Jun 2027 01:58:51.620,562.773
37,4 Jun 2027 03:25:18.166,4 Jun 2027 03:37:35.306,737.140
38,4 Jun 2027 05:01:16.868,4 Jun 2027 05:14:13.616,776.749
39,4 Jun 2027 06:37:07.361,4 Jun 2027 06:49:19.906,732.545
40,4 Jun 2027 08:12:33.394,4 Jun 2027 08:23:31.941,658.548
41,4 Jun 2027 09:47:17.339,4 Jun 2027 09:57:42.232,624.893
42,4 Jun 2027 11:21:24.748,4 Jun 2027 11:32:32.335,667.587
43,4 Jun 2027 12:55:41.207,4 Jun 2027 13:08:02.704,741.497
44,4 Jun 2027 14:30:57.819,4 Jun 2027 14:43:55.124,777.306
45,4 Jun 2027 16:07:50.647,4 Jun 2027 16:19:53.809,723.162
46,4 Jun 2027 17:46:54.564,4 Jun 2027 17:55:39.351,524.786
47,5 Jun 2027 00:27:06.697,5 Jun 2027 00:29:19.028,132.331
48,5 Jun 2027 02:01:27.933,5 Jun 2027 02:11:22.771,594.838
49,5 Jun 2027 03:37:20.005,5 Jun 2027 03:49:48.287,748.282
50,5 Jun 2027 05:13:18.470,5 Jun 2027 05:26:13.318,774.848
51,5 Jun 2027 06:49:06.863,5 Jun 2027 07:01:10.399,723.536
52,5 Jun 2027 08:24:28.458,5 Jun 2027 08:35:19.122,650.664
53,5 Jun 2027 09:59:06.606,5 Jun 2027 10:09:32.891,626.285
54,5 Jun 2027 11:33:12.088,5 Jun 2027 11:44:28.791,676.702
55,5 Jun 2027 13:07:33.609,5 Jun 2027 13:20:02.952,749.343
56,5 Jun 2027 14:43:00.595,5 Jun 2027 14:55:56.953,776.358
57,5 Jun 2027 16:20:07.729,5 Jun 2027 16:31:55.355,707.626
58,5 Jun 2027 17:59:32.163,5 Jun 2027 18:07:36.218,484.055
59,6 Jun 2027 00:38:29.940,6 Jun 2027 00:42:40.437,250.496
60,6 Jun 2027 02:13:27.715,6 Jun 2027 02:23:51.191,623.477
61,6 Jun 2027 03:49:21.920,6 Jun 2027 04:01:59.391,757.471
62,6 Jun 2027 05:25:19.913,6 Jun 2027 05:38:11.616,771.703
63,6 Jun 2027 07:01:05.950,6 Jun 2027 07:13:00.099,714.149
64,6 Jun 2027 08:36:22.795,6 Jun 2027 08:47:06.401,643.606
65,6 Jun 2027 10:10:55.291,6 Jun 2027 10:21:24.286,628.996
66,6 Jun 2027 11:44:59.696,6 Jun 2027 11:56:25.865,686.169
67,6 Jun 2027 13:19:27.072,6 Jun 2027 13:32:03.509,756.437
68,6 Jun 2027 14:55:04.955,6 Jun 2027 15:07:58.858,773.903
69,6 Jun 2027 16:32:26.918,6 Jun 2027 16:43:56.692,689.774
70,6 Jun 2027 18:12:13.559,6 Jun 2027 18:19:31.381,437.821
71,7 Jun 2027 00:50:12.251,7 Jun 2027 00:55:40.712,328.461
72,7 Jun 2027 02:25:28.037,7 Jun 2027 02:36:17.053,649.016
73,7 Jun 2027 04:01:23.881,7 Jun 2027 04:14:08.673,764.792
74,7 Jun 2027 05:37:21.167,7 Jun 2027 05:50:08.574,767.407
75,7 Jun 2027 07:13:04.583,7 Jun 2027 07:24:49.111,704.528
76,7 Jun 2027 08:48:16.386,7 Jun 2027 08:58:53.896,637.510
77,7 Jun 2027 10:22:43.477,7 Jun 2027 10:33:16.438,632.961
78,7 Jun 2027 11:56:47.677,7 Jun 2027 12:08:23.513,695.836
79,7 Jun 2027 13:31:21.674,7 Jun 2027 13:44:04.332,762.658
80,7 Jun 2027 15:07:10.957,7 Jun 2027 15:20:00.807,769.851
81,7 Jun 2027 16:44:48.312,7 Jun 2027 16:55:57.751,669.439
82,7 Jun 2027 18:24:59.542,7 Jun 2027 18:31:24.039,384.497
83,8 Jun 2027 01:02:01.486,8 Jun 2027 01:08:32.002,390.515
84,8 Jun 2027 02:37:28.794,8 Jun 2027 02:48:40.497,671.703
85,8 Jun 2027 04:13:25.843,8 Jun 2027 04:26:16.199,770.356
86,8 Jun 2027 05:49:22.210,8 Jun 2027 06:02:04.261,762.052
87,8 Jun 2027 07:25:02.707,8 Jun 2027 07:36:37.531,694.824
88,8 Jun 2027 09:00:09.213,8 Jun 2027 09:10:41.707,632.495
89,8 Jun 2027 10:34:31.242,8 Jun 2027 10:45:09.354,638.112
90,8 Jun 2027 12:08:36.146,8 Jun 2027 12:20:21.704,705.559
91,8 Jun 2027 13:43:17.488,8 Jun 2027 13:56:05.400,767.913
92,8 Jun 2027 15:19:18.666,8 Jun 2027 15:32:02.776,764.110
93,8 Jun 2027 16:57:12.013,8 Jun 2027 17:07:58.457,646.444
94,8 Jun 2027 18:37:51.595,8 Jun 2027 18:43:12.718,321.123
95,9 Jun 2027 01:13:54.479,9 Jun 2027 01:21:17.431,442.953
96,9 Jun 2027 02:49:29.892,9 Jun 2027 03:01:01.654,691.762
97,9 Jun 2027 04:25:27.793,9 Jun 2027 04:38:22.031,774.239
98,9 Jun 2027 06:01:23.012,9 Jun 2027 06:13:58.741,755.729
99,9 Jun 2027 07:37:00.295,9 Jun 2027 07:48:25.471,685.177
100,9 Jun 2027 09:12:01.277,9 Jun 2027 09:22:29.945,628.668
101,9 Jun 2027 10:46:18.702,9 Jun 2027 10:57:03.032,644.330
102,9 Jun 2027 12:20:25.218,9 Jun 2027 12:32:20.386,715.167
103,9 Jun 2027 13:55:14.582,9 Jun 2027 14:08:06.680,772.098
104,9 Jun 2027 15:31:28.144,9 Jun 2027 15:44:04.726,756.583
105,9 Jun 2027 17:09:38.144,9 Jun 2027 17:19:58.727,620.583
106,9 Jun 2027 18:50:53.229,9 Jun 2027 18:54:53.896,240.668
107,10 Jun 2027 01:25:49.853,10 Jun 2027 01:33:58.390,488.537
108,10 Jun 2027 03:01:31.255,10 Jun 2027 03:13:20.611,709.356
109,10 Jun 2027 04:37:29.692,10 Jun 2027 04:50:26.217,776.524
110,10 Jun 2027 06:13:23.529,10 Jun 2027 06:25:52.089,748.560
111,10 Jun 2027 07:48:57.304,10 Jun 2027 08:00:13.046,675.742
112,10 Jun 2027 09:23:52.589,10 Jun 2027 09:34:18.695,626.106
113,10 Jun 2027 10:58:05.959,10 Jun 2027 11:08:57.454,651.495
114,10 Jun 2027 12:32:14.995,10 Jun 2027 12:44:19.518,724.523
115,10 Jun 2027 14:07:13.028,10 Jun 2027 14:20:08.138,775.110
116,10 Jun 2027 15:43:39.439,10 Jun 2027 15:56:06.625,747.186
117,10 Jun 2027 17:22:06.849,10 Jun 2027 17:31:58.429,591.580
118,10 Jun 2027 19:04:19.726,10 Jun 2027 19:06:12.260,112.534
119,11 Jun 2027 01:37:46.878,11 Jun 2027 01:46:35.620,528.742
120,11 Jun 2027 03:13:32.828,11 Jun 2027 03:25:37.470,724.642
121,11 Jun 2027 04:49:31.512,11 Jun 2027 05:02:28.830,777.318
122,11 Jun 2027 06:25:23.744,11 Jun 2027 06:37:44.385,740.641
123,11 Jun 2027 08:00:53.685,11 Jun 2027 08:12:00.370,666.685
124,11 Jun 2027 09:35:43.160,11 Jun 2027 09:46:08.031,624.872
125,11 Jun 2027 11:09:53.130,11 Jun 2027 11:20:52.596,659.466
126,11 Jun 2027 12:44:05.573,11 Jun 2027 12:56:19.070,733.497
127,11 Jun 2027 14:19:12.880,11 Jun 2027 14:32:09.750,776.870
128,11 Jun 2027 15:55:52.635,11 Jun 2027 16:08:08.448,735.814
129,11 Jun 2027 17:34:38.309,11 Jun 2027 17:43:57.410,559.101
130,12 Jun 2027 01:49:45.096,12 Jun 2027 01:59:09.579,564.483
131,12 Jun 2027 03:25:34.552,12 Jun 2027 03:37:52.305,737.753
132,12 Jun 2027 05:01:33.232,12 Jun 2027 05:14:29.918,776.687
133,12 Jun 2027 06:37:23.608,12 Jun 2027 06:49:35.713,732.104
134,12 Jun 2027 08:12:49.404,12 Jun 2027 08:23:47.562,658.158
135,12 Jun 2027 09:47:33.038,12 Jun 2027 09:57:58.023,624.986
136,12 Jun 2027 11:21:40.331,12 Jun 2027 11:32:48.429,668.097
137,12 Jun 2027 12:55:57.047,12 Jun 2027 13:08:18.995,741.948
138,12 Jun 2027 14:31:14.202,12 Jun 2027 14:44:11.492,777.290
139,12 Jun 2027 16:08:07.782,12 Jun 2027 16:20:10.152,722.369
140,12 Jun 2027 17:47:12.773,12 Jun 2027 17:55:55.448,522.675
141,13 Jun 2027 00:27:20.051,13 Jun 2027 00:29:40.639,140.588
142,13 Jun 2027 02:01:44.218,13 Jun 2027 02:11:40.583,596.365
143,13 Jun 2027 03:37:36.392,13 Jun 2027 03:50:05.186,748.793
144,13 Jun 2027 05:13:34.824,13 Jun 2027 05:26:29.540,774.717
145,13 Jun 2027 06:49:23.086,13 Jun 2027 07:01:26.161,723.075
146,13 Jun 2027 08:24:44.428,13 Jun 2027 08:35:34.744,650.316
147,13 Jun 2027 09:59:22.271,13 Jun 2027 10:09:48.720,626.448
148,13 Jun 2027 11:33:27.683,13 Jun 2027 11:44:44.916,677.233
149,13 Jun 2027 13:07:49.503,13 Jun 2027 13:20:19.258,749.755
150,13 Jun 2027 14:43:17.061,13 Jun 2027 14:56:13.322,776.262
151,13 Jun 2027 16:20:24.972,13 Jun 2027 16:32:11.684,706.712
152,13 Jun 2027 17:59:50.563,13 Jun 2027 18:07:52.228,481.665
