dataset/facility_timing/facility_Facility-Murmansk2/Murmansk2-To-KinoSat_110805.csv

Acces,Start Time (UTCG),Stop Time (UTCG),Duration (sec)
1,1 Jun 2027 00:29:31.565,1 Jun 2027 00:41:30.764,719.199
2,1 Jun 2027 02:05:29.592,1 Jun 2027 02:18:26.709,777.117
3,1 Jun 2027 03:41:21.840,1 Jun 2027 03:53:45.623,743.783
4,1 Jun 2027 05:16:52.535,1 Jun 2027 05:28:03.373,670.838
5,1 Jun 2027 06:51:43.557,1 Jun 2027 07:02:10.590,627.033
6,1 Jun 2027 08:25:54.653,1 Jun 2027 08:36:53.276,658.623
7,1 Jun 2027 10:00:06.356,1 Jun 2027 10:12:18.074,731.718
8,1 Jun 2027 11:35:11.174,1 Jun 2027 11:48:07.690,776.516
9,1 Jun 2027 13:11:47.258,1 Jun 2027 13:24:05.776,738.519
10,1 Jun 2027 14:50:28.121,1 Jun 2027 14:59:54.716,566.595
11,1 Jun 2027 23:05:45.474,1 Jun 2027 23:14:56.826,551.352
12,2 Jun 2027 00:41:32.969,2 Jun 2027 00:53:46.012,733.043
13,2 Jun 2027 02:17:31.094,2 Jun 2027 02:30:28.103,777.009
14,2 Jun 2027 03:53:21.577,2 Jun 2027 04:05:37.133,735.557
15,2 Jun 2027 05:28:48.260,2 Jun 2027 05:39:50.512,662.252
16,2 Jun 2027 07:03:33.507,2 Jun 2027 07:14:00.246,626.740
17,2 Jun 2027 08:37:41.751,2 Jun 2027 08:48:48.706,666.955
18,2 Jun 2027 10:11:57.453,2 Jun 2027 10:24:17.657,740.204
19,2 Jun 2027 11:47:11.906,2 Jun 2027 12:00:09.145,777.239
20,2 Jun 2027 13:24:01.627,2 Jun 2027 13:36:07.245,725.619
21,2 Jun 2027 15:03:01.503,2 Jun 2027 15:11:52.697,531.194
22,2 Jun 2027 21:44:03.670,2 Jun 2027 21:44:39.809,36.139
23,2 Jun 2027 23:17:43.989,2 Jun 2027 23:27:28.547,584.558
24,3 Jun 2027 00:53:34.507,3 Jun 2027 01:05:59.298,744.791
25,3 Jun 2027 02:29:32.479,3 Jun 2027 02:42:28.025,775.546
26,3 Jun 2027 04:05:20.943,3 Jun 2027 04:17:27.750,726.807
27,3 Jun 2027 05:40:43.300,3 Jun 2027 05:51:37.603,654.302
28,3 Jun 2027 07:15:22.809,3 Jun 2027 07:25:50.581,627.772
29,3 Jun 2027 08:49:28.966,3 Jun 2027 09:00:44.790,675.824
30,3 Jun 2027 10:23:49.502,3 Jun 2027 10:36:17.580,748.078
31,3 Jun 2027 11:59:14.143,3 Jun 2027 12:12:10.696,776.553
32,3 Jun 2027 13:36:18.000,3 Jun 2027 13:48:08.558,710.557
33,3 Jun 2027 15:15:38.112,3 Jun 2027 15:23:49.498,491.386
34,3 Jun 2027 21:54:56.178,3 Jun 2027 21:58:31.906,215.728
35,3 Jun 2027 23:29:43.268,3 Jun 2027 23:39:57.476,614.209
36,4 Jun 2027 01:05:36.135,4 Jun 2027 01:18:10.702,754.567
37,4 Jun 2027 02:41:33.710,4 Jun 2027 02:54:26.549,772.839
38,4 Jun 2027 04:17:19.913,4 Jun 2027 04:29:17.557,717.644
39,4 Jun 2027 05:52:37.638,4 Jun 2027 06:03:24.757,647.118
40,4 Jun 2027 07:27:11.522,4 Jun 2027 07:37:41.636,630.114
41,4 Jun 2027 09:01:16.414,4 Jun 2027 09:12:41.493,685.079
42,4 Jun 2027 10:35:42.584,4 Jun 2027 10:48:17.816,755.231
43,4 Jun 2027 12:11:17.932,4 Jun 2027 12:24:12.329,774.397
44,4 Jun 2027 13:48:36.445,4 Jun 2027 14:00:09.668,693.223
45,4 Jun 2027 15:28:18.409,4 Jun 2027 15:35:44.689,446.280
46,4 Jun 2027 22:06:33.846,4 Jun 2027 22:11:36.809,302.962
47,4 Jun 2027 23:41:43.142,4 Jun 2027 23:52:23.805,640.664
48,5 Jun 2027 01:17:37.821,5 Jun 2027 01:30:20.276,762.455
49,5 Jun 2027 02:53:34.770,5 Jun 2027 03:06:23.720,768.950
50,5 Jun 2027 04:29:18.437,5 Jun 2027 04:41:06.648,708.211
51,5 Jun 2027 06:04:31.249,5 Jun 2027 06:15:12.091,640.843
52,5 Jun 2027 07:38:59.722,5 Jun 2027 07:49:33.425,633.703
53,5 Jun 2027 09:13:04.212,5 Jun 2027 09:24:38.776,694.564
54,5 Jun 2027 10:47:36.771,5 Jun 2027 11:00:18.330,761.559
55,5 Jun 2027 12:23:23.345,5 Jun 2027 12:36:14.010,770.665
56,5 Jun 2027 14:00:57.063,5 Jun 2027 14:12:10.515,673.452
57,5 Jun 2027 15:41:03.116,5 Jun 2027 15:47:37.540,394.424
58,5 Jun 2027 22:18:20.773,5 Jun 2027 22:24:30.403,369.630
59,5 Jun 2027 23:53:43.481,6 Jun 2027 00:04:47.696,664.215
60,6 Jun 2027 01:29:39.519,6 Jun 2027 01:42:28.094,768.575
61,6 Jun 2027 03:05:35.626,6 Jun 2027 03:18:19.619,763.993
62,6 Jun 2027 04:41:16.473,6 Jun 2027 04:52:55.134,698.661
63,6 Jun 2027 06:16:24.107,6 Jun 2027 06:26:59.715,635.608
64,6 Jun 2027 07:50:47.494,6 Jun 2027 08:01:25.972,638.478
65,6 Jun 2027 09:24:52.460,6 Jun 2027 09:36:36.603,704.143
66,6 Jun 2027 10:59:32.136,6 Jun 2027 11:12:19.092,766.956
67,6 Jun 2027 12:35:30.426,6 Jun 2027 12:48:15.714,765.289
68,6 Jun 2027 14:13:19.955,6 Jun 2027 14:24:11.020,651.065
69,6 Jun 2027 15:53:53.549,6 Jun 2027 15:59:26.739,333.190
70,6 Jun 2027 22:30:12.290,6 Jun 2027 22:37:17.333,425.043
71,7 Jun 2027 00:05:44.194,7 Jun 2027 00:17:09.271,685.077
72,7 Jun 2027 01:41:41.217,7 Jun 2027 01:54:34.215,772.998
73,7 Jun 2027 03:17:36.249,7 Jun 2027 03:30:14.303,758.054
74,7 Jun 2027 04:53:13.991,7 Jun 2027 05:04:43.109,689.118
75,7 Jun 2027 06:28:16.216,7 Jun 2027 06:38:47.721,631.505
76,7 Jun 2027 08:02:34.936,7 Jun 2027 08:13:19.263,644.327
77,7 Jun 2027 09:36:41.278,7 Jun 2027 09:48:34.927,713.648
78,7 Jun 2027 11:11:28.755,7 Jun 2027 11:24:20.069,771.314
79,7 Jun 2027 12:47:39.248,7 Jun 2027 13:00:17.407,758.160
80,7 Jun 2027 14:25:45.229,7 Jun 2027 14:36:11.106,625.877
81,7 Jun 2027 16:06:52.662,7 Jun 2027 16:11:09.322,256.660
82,7 Jun 2027 22:42:06.598,7 Jun 2027 22:49:59.392,472.794
83,8 Jun 2027 00:17:45.204,8 Jun 2027 00:29:28.633,703.430
84,8 Jun 2027 01:53:42.873,8 Jun 2027 02:06:38.688,775.814
85,8 Jun 2027 03:29:36.607,8 Jun 2027 03:42:07.845,751.238
86,8 Jun 2027 05:05:10.949,8 Jun 2027 05:16:30.697,679.748
87,8 Jun 2027 06:40:07.577,8 Jun 2027 06:50:36.212,628.635
88,8 Jun 2027 08:14:22.156,8 Jun 2027 08:25:13.294,651.138
89,8 Jun 2027 09:48:30.771,8 Jun 2027 10:00:33.709,722.939
90,8 Jun 2027 11:23:26.692,8 Jun 2027 11:36:21.236,774.544
91,8 Jun 2027 12:59:49.864,8 Jun 2027 13:12:19.059,749.195
92,8 Jun 2027 14:38:13.030,8 Jun 2027 14:48:10.650,597.620
93,8 Jun 2027 16:20:11.169,8 Jun 2027 16:22:34.553,143.384
94,8 Jun 2027 22:54:02.783,8 Jun 2027 23:02:37.509,514.726
95,9 Jun 2027 00:29:46.433,9 Jun 2027 00:41:45.876,719.443
96,9 Jun 2027 02:05:44.464,9 Jun 2027 02:18:41.580,777.117
97,9 Jun 2027 03:41:36.668,9 Jun 2027 03:54:00.324,743.656
98,9 Jun 2027 05:17:07.297,9 Jun 2027 05:28:17.997,670.700
99,9 Jun 2027 06:51:58.211,9 Jun 2027 07:02:25.255,627.044
100,9 Jun 2027 08:26:09.252,9 Jun 2027 08:37:08.045,658.792
101,9 Jun 2027 10:00:21.022,9 Jun 2027 10:12:32.912,731.890
102,9 Jun 2027 11:35:26.013,9 Jun 2027 11:48:22.552,776.539
103,9 Jun 2027 13:12:02.339,9 Jun 2027 13:24:20.634,738.295
104,9 Jun 2027 14:50:43.533,9 Jun 2027 15:00:09.505,565.972
105,9 Jun 2027 23:06:00.303,9 Jun 2027 23:15:12.226,551.923
106,10 Jun 2027 00:41:47.844,10 Jun 2027 00:54:01.092,733.248
107,10 Jun 2027 02:17:45.957,10 Jun 2027 02:30:42.948,776.991
108,10 Jun 2027 03:53:36.397,10 Jun 2027 04:05:51.824,735.427
109,10 Jun 2027 05:29:03.001,10 Jun 2027 05:40:05.138,662.137
110,10 Jun 2027 07:03:48.153,10 Jun 2027 07:14:14.926,626.773
111,10 Jun 2027 08:37:56.354,10 Jun 2027 08:49:03.480,667.126
112,10 Jun 2027 10:12:12.143,10 Jun 2027 10:24:32.493,740.350
113,10 Jun 2027 11:47:26.773,10 Jun 2027 12:00:24.004,777.231
114,10 Jun 2027 13:24:16.742,10 Jun 2027 13:36:22.101,725.359
115,10 Jun 2027 15:03:16.971,10 Jun 2027 15:12:07.463,530.492
116,10 Jun 2027 21:44:14.512,10 Jun 2027 21:44:59.444,44.932
117,10 Jun 2027 23:17:58.831,10 Jun 2027 23:27:43.895,585.064
118,11 Jun 2027 00:53:49.380,11 Jun 2027 01:06:14.344,744.964
119,11 Jun 2027 02:29:47.338,11 Jun 2027 02:42:42.850,775.512
120,11 Jun 2027 04:05:35.758,11 Jun 2027 04:17:42.420,726.661
121,11 Jun 2027 05:40:58.037,11 Jun 2027 05:51:52.227,654.190
122,11 Jun 2027 07:15:37.440,11 Jun 2027 07:26:05.273,627.833
123,11 Jun 2027 08:49:43.572,11 Jun 2027 09:00:59.576,676.004
124,11 Jun 2027 10:24:04.205,11 Jun 2027 10:36:32.424,748.219
125,11 Jun 2027 11:59:29.034,11 Jun 2027 12:12:25.559,776.526
126,11 Jun 2027 13:36:33.148,11 Jun 2027 13:48:23.404,710.256
127,11 Jun 2027 15:15:53.642,11 Jun 2027 15:24:04.236,490.594
128,11 Jun 2027 21:55:10.569,11 Jun 2027 21:58:47.954,217.386
129,11 Jun 2027 23:29:58.118,11 Jun 2027 23:40:12.779,614.662
130,12 Jun 2027 01:05:51.007,12 Jun 2027 01:18:25.717,754.709
131,12 Jun 2027 02:41:48.565,12 Jun 2027 02:54:41.350,772.784
132,12 Jun 2027 04:17:34.719,12 Jun 2027 04:29:32.217,717.498
133,12 Jun 2027 05:52:52.356,12 Jun 2027 06:03:39.384,647.028
134,12 Jun 2027 07:27:26.143,12 Jun 2027 07:37:56.339,630.196
135,12 Jun 2027 09:01:31.024,12 Jun 2027 09:12:56.289,685.265
136,12 Jun 2027 10:35:57.306,12 Jun 2027 10:48:32.663,755.358
137,12 Jun 2027 12:11:32.850,12 Jun 2027 12:24:27.191,774.341
138,12 Jun 2027 13:48:51.631,12 Jun 2027 14:00:24.508,692.877
139,12 Jun 2027 15:28:34.014,12 Jun 2027 15:35:59.387,445.373
140,12 Jun 2027 22:06:48.458,12 Jun 2027 22:11:52.599,304.140
141,12 Jun 2027 23:41:57.998,12 Jun 2027 23:52:39.065,641.067
142,13 Jun 2027 01:17:52.692,13 Jun 2027 01:30:35.259,762.567
143,13 Jun 2027 02:53:49.620,13 Jun 2027 03:06:38.498,768.878
144,13 Jun 2027 04:29:33.233,13 Jun 2027 04:41:21.297,708.064
145,13 Jun 2027 06:04:45.952,13 Jun 2027 06:15:26.724,640.772
146,13 Jun 2027 07:39:14.333,13 Jun 2027 07:49:48.141,633.807
147,13 Jun 2027 09:13:18.829,13 Jun 2027 09:24:53.581,694.752
148,13 Jun 2027 10:47:51.512,13 Jun 2027 11:00:33.182,761.669
149,13 Jun 2027 12:23:38.288,13 Jun 2027 12:36:28.871,770.583
150,13 Jun 2027 14:01:12.288,13 Jun 2027 14:12:25.346,673.058
151,13 Jun 2027 15:41:18.814,13 Jun 2027 15:47:52.178,393.364
152,13 Jun 2027 22:18:35.479,13 Jun 2027 22:24:46.062,370.583
153,13 Jun 2027 23:53:58.343,14 Jun 2027 00:00:01.000,362.657
