dataset/facility_timing/facility_Facility-Murmansk2/Murmansk2-To-KinoSat_110704.csv

Acces,Start Time (UTCG),Stop Time (UTCG),Duration (sec)
1,1 Jun 2027 00:43:19.099,1 Jun 2027 00:55:59.797,760.698
2,1 Jun 2027 02:19:16.177,1 Jun 2027 02:32:06.173,769.996
3,1 Jun 2027 03:55:00.435,1 Jun 2027 04:06:50.988,710.553
4,1 Jun 2027 05:30:14.418,1 Jun 2027 05:40:56.792,642.374
5,1 Jun 2027 07:04:44.148,1 Jun 2027 07:15:17.028,632.880
6,1 Jun 2027 08:38:48.674,1 Jun 2027 08:50:21.069,692.396
7,1 Jun 2027 10:13:19.678,1 Jun 2027 10:25:59.849,760.171
8,1 Jun 2027 11:49:03.560,1 Jun 2027 12:01:55.234,771.673
9,1 Jun 2027 13:26:33.650,1 Jun 2027 13:37:51.916,678.267
10,1 Jun 2027 15:06:33.835,1 Jun 2027 15:13:20.957,407.123
11,1 Jun 2027 21:44:05.236,1 Jun 2027 21:49:59.799,354.562
12,1 Jun 2027 23:19:25.077,1 Jun 2027 23:30:23.814,658.737
13,2 Jun 2027 00:55:20.779,2 Jun 2027 01:08:08.015,767.237
14,2 Jun 2027 02:31:17.067,2 Jun 2027 02:44:02.354,765.287
15,2 Jun 2027 04:06:58.573,2 Jun 2027 04:18:39.602,701.029
16,2 Jun 2027 05:42:07.442,2 Jun 2027 05:52:44.331,636.889
17,2 Jun 2027 07:16:32.010,2 Jun 2027 07:27:09.379,637.369
18,2 Jun 2027 08:50:36.804,2 Jun 2027 09:02:18.748,701.944
19,2 Jun 2027 10:25:14.749,2 Jun 2027 10:38:00.539,765.790
20,2 Jun 2027 12:01:10.227,2 Jun 2027 12:13:56.915,766.687
21,2 Jun 2027 13:38:55.973,2 Jun 2027 13:49:52.486,656.513
22,2 Jun 2027 15:19:22.737,2 Jun 2027 15:25:11.148,348.411
23,2 Jun 2027 21:55:55.824,2 Jun 2027 22:02:48.106,412.282
24,2 Jun 2027 23:31:25.686,2 Jun 2027 23:42:45.912,680.226
25,3 Jun 2027 01:07:22.456,3 Jun 2027 01:20:14.521,772.065
26,3 Jun 2027 02:43:17.727,3 Jun 2027 02:55:57.315,759.588
27,3 Jun 2027 04:18:56.202,3 Jun 2027 04:30:27.682,691.480
28,3 Jun 2027 05:53:59.714,3 Jun 2027 06:04:32.227,632.514
29,3 Jun 2027 07:28:19.509,3 Jun 2027 07:39:02.480,642.971
30,3 Jun 2027 09:02:25.467,3 Jun 2027 09:14:16.943,711.476
31,3 Jun 2027 10:37:11.050,3 Jun 2027 10:50:01.443,770.393
32,3 Jun 2027 12:13:18.614,3 Jun 2027 12:25:58.592,759.978
33,3 Jun 2027 13:51:20.653,3 Jun 2027 14:01:52.658,632.006
34,3 Jun 2027 15:32:19.362,3 Jun 2027 15:36:55.684,276.322
35,3 Jun 2027 22:07:49.531,3 Jun 2027 22:15:31.220,461.689
36,3 Jun 2027 23:43:26.607,3 Jun 2027 23:55:05.777,699.170
37,4 Jun 2027 01:19:24.102,4 Jun 2027 01:32:19.367,775.265
38,4 Jun 2027 02:55:18.131,4 Jun 2027 03:07:51.113,752.982
39,4 Jun 2027 04:30:53.281,4 Jun 2027 04:42:15.344,682.063
40,4 Jun 2027 06:05:51.241,4 Jun 2027 06:16:20.587,629.346
41,4 Jun 2027 07:40:06.765,4 Jun 2027 07:50:56.319,649.554
42,4 Jun 2027 09:14:14.784,4 Jun 2027 09:26:15.602,720.818
43,4 Jun 2027 10:49:08.656,4 Jun 2027 11:02:02.544,773.888
44,4 Jun 2027 12:25:28.783,4 Jun 2027 12:38:00.236,751.453
45,4 Jun 2027 14:03:47.821,4 Jun 2027 14:13:52.319,604.497
46,4 Jun 2027 15:45:31.030,4 Jun 2027 15:48:27.221,176.190
47,4 Jun 2027 22:19:45.289,4 Jun 2027 22:28:10.211,504.922
48,4 Jun 2027 23:55:27.767,5 Jun 2027 00:07:23.505,715.738
49,5 Jun 2027 01:31:25.692,5 Jun 2027 01:44:22.620,776.928
50,5 Jun 2027 03:07:18.247,5 Jun 2027 03:19:43.830,745.583
51,5 Jun 2027 04:42:49.761,5 Jun 2027 04:54:02.697,672.936
52,5 Jun 2027 06:17:42.035,5 Jun 2027 06:28:09.478,627.443
53,5 Jun 2027 07:51:53.873,5 Jun 2027 08:02:50.887,657.014
54,5 Jun 2027 09:26:04.836,5 Jun 2027 09:38:14.688,729.852
55,5 Jun 2027 11:01:07.631,5 Jun 2027 11:14:03.811,776.180
56,5 Jun 2027 12:37:40.793,5 Jun 2027 12:50:01.811,741.018
57,5 Jun 2027 14:16:17.642,5 Jun 2027 14:25:51.329,573.687
58,5 Jun 2027 22:31:42.493,5 Jun 2027 22:40:45.694,543.201
59,6 Jun 2027 00:07:29.120,6 Jun 2027 00:19:39.182,730.062
60,6 Jun 2027 01:43:27.191,6 Jun 2027 01:56:24.340,777.149
61,6 Jun 2027 03:19:18.045,6 Jun 2027 03:31:35.546,737.501
62,6 Jun 2027 04:54:45.612,6 Jun 2027 05:05:49.852,664.240
63,6 Jun 2027 06:29:32.126,6 Jun 2027 06:39:58.984,626.858
64,6 Jun 2027 08:03:40.958,6 Jun 2027 08:14:46.146,665.189
65,6 Jun 2027 09:37:55.731,6 Jun 2027 09:50:14.167,738.436
66,6 Jun 2027 11:13:08.028,6 Jun 2027 11:26:05.215,777.187
67,6 Jun 2027 12:49:54.713,6 Jun 2027 13:02:03.285,728.572
68,6 Jun 2027 14:28:50.340,6 Jun 2027 14:37:49.498,539.158
69,6 Jun 2027 22:43:40.776,6 Jun 2027 22:53:18.050,577.274
70,7 Jun 2027 00:19:30.607,7 Jun 2027 00:31:52.882,742.275
71,7 Jun 2027 01:55:28.584,7 Jun 2027 02:08:24.571,775.987
72,7 Jun 2027 03:31:17.475,7 Jun 2027 03:43:26.343,728.868
73,7 Jun 2027 05:06:40.788,7 Jun 2027 05:17:36.941,656.152
74,7 Jun 2027 06:41:21.557,7 Jun 2027 06:51:49.152,627.595
75,7 Jun 2027 08:15:28.131,7 Jun 2027 08:26:42.067,673.936
76,7 Jun 2027 09:49:47.558,7 Jun 2027 10:02:13.998,746.440
77,7 Jun 2027 11:25:09.911,7 Jun 2027 11:38:06.728,776.817
78,7 Jun 2027 13:02:10.615,7 Jun 2027 13:14:04.616,714.002
79,7 Jun 2027 14:41:26.186,7 Jun 2027 14:49:46.564,500.379
80,7 Jun 2027 21:21:00.627,7 Jun 2027 21:24:10.513,189.886
81,7 Jun 2027 22:55:39.867,7 Jun 2027 23:05:47.566,607.699
82,8 Jun 2027 00:31:32.193,8 Jun 2027 00:44:04.683,752.490
83,8 Jun 2027 02:07:29.832,8 Jun 2027 02:20:23.387,773.555
84,8 Jun 2027 03:43:16.515,8 Jun 2027 03:55:16.315,719.800
85,8 Jun 2027 05:18:35.274,8 Jun 2027 05:29:24.061,648.787
86,8 Jun 2027 06:53:10.386,8 Jun 2027 07:03:40.030,629.644
87,8 Jun 2027 08:27:15.510,8 Jun 2027 08:38:38.620,683.110
88,8 Jun 2027 10:01:40.387,8 Jun 2027 10:14:14.148,753.761
89,8 Jun 2027 11:37:13.338,8 Jun 2027 11:50:08.322,774.983
90,8 Jun 2027 13:14:28.577,8 Jun 2027 13:26:05.751,697.174
91,8 Jun 2027 14:54:05.605,8 Jun 2027 15:01:42.121,456.516
92,8 Jun 2027 21:32:34.455,8 Jun 2027 21:37:19.665,285.210
93,8 Jun 2027 23:07:39.594,8 Jun 2027 23:18:14.453,634.859
94,9 Jun 2027 00:43:33.846,9 Jun 2027 00:56:14.649,760.804
95,9 Jun 2027 02:19:30.908,9 Jun 2027 02:32:20.845,769.937
96,9 Jun 2027 03:55:15.121,9 Jun 2027 04:07:05.551,710.430
97,9 Jun 2027 05:30:29.029,9 Jun 2027 05:41:11.339,642.310
98,9 Jun 2027 07:04:58.684,9 Jun 2027 07:15:31.640,632.957
99,9 Jun 2027 08:39:03.214,9 Jun 2027 08:50:35.757,692.542
100,9 Jun 2027 10:13:34.314,9 Jun 2027 10:26:14.579,760.264
101,9 Jun 2027 11:49:18.365,9 Jun 2027 12:02:09.973,771.608
102,9 Jun 2027 13:26:48.682,9 Jun 2027 13:38:06.635,677.953
103,9 Jun 2027 15:06:49.244,9 Jun 2027 15:13:35.531,406.288
104,9 Jun 2027 21:44:19.824,9 Jun 2027 21:50:15.231,355.408
105,9 Jun 2027 23:19:39.813,9 Jun 2027 23:30:38.861,659.048
106,10 Jun 2027 00:55:35.525,10 Jun 2027 01:08:22.838,767.313
107,10 Jun 2027 02:31:31.794,10 Jun 2027 02:44:17.010,765.216
108,10 Jun 2027 04:07:13.254,10 Jun 2027 04:18:54.158,700.904
109,10 Jun 2027 05:42:22.043,10 Jun 2027 05:52:58.882,636.839
110,10 Jun 2027 07:16:46.539,10 Jun 2027 07:27:24.003,637.463
111,10 Jun 2027 08:50:51.348,10 Jun 2027 09:02:33.444,702.096
112,10 Jun 2027 10:25:29.402,10 Jun 2027 10:38:15.271,765.868
113,10 Jun 2027 12:01:25.056,10 Jun 2027 12:14:11.653,766.597
114,10 Jun 2027 13:39:11.039,10 Jun 2027 13:50:07.197,656.158
115,10 Jun 2027 15:19:38.243,10 Jun 2027 15:25:25.654,347.411
116,10 Jun 2027 21:56:10.461,10 Jun 2027 22:03:03.456,412.995
117,10 Jun 2027 23:31:40.425,10 Jun 2027 23:43:00.925,680.500
118,11 Jun 2027 01:07:37.201,11 Jun 2027 01:20:29.319,772.118
119,11 Jun 2027 02:43:32.449,11 Jun 2027 02:56:11.953,759.504
120,11 Jun 2027 04:19:10.873,11 Jun 2027 04:30:42.231,691.358
121,11 Jun 2027 05:54:14.303,11 Jun 2027 06:04:46.784,632.481
122,11 Jun 2027 07:28:34.033,11 Jun 2027 07:39:17.114,643.081
123,11 Jun 2027 09:02:40.019,11 Jun 2027 09:14:31.644,711.626
124,11 Jun 2027 10:37:25.722,11 Jun 2027 10:50:16.176,770.455
125,11 Jun 2027 12:13:33.468,11 Jun 2027 12:26:13.328,759.860
126,11 Jun 2027 13:51:35.755,11 Jun 2027 14:02:07.360,631.606
127,11 Jun 2027 15:32:35.024,11 Jun 2027 15:37:10.063,275.039
128,11 Jun 2027 22:08:04.200,11 Jun 2027 22:15:46.507,462.307
129,11 Jun 2027 23:43:41.349,11 Jun 2027 23:55:20.759,699.410
130,12 Jun 2027 01:19:38.845,12 Jun 2027 01:32:34.141,775.296
131,12 Jun 2027 02:55:32.848,12 Jun 2027 03:08:05.736,752.887
132,12 Jun 2027 04:31:07.942,12 Jun 2027 04:42:29.888,681.946
133,12 Jun 2027 06:06:05.818,12 Jun 2027 06:16:35.151,629.333
134,12 Jun 2027 07:40:21.286,12 Jun 2027 07:51:10.963,649.677
135,12 Jun 2027 09:14:29.345,12 Jun 2027 09:26:30.309,720.963
136,12 Jun 2027 10:49:23.347,12 Jun 2027 11:02:17.280,773.933
137,12 Jun 2027 12:25:43.664,12 Jun 2027 12:38:14.970,751.306
138,12 Jun 2027 14:04:02.962,12 Jun 2027 14:14:07.009,604.047
139,12 Jun 2027 15:45:47.083,12 Jun 2027 15:48:41.235,174.152
140,12 Jun 2027 22:19:59.980,12 Jun 2027 22:28:25.445,505.465
141,12 Jun 2027 23:55:42.511,13 Jun 2027 00:07:38.456,715.946
142,13 Jun 2027 01:31:40.432,13 Jun 2027 01:44:37.372,776.939
143,13 Jun 2027 03:07:32.958,13 Jun 2027 03:19:58.437,745.479
144,13 Jun 2027 04:43:04.412,13 Jun 2027 04:54:17.238,672.826
145,13 Jun 2027 06:17:56.600,13 Jun 2027 06:28:24.051,627.451
146,13 Jun 2027 07:52:08.392,13 Jun 2027 08:03:05.541,657.149
147,13 Jun 2027 09:26:19.409,13 Jun 2027 09:38:29.400,729.991
148,13 Jun 2027 11:01:22.342,13 Jun 2027 11:14:18.546,776.205
149,13 Jun 2027 12:37:55.699,13 Jun 2027 12:50:16.542,740.843
150,13 Jun 2027 14:16:32.825,13 Jun 2027 14:26:06.005,573.180
151,13 Jun 2027 22:31:57.200,13 Jun 2027 22:41:00.882,543.682
