dataset/facility_timing/facility_Facility-Murmansk2/Murmansk2-To-KinoSat_111701.csv

Acces,Start Time (UTCG),Stop Time (UTCG),Duration (sec)
1,1 Jun 2027 02:09:43.884,1 Jun 2027 02:15:48.918,365.034
2,1 Jun 2027 03:45:07.387,1 Jun 2027 03:56:09.370,661.983
3,1 Jun 2027 05:21:04.376,1 Jun 2027 05:33:52.519,768.142
4,1 Jun 2027 06:57:01.579,1 Jun 2027 07:09:46.135,764.556
5,1 Jun 2027 08:32:43.858,1 Jun 2027 08:44:22.662,698.804
6,1 Jun 2027 10:07:53.224,1 Jun 2027 10:18:26.804,633.579
7,1 Jun 2027 11:42:17.683,1 Jun 2027 11:52:51.863,634.179
8,1 Jun 2027 13:16:21.902,1 Jun 2027 13:28:01.851,699.949
9,1 Jun 2027 14:50:59.280,1 Jun 2027 15:03:44.472,765.191
10,1 Jun 2027 16:26:54.293,1 Jun 2027 16:39:41.782,767.489
11,1 Jun 2027 18:04:39.323,1 Jun 2027 18:15:38.629,659.306
12,1 Jun 2027 19:45:03.022,1 Jun 2027 19:51:00.798,357.776
13,2 Jun 2027 02:21:35.693,2 Jun 2027 02:28:36.905,421.212
14,2 Jun 2027 03:57:08.519,2 Jun 2027 04:08:31.751,683.232
15,2 Jun 2027 05:33:06.499,2 Jun 2027 05:45:59.275,772.776
16,2 Jun 2027 07:09:02.654,2 Jun 2027 07:21:41.273,758.619
17,2 Jun 2027 08:44:41.856,2 Jun 2027 08:56:10.871,689.015
18,2 Jun 2027 10:19:45.768,2 Jun 2027 10:30:14.880,629.112
19,2 Jun 2027 11:54:05.336,2 Jun 2027 12:04:45.275,639.939
20,2 Jun 2027 13:28:10.710,2 Jun 2027 13:40:00.443,709.733
21,2 Jun 2027 15:02:55.808,2 Jun 2027 15:15:45.808,770.000
22,2 Jun 2027 16:39:02.995,2 Jun 2027 16:51:43.916,760.921
23,2 Jun 2027 18:17:04.353,2 Jun 2027 18:27:39.327,634.973
24,2 Jun 2027 19:57:58.912,2 Jun 2027 20:02:47.045,288.133
25,3 Jun 2027 02:33:30.369,3 Jun 2027 02:41:19.927,469.558
26,3 Jun 2027 04:09:09.947,3 Jun 2027 04:20:51.893,701.945
27,3 Jun 2027 05:45:08.594,3 Jun 2027 05:58:04.357,775.763
28,3 Jun 2027 07:21:03.470,3 Jun 2027 07:33:35.231,751.761
29,3 Jun 2027 08:56:39.294,3 Jun 2027 09:07:58.658,679.363
30,3 Jun 2027 10:31:37.542,3 Jun 2027 10:42:03.439,625.896
31,3 Jun 2027 12:05:52.735,3 Jun 2027 12:16:39.451,646.717
32,3 Jun 2027 13:40:00.184,3 Jun 2027 13:51:59.508,719.324
33,3 Jun 2027 15:14:53.661,3 Jun 2027 15:27:47.343,773.682
34,3 Jun 2027 16:51:13.505,3 Jun 2027 17:03:46.017,752.512
35,3 Jun 2027 18:29:31.886,3 Jun 2027 18:39:39.531,607.645
36,3 Jun 2027 20:11:07.917,3 Jun 2027 20:14:22.247,194.330
37,4 Jun 2027 02:45:26.947,4 Jun 2027 02:53:58.946,512.000
38,4 Jun 2027 04:21:11.607,4 Jun 2027 04:33:09.876,718.270
39,4 Jun 2027 05:57:10.620,4 Jun 2027 06:10:07.822,777.202
40,4 Jun 2027 07:33:03.989,4 Jun 2027 07:45:28.090,744.101
41,4 Jun 2027 09:08:36.119,4 Jun 2027 09:19:46.136,670.017
42,4 Jun 2027 10:43:28.562,4 Jun 2027 10:53:52.552,623.991
43,4 Jun 2027 12:17:39.980,4 Jun 2027 12:28:34.369,654.390
44,4 Jun 2027 13:51:50.410,4 Jun 2027 14:03:59.005,728.595
45,4 Jun 2027 15:26:52.905,4 Jun 2027 15:39:49.043,776.138
46,4 Jun 2027 17:03:25.876,4 Jun 2027 17:15:48.053,742.178
47,4 Jun 2027 18:42:02.083,4 Jun 2027 18:51:39.108,577.025
48,5 Jun 2027 02:57:24.890,5 Jun 2027 03:06:34.520,549.630
49,5 Jun 2027 04:33:13.447,5 Jun 2027 04:45:25.798,732.351
50,5 Jun 2027 06:09:12.553,5 Jun 2027 06:22:09.730,777.177
51,5 Jun 2027 07:45:04.178,5 Jun 2027 07:57:19.941,735.762
52,5 Jun 2027 09:20:32.290,5 Jun 2027 09:31:33.426,661.136
53,5 Jun 2027 10:55:18.861,5 Jun 2027 11:05:42.301,623.440
54,5 Jun 2027 12:29:27.200,5 Jun 2027 12:40:29.998,662.798
55,5 Jun 2027 14:03:41.498,5 Jun 2027 14:15:58.905,737.407
56,5 Jun 2027 15:38:53.595,5 Jun 2027 15:51:50.885,777.290
57,5 Jun 2027 17:15:40.182,5 Jun 2027 17:27:49.997,729.815
58,5 Jun 2027 18:54:35.144,5 Jun 2027 19:03:37.875,542.731
59,6 Jun 2027 01:35:41.477,6 Jun 2027 01:36:17.300,35.823
60,6 Jun 2027 03:09:23.843,6 Jun 2027 03:19:07.007,583.163
61,6 Jun 2027 04:45:15.409,6 Jun 2027 04:57:39.726,744.317
62,6 Jun 2027 06:21:14.369,6 Jun 2027 06:34:10.142,775.773
63,6 Jun 2027 07:57:04.005,6 Jun 2027 08:09:10.854,726.849
64,6 Jun 2027 09:32:27.780,6 Jun 2027 09:43:20.646,652.866
65,6 Jun 2027 11:07:08.471,6 Jun 2027 11:17:32.742,624.270
66,6 Jun 2027 12:41:14.517,6 Jun 2027 12:52:26.310,671.794
67,6 Jun 2027 14:15:33.528,6 Jun 2027 14:27:59.166,745.638
68,6 Jun 2027 15:50:55.794,6 Jun 2027 16:03:52.843,777.048
69,6 Jun 2027 17:27:56.494,6 Jun 2027 17:39:51.797,715.303
70,6 Jun 2027 19:07:11.359,6 Jun 2027 19:15:35.568,504.209
71,7 Jun 2027 01:46:34.617,7 Jun 2027 01:50:10.024,215.406
72,7 Jun 2027 03:21:23.557,7 Jun 2027 03:31:36.669,613.112
73,7 Jun 2027 04:57:17.466,7 Jun 2027 05:09:51.734,754.267
74,7 Jun 2027 06:33:16.043,7 Jun 2027 06:46:09.107,773.065
75,7 Jun 2027 08:09:03.417,7 Jun 2027 08:21:00.935,717.518
76,7 Jun 2027 09:44:22.554,7 Jun 2027 09:55:07.919,645.365
77,7 Jun 2027 11:18:57.467,7 Jun 2027 11:29:23.907,626.440
78,7 Jun 2027 12:53:02.036,7 Jun 2027 13:04:23.260,681.224
79,7 Jun 2027 14:27:26.593,7 Jun 2027 14:39:59.747,753.154
80,7 Jun 2027 16:02:59.570,7 Jun 2027 16:15:54.877,775.308
81,7 Jun 2027 17:40:14.895,7 Jun 2027 17:51:53.409,698.514
82,7 Jun 2027 19:19:51.106,7 Jun 2027 19:27:31.820,460.714
83,8 Jun 2027 01:58:12.894,8 Jun 2027 02:03:15.560,302.666
84,8 Jun 2027 03:33:23.877,8 Jun 2027 03:44:03.704,639.827
85,8 Jun 2027 05:09:19.580,8 Jun 2027 05:22:01.882,762.302
86,8 Jun 2027 06:45:17.534,8 Jun 2027 06:58:06.702,769.168
87,8 Jun 2027 08:21:02.388,8 Jun 2027 08:32:50.274,707.886
88,8 Jun 2027 09:56:16.576,8 Jun 2027 10:06:55.364,638.787
89,8 Jun 2027 11:30:45.917,8 Jun 2027 11:41:15.836,629.919
90,8 Jun 2027 13:04:49.895,8 Jun 2027 13:16:20.809,690.914
91,8 Jun 2027 14:39:20.770,8 Jun 2027 14:52:00.616,759.845
92,8 Jun 2027 16:15:04.967,8 Jun 2027 16:27:56.974,772.007
93,8 Jun 2027 17:52:35.464,8 Jun 2027 18:03:54.777,679.314
94,8 Jun 2027 19:32:35.016,8 Jun 2027 19:39:26.009,410.992
95,9 Jun 2027 02:10:00.388,9 Jun 2027 02:16:09.802,369.414
96,9 Jun 2027 03:45:24.659,9 Jun 2027 03:56:28.270,663.611
97,9 Jun 2027 05:21:21.708,9 Jun 2027 05:34:10.244,768.537
98,9 Jun 2027 06:57:18.826,9 Jun 2027 07:10:02.987,764.161
99,9 Jun 2027 08:33:00.874,9 Jun 2027 08:44:38.981,698.107
100,9 Jun 2027 10:08:09.833,9 Jun 2027 10:18:43.091,633.258
101,9 Jun 2027 11:42:33.910,9 Jun 2027 11:53:08.537,634.627
102,9 Jun 2027 13:16:38.191,9 Jun 2027 13:28:18.917,700.725
103,9 Jun 2027 14:51:16.137,9 Jun 2027 15:04:01.740,765.603
104,9 Jun 2027 16:27:12.055,9 Jun 2027 16:39:59.104,767.049
105,9 Jun 2027 18:04:58.298,9 Jun 2027 18:15:55.829,657.531
106,9 Jun 2027 19:45:24.157,9 Jun 2027 19:51:17.064,352.907
107,10 Jun 2027 02:21:52.448,10 Jun 2027 02:28:57.387,424.939
108,10 Jun 2027 03:57:25.809,10 Jun 2027 04:08:50.486,684.677
109,10 Jun 2027 05:33:23.834,10 Jun 2027 05:46:16.875,773.042
110,10 Jun 2027 07:09:19.884,10 Jun 2027 07:21:58.035,758.151
111,10 Jun 2027 08:44:58.832,10 Jun 2027 08:56:27.152,688.321
112,10 Jun 2027 10:20:02.319,10 Jun 2027 10:30:31.199,628.880
113,10 Jun 2027 11:54:21.543,10 Jun 2027 12:05:02.005,640.462
114,10 Jun 2027 13:28:27.051,10 Jun 2027 13:40:17.540,710.489
115,10 Jun 2027 15:03:12.763,10 Jun 2027 15:16:03.086,770.323
116,10 Jun 2027 16:39:20.890,10 Jun 2027 16:52:01.230,760.340
117,10 Jun 2027 18:17:23.513,10 Jun 2027 18:27:56.494,632.981
118,10 Jun 2027 19:58:20.760,10 Jun 2027 20:03:02.751,281.991
119,11 Jun 2027 02:33:47.281,11 Jun 2027 02:41:40.093,472.812
120,11 Jun 2027 04:09:27.253,11 Jun 2027 04:21:10.462,703.209
121,11 Jun 2027 05:45:25.918,11 Jun 2027 05:58:21.835,775.917
122,11 Jun 2027 07:21:20.676,11 Jun 2027 07:33:51.908,751.232
123,11 Jun 2027 08:56:56.223,11 Jun 2027 09:08:14.915,678.692
124,11 Jun 2027 10:31:54.035,11 Jun 2027 10:42:19.796,625.761
125,11 Jun 2027 12:06:08.923,11 Jun 2027 12:16:56.238,647.314
126,11 Jun 2027 13:40:16.575,11 Jun 2027 13:52:16.633,720.059
127,11 Jun 2027 15:15:10.719,11 Jun 2027 15:28:04.635,773.916
128,11 Jun 2027 16:51:31.534,11 Jun 2027 17:04:03.324,751.791
129,11 Jun 2027 18:29:51.238,11 Jun 2027 18:39:56.652,605.414
130,11 Jun 2027 20:11:31.395,11 Jun 2027 20:14:36.477,185.082
131,12 Jun 2027 02:45:43.967,12 Jun 2027 02:54:18.845,514.878
132,12 Jun 2027 04:21:28.923,12 Jun 2027 04:33:28.289,719.366
133,12 Jun 2027 05:57:27.936,12 Jun 2027 06:10:25.184,777.248
134,12 Jun 2027 07:33:21.174,12 Jun 2027 07:45:44.690,743.516
135,12 Jun 2027 09:08:52.999,12 Jun 2027 09:20:02.376,669.377
136,12 Jun 2027 10:43:44.998,12 Jun 2027 10:54:08.954,623.956
137,12 Jun 2027 12:17:56.166,12 Jun 2027 12:28:51.209,655.043
138,12 Jun 2027 13:52:06.865,12 Jun 2027 14:04:16.165,729.299
139,12 Jun 2027 15:27:10.068,12 Jun 2027 15:40:06.340,776.272
140,12 Jun 2027 17:03:44.053,12 Jun 2027 17:16:05.351,741.299
141,12 Jun 2027 18:42:21.648,12 Jun 2027 18:51:56.169,574.522
142,13 Jun 2027 02:57:41.989,13 Jun 2027 03:06:54.181,552.192
143,13 Jun 2027 04:33:30.771,13 Jun 2027 04:45:44.060,733.289
144,13 Jun 2027 06:09:29.862,13 Jun 2027 06:22:26.975,777.114
145,13 Jun 2027 07:45:21.330,13 Jun 2027 07:57:36.467,735.138
146,13 Jun 2027 09:20:49.117,13 Jun 2027 09:31:49.657,660.540
147,13 Jun 2027 10:55:35.243,13 Jun 2027 11:05:58.753,623.509
148,13 Jun 2027 12:29:43.389,13 Jun 2027 12:40:46.886,663.496
149,13 Jun 2027 14:03:58.022,13 Jun 2027 14:16:16.088,738.066
150,13 Jun 2027 15:39:10.870,13 Jun 2027 15:52:08.189,777.319
151,13 Jun 2027 17:15:58.507,13 Jun 2027 17:28:07.282,728.775
152,13 Jun 2027 18:54:54.936,13 Jun 2027 19:03:54.860,539.923
