dataset/facility_timing/facility_Facility-Murmansk2/Murmansk2-To-KinoSat_111809.csv

Acces,Start Time (UTCG),Stop Time (UTCG),Duration (sec)
1,1 Jun 2027 02:25:17.488,1 Jun 2027 02:30:29.952,312.464
2,1 Jun 2027 04:00:30.832,1 Jun 2027 04:11:13.908,643.076
3,1 Jun 2027 05:36:26.877,1 Jun 2027 05:49:10.108,763.231
4,1 Jun 2027 07:12:24.873,1 Jun 2027 07:25:13.460,768.587
5,1 Jun 2027 08:48:09.528,1 Jun 2027 08:59:56.064,706.535
6,1 Jun 2027 10:23:23.215,1 Jun 2027 10:34:00.918,637.703
7,1 Jun 2027 11:57:51.953,1 Jun 2027 12:08:21.913,629.960
8,1 Jun 2027 13:31:55.844,1 Jun 2027 13:43:27.572,691.728
9,1 Jun 2027 15:06:27.396,1 Jun 2027 15:19:07.835,760.439
10,1 Jun 2027 16:42:12.813,1 Jun 2027 16:55:04.433,771.620
11,1 Jun 2027 18:19:44.949,1 Jun 2027 18:31:02.289,677.339
12,1 Jun 2027 19:59:46.956,1 Jun 2027 20:06:32.931,405.975
13,2 Jun 2027 02:37:05.833,2 Jun 2027 02:43:23.210,377.377
14,2 Jun 2027 04:12:31.726,2 Jun 2027 04:23:38.236,666.510
15,2 Jun 2027 05:48:29.063,2 Jun 2027 06:01:18.298,769.235
16,2 Jun 2027 07:24:26.189,2 Jun 2027 07:37:09.622,763.434
17,2 Jun 2027 09:00:08.002,2 Jun 2027 09:11:44.716,696.715
18,2 Jun 2027 10:35:16.421,2 Jun 2027 10:45:48.698,632.278
19,2 Jun 2027 12:09:39.914,2 Jun 2027 12:20:14.732,634.818
20,2 Jun 2027 13:43:44.212,2 Jun 2027 13:55:25.785,701.573
21,2 Jun 2027 15:18:22.923,2 Jun 2027 15:31:09.036,766.113
22,2 Jun 2027 16:54:20.127,2 Jun 2027 17:07:06.618,766.491
23,2 Jun 2027 18:32:08.083,2 Jun 2027 18:43:03.362,655.279
24,2 Jun 2027 20:12:36.746,2 Jun 2027 20:18:23.687,346.940
25,3 Jun 2027 02:48:58.410,3 Jun 2027 02:56:10.145,431.735
26,3 Jun 2027 04:24:32.974,3 Jun 2027 04:36:00.222,687.248
27,3 Jun 2027 06:00:31.235,3 Jun 2027 06:13:24.766,773.530
28,3 Jun 2027 07:36:27.268,3 Jun 2027 07:49:04.554,757.285
29,3 Jun 2027 09:12:05.941,3 Jun 2027 09:23:32.851,686.910
30,3 Jun 2027 10:47:08.851,3 Jun 2027 10:57:36.877,628.027
31,3 Jun 2027 12:21:27.529,3 Jun 2027 12:32:08.324,640.795
32,3 Jun 2027 13:55:33.156,3 Jun 2027 14:07:24.510,711.354
33,3 Jun 2027 15:30:19.720,3 Jun 2027 15:43:10.456,770.736
34,3 Jun 2027 17:06:29.198,3 Jun 2027 17:19:08.795,759.598
35,3 Jun 2027 18:44:33.611,3 Jun 2027 18:55:04.040,630.430
36,3 Jun 2027 20:25:34.324,3 Jun 2027 20:30:08.745,274.421
37,4 Jun 2027 03:00:53.601,4 Jun 2027 03:08:52.359,478.758
38,4 Jun 2027 04:36:34.507,4 Jun 2027 04:48:19.985,705.478
39,4 Jun 2027 06:12:33.370,4 Jun 2027 06:25:29.567,776.197
40,4 Jun 2027 07:48:28.076,4 Jun 2027 08:00:58.318,750.241
41,4 Jun 2027 09:24:03.308,4 Jun 2027 09:35:20.585,677.277
42,4 Jun 2027 10:59:00.514,4 Jun 2027 11:09:25.556,625.042
43,4 Jun 2027 12:33:14.904,4 Jun 2027 12:44:02.680,647.776
44,4 Jun 2027 14:07:22.779,4 Jun 2027 14:19:23.703,720.925
45,4 Jun 2027 15:42:17.858,4 Jun 2027 15:55:12.076,774.218
46,4 Jun 2027 17:18:40.086,4 Jun 2027 17:31:10.939,750.853
47,4 Jun 2027 18:57:01.669,4 Jun 2027 19:07:04.199,602.531
48,4 Jun 2027 20:38:47.204,4 Jun 2027 20:41:40.571,173.367
49,5 Jun 2027 03:12:50.560,5 Jun 2027 03:21:30.703,520.143
50,5 Jun 2027 04:48:36.259,5 Jun 2027 05:00:37.605,721.346
51,5 Jun 2027 06:24:35.431,5 Jun 2027 06:37:32.760,777.329
52,5 Jun 2027 08:00:28.582,5 Jun 2027 08:12:50.997,742.415
53,5 Jun 2027 09:36:00.051,5 Jun 2027 09:47:08.033,667.982
54,5 Jun 2027 11:10:51.415,5 Jun 2027 11:21:14.809,623.393
55,5 Jun 2027 12:45:02.154,5 Jun 2027 12:55:57.771,655.617
56,5 Jun 2027 14:19:13.181,5 Jun 2027 14:31:23.328,730.147
57,5 Jun 2027 15:54:17.397,5 Jun 2027 16:07:13.850,776.453
58,5 Jun 2027 17:30:52.860,5 Jun 2027 17:43:13.012,740.152
59,5 Jun 2027 19:09:32.423,5 Jun 2027 19:19:03.706,571.283
60,6 Jun 2027 03:24:48.790,6 Jun 2027 03:34:05.689,556.899
61,6 Jun 2027 05:00:38.181,6 Jun 2027 05:12:53.173,734.992
62,6 Jun 2027 06:36:37.395,6 Jun 2027 06:49:34.403,777.008
63,6 Jun 2027 08:12:28.750,6 Jun 2027 08:24:42.681,733.931
64,6 Jun 2027 09:47:56.135,6 Jun 2027 09:58:55.316,659.181
65,6 Jun 2027 11:22:41.604,6 Jun 2027 11:33:04.710,623.106
66,6 Jun 2027 12:56:49.397,6 Jun 2027 13:07:53.577,664.180
67,6 Jun 2027 14:31:04.459,6 Jun 2027 14:43:23.348,738.889
68,6 Jun 2027 16:06:18.397,6 Jun 2027 16:19:15.769,777.372
69,6 Jun 2027 17:43:07.578,6 Jun 2027 17:55:14.982,727.404
70,6 Jun 2027 19:22:06.097,6 Jun 2027 19:31:02.364,536.267
71,7 Jun 2027 02:02:36.256,7 Jun 2027 02:04:20.451,104.196
72,7 Jun 2027 03:36:47.973,7 Jun 2027 03:46:37.643,589.670
73,7 Jun 2027 05:12:40.219,7 Jun 2027 05:25:06.762,746.543
74,7 Jun 2027 06:48:39.234,7 Jun 2027 07:01:34.556,775.322
75,7 Jun 2027 08:24:28.542,7 Jun 2027 08:36:33.446,724.904
76,7 Jun 2027 09:59:51.527,7 Jun 2027 10:10:42.553,651.027
77,7 Jun 2027 11:34:31.116,7 Jun 2027 11:44:55.312,624.197
78,7 Jun 2027 13:08:36.755,7 Jun 2027 13:19:50.052,673.297
79,7 Jun 2027 14:42:56.702,7 Jun 2027 14:55:23.714,747.012
80,7 Jun 2027 16:18:20.926,7 Jun 2027 16:31:17.786,776.860
81,7 Jun 2027 17:55:24.326,7 Jun 2027 18:07:16.803,712.477
82,7 Jun 2027 19:34:42.973,7 Jun 2027 19:42:59.893,496.920
83,8 Jun 2027 02:13:52.797,8 Jun 2027 02:17:49.489,236.692
84,8 Jun 2027 03:48:47.885,8 Jun 2027 03:59:06.824,618.939
85,8 Jun 2027 05:24:42.338,8 Jun 2027 05:37:18.440,756.103
86,8 Jun 2027 07:00:40.921,8 Jun 2027 07:13:33.281,772.360
87,8 Jun 2027 08:36:27.921,8 Jun 2027 08:48:23.388,715.467
88,8 Jun 2027 10:11:46.196,8 Jun 2027 10:22:29.865,643.669
89,8 Jun 2027 11:46:20.022,8 Jun 2027 11:56:46.656,626.634
90,8 Jun 2027 13:20:24.353,8 Jun 2027 13:31:47.162,682.809
91,8 Jun 2027 14:54:49.995,8 Jun 2027 15:07:24.402,754.407
92,8 Jun 2027 16:30:25.039,8 Jun 2027 16:43:19.888,774.850
93,8 Jun 2027 18:07:43.171,8 Jun 2027 18:19:18.433,695.262
94,8 Jun 2027 19:47:23.483,8 Jun 2027 19:54:55.894,452.411
95,9 Jun 2027 02:25:33.850,9 Jun 2027 02:30:51.950,318.100
96,9 Jun 2027 04:00:48.359,9 Jun 2027 04:11:33.403,645.044
97,9 Jun 2027 05:36:44.510,9 Jun 2027 05:49:28.273,763.762
98,9 Jun 2027 07:12:42.423,9 Jun 2027 07:25:30.639,768.216
99,9 Jun 2027 08:48:26.846,9 Jun 2027 09:00:12.612,705.766
100,9 Jun 2027 10:23:40.107,9 Jun 2027 10:34:17.374,637.267
101,9 Jun 2027 11:58:08.401,9 Jun 2027 12:08:38.763,630.362
102,9 Jun 2027 13:32:12.299,9 Jun 2027 13:43:44.865,692.565
103,9 Jun 2027 15:06:44.419,9 Jun 2027 15:19:25.370,760.952
104,9 Jun 2027 16:42:30.789,9 Jun 2027 16:55:22.043,771.254
105,9 Jun 2027 18:20:04.208,9 Jun 2027 18:31:19.803,675.595
106,9 Jun 2027 20:00:08.298,9 Jun 2027 20:06:49.685,401.387
107,10 Jun 2027 02:37:22.619,10 Jun 2027 02:43:44.617,381.999
108,10 Jun 2027 04:12:49.283,10 Jun 2027 04:23:57.536,668.254
109,10 Jun 2027 05:48:46.688,10 Jun 2027 06:01:36.325,769.636
110,10 Jun 2027 07:24:43.719,10 Jun 2027 07:37:26.699,762.980
111,10 Jun 2027 09:00:25.275,10 Jun 2027 09:12:01.222,695.947
112,10 Jun 2027 10:35:33.245,10 Jun 2027 10:46:05.183,631.938
113,10 Jun 2027 12:09:56.329,10 Jun 2027 12:20:31.646,635.317
114,10 Jun 2027 13:44:00.711,10 Jun 2027 13:55:43.119,702.408
115,10 Jun 2027 15:18:40.048,10 Jun 2027 15:31:26.588,766.541
116,10 Jun 2027 16:54:38.244,10 Jun 2027 17:07:24.226,765.981
117,10 Jun 2027 18:32:27.533,10 Jun 2027 18:43:20.845,653.311
118,10 Jun 2027 20:12:58.621,10 Jun 2027 20:18:40.079,341.458
119,11 Jun 2027 02:49:15.439,11 Jun 2027 02:56:31.135,435.696
120,11 Jun 2027 04:24:50.553,11 Jun 2027 04:36:19.339,688.786
121,11 Jun 2027 06:00:48.856,11 Jun 2027 06:13:42.655,773.799
122,11 Jun 2027 07:36:44.775,11 Jun 2027 07:49:21.533,756.758
123,11 Jun 2027 09:12:23.167,11 Jun 2027 09:23:49.320,686.153
124,11 Jun 2027 10:47:25.610,11 Jun 2027 10:57:53.399,627.788
125,11 Jun 2027 12:21:43.921,11 Jun 2027 12:32:25.300,641.379
126,11 Jun 2027 13:55:49.707,11 Jun 2027 14:07:41.882,712.175
127,11 Jun 2027 15:30:36.952,11 Jun 2027 15:43:28.022,771.071
128,11 Jun 2027 17:06:47.465,11 Jun 2027 17:19:26.399,758.934
129,11 Jun 2027 18:44:53.264,11 Jun 2027 18:55:21.479,628.215
130,11 Jun 2027 20:25:57.058,11 Jun 2027 20:30:24.445,267.387
131,12 Jun 2027 03:01:10.787,12 Jun 2027 03:09:13.015,482.228
132,12 Jun 2027 04:36:52.102,12 Jun 2027 04:48:38.926,706.824
133,12 Jun 2027 06:12:50.983,12 Jun 2027 06:25:47.323,776.340
134,12 Jun 2027 07:48:45.558,12 Jun 2027 08:01:15.206,749.648
135,12 Jun 2027 09:24:20.483,12 Jun 2027 09:35:37.027,676.544
136,12 Jun 2027 10:59:17.206,12 Jun 2027 11:09:42.121,624.915
137,12 Jun 2027 12:33:31.282,12 Jun 2027 12:44:19.717,648.435
138,12 Jun 2027 14:07:39.390,12 Jun 2027 14:19:41.109,721.719
139,12 Jun 2027 15:42:35.203,12 Jun 2027 15:55:29.650,774.448
140,12 Jun 2027 17:18:58.501,12 Jun 2027 17:31:28.531,750.030
141,12 Jun 2027 18:57:21.539,12 Jun 2027 19:07:21.585,600.046
142,12 Jun 2027 20:39:12.187,12 Jun 2027 20:41:54.184,161.997
143,13 Jun 2027 03:13:07.858,13 Jun 2027 03:21:51.077,523.219
144,13 Jun 2027 04:48:53.865,13 Jun 2027 05:00:56.376,722.511
145,13 Jun 2027 06:24:53.034,13 Jun 2027 06:37:50.387,777.353
146,13 Jun 2027 08:00:46.035,13 Jun 2027 08:13:07.801,741.766
147,13 Jun 2027 09:36:17.172,13 Jun 2027 09:47:24.457,667.285
148,13 Jun 2027 11:11:08.051,13 Jun 2027 11:21:31.423,623.373
149,13 Jun 2027 12:45:18.527,13 Jun 2027 12:56:14.863,656.336
150,13 Jun 2027 14:19:29.861,13 Jun 2027 14:31:40.766,730.905
151,13 Jun 2027 15:54:34.858,13 Jun 2027 16:07:31.438,776.579
152,13 Jun 2027 17:31:11.434,13 Jun 2027 17:43:30.598,739.164
153,13 Jun 2027 19:09:52.524,13 Jun 2027 19:19:21.027,568.502
