dataset/area_work/orbit_19/ZorkySat_111904.csv

Acces,Start Time (UTCG),Stop Time (UTCG),Duration (sec)
1,1 Jun 2027 03:10:25.965,1 Jun 2027 03:17:49.211,443.245
2,1 Jun 2027 04:48:39.313,1 Jun 2027 04:49:39.981,60.668
3,1 Jun 2027 04:49:45.776,1 Jun 2027 04:54:43.646,297.870
4,1 Jun 2027 06:27:40.242,1 Jun 2027 06:31:10.116,209.874
5,1 Jun 2027 07:50:02.347,1 Jun 2027 07:52:47.660,165.312
6,1 Jun 2027 09:26:37.245,1 Jun 2027 09:30:11.077,213.833
7,1 Jun 2027 11:01:46.202,1 Jun 2027 11:07:30.135,343.933
8,1 Jun 2027 11:07:33.671,1 Jun 2027 11:08:32.487,58.816
9,2 Jun 2027 03:22:22.519,2 Jun 2027 03:29:33.541,431.021
10,2 Jun 2027 05:00:35.339,2 Jun 2027 05:01:31.213,55.875
11,2 Jun 2027 05:01:42.133,2 Jun 2027 05:06:45.794,303.661
12,2 Jun 2027 06:38:51.212,2 Jun 2027 06:42:37.041,225.829
13,2 Jun 2027 08:02:13.350,2 Jun 2027 08:05:23.859,190.509
14,2 Jun 2027 09:38:48.251,2 Jun 2027 09:42:17.851,209.600
15,2 Jun 2027 11:13:58.305,2 Jun 2027 11:20:34.121,395.817
16,3 Jun 2027 03:34:23.424,3 Jun 2027 03:41:17.889,414.464
17,3 Jun 2027 05:13:41.187,3 Jun 2027 05:18:51.772,310.585
18,3 Jun 2027 05:20:02.261,3 Jun 2027 05:21:34.001,91.740
19,3 Jun 2027 06:50:47.620,3 Jun 2027 06:51:29.631,42.011
20,3 Jun 2027 06:51:36.342,3 Jun 2027 06:54:23.542,167.199
21,3 Jun 2027 08:14:45.032,3 Jun 2027 08:17:28.496,163.464
22,3 Jun 2027 09:50:36.527,3 Jun 2027 09:54:44.275,247.748
23,3 Jun 2027 11:25:28.727,3 Jun 2027 11:32:42.910,434.183
24,4 Jun 2027 03:47:04.470,4 Jun 2027 03:53:29.705,385.235
25,4 Jun 2027 05:25:49.589,4 Jun 2027 05:33:24.289,454.700
26,4 Jun 2027 06:51:27.008,4 Jun 2027 06:52:30.875,63.867
27,4 Jun 2027 07:02:45.692,4 Jun 2027 07:04:24.814,99.123
28,4 Jun 2027 08:25:21.048,4 Jun 2027 08:26:25.273,64.225
29,4 Jun 2027 08:26:56.224,4 Jun 2027 08:30:02.498,186.274
30,4 Jun 2027 10:00:52.432,4 Jun 2027 10:01:43.340,50.908
31,4 Jun 2027 10:02:21.608,4 Jun 2027 10:06:58.833,277.224
32,4 Jun 2027 11:37:12.304,4 Jun 2027 11:44:45.092,452.787
33,5 Jun 2027 03:59:11.609,5 Jun 2027 04:05:18.651,367.042
34,5 Jun 2027 05:38:15.700,5 Jun 2027 05:45:23.038,427.338
35,5 Jun 2027 07:03:05.225,5 Jun 2027 07:04:39.769,94.544
36,5 Jun 2027 07:14:45.206,5 Jun 2027 07:15:45.259,60.053
37,5 Jun 2027 08:37:03.994,5 Jun 2027 08:38:10.082,66.088
38,5 Jun 2027 08:39:00.027,5 Jun 2027 08:42:15.886,195.859
39,5 Jun 2027 10:12:00.330,5 Jun 2027 10:13:57.377,117.047
40,5 Jun 2027 10:14:05.876,5 Jun 2027 10:19:21.778,315.903
41,5 Jun 2027 10:20:01.214,5 Jun 2027 10:20:22.944,21.730
42,5 Jun 2027 11:49:30.257,5 Jun 2027 11:56:48.735,438.478
43,6 Jun 2027 04:11:35.595,6 Jun 2027 04:11:57.469,21.874
44,6 Jun 2027 04:12:04.668,6 Jun 2027 04:12:34.553,29.884
45,6 Jun 2027 04:12:39.646,6 Jun 2027 04:13:33.738,54.093
46,6 Jun 2027 04:13:35.979,6 Jun 2027 04:17:33.079,237.100
47,6 Jun 2027 05:50:20.053,6 Jun 2027 05:57:15.295,415.242
48,6 Jun 2027 07:14:38.849,6 Jun 2027 07:16:44.995,126.145
49,6 Jun 2027 07:26:59.871,6 Jun 2027 07:27:19.401,19.530
50,6 Jun 2027 08:48:36.016,6 Jun 2027 08:49:55.933,79.917
51,6 Jun 2027 08:50:45.086,6 Jun 2027 08:54:29.055,223.969
52,6 Jun 2027 10:23:29.498,6 Jun 2027 10:31:33.153,483.655
53,6 Jun 2027 10:31:54.209,6 Jun 2027 10:32:50.845,56.636
54,7 Jun 2027 04:24:15.056,7 Jun 2027 04:24:28.032,12.976
55,7 Jun 2027 04:24:38.062,7 Jun 2027 04:25:38.793,60.731
56,7 Jun 2027 04:25:47.694,7 Jun 2027 04:26:12.699,25.005
57,7 Jun 2027 04:26:24.260,7 Jun 2027 04:29:50.139,205.879
58,7 Jun 2027 06:02:46.357,7 Jun 2027 06:07:47.830,301.473
59,7 Jun 2027 07:26:34.955,7 Jun 2027 07:28:51.969,137.014
60,7 Jun 2027 09:02:35.183,7 Jun 2027 09:06:29.040,233.857
61,7 Jun 2027 10:36:22.977,7 Jun 2027 10:43:41.743,438.765
62,7 Jun 2027 10:43:54.023,7 Jun 2027 10:44:54.352,60.329
63,8 Jun 2027 03:00:00.000,8 Jun 2027 03:06:04.100,364.100
64,8 Jun 2027 04:36:48.811,8 Jun 2027 04:37:16.044,27.233
65,8 Jun 2027 04:37:26.718,8 Jun 2027 04:42:57.815,331.096
66,8 Jun 2027 06:15:05.268,8 Jun 2027 06:19:39.718,274.450
67,8 Jun 2027 07:38:27.783,8 Jun 2027 07:41:02.240,154.458
68,8 Jun 2027 09:14:48.659,8 Jun 2027 09:18:19.226,210.567
69,8 Jun 2027 10:48:51.639,8 Jun 2027 10:55:51.425,419.786
70,8 Jun 2027 10:55:52.457,8 Jun 2027 10:56:53.697,61.240
71,9 Jun 2027 03:10:41.808,9 Jun 2027 03:18:13.453,451.645
72,9 Jun 2027 04:48:55.777,9 Jun 2027 04:49:57.210,61.434
73,9 Jun 2027 04:50:02.855,9 Jun 2027 04:55:05.874,303.019
74,9 Jun 2027 06:27:57.864,9 Jun 2027 06:31:27.659,209.795
75,9 Jun 2027 07:50:28.951,9 Jun 2027 07:53:04.757,155.806
76,9 Jun 2027 09:26:55.182,9 Jun 2027 09:30:28.448,213.266
77,9 Jun 2027 11:02:03.568,9 Jun 2027 11:07:48.442,344.874
78,9 Jun 2027 11:07:50.925,9 Jun 2027 11:08:50.702,59.777
79,10 Jun 2027 03:22:40.213,10 Jun 2027 03:29:48.976,428.762
80,10 Jun 2027 05:00:53.654,10 Jun 2027 05:01:41.708,48.054
81,10 Jun 2027 05:02:00.135,10 Jun 2027 05:07:00.950,300.815
82,10 Jun 2027 06:39:07.568,10 Jun 2027 06:42:53.772,226.204
83,10 Jun 2027 08:02:29.498,10 Jun 2027 08:05:42.441,192.942
84,10 Jun 2027 09:39:05.852,10 Jun 2027 09:42:34.116,208.264
85,10 Jun 2027 11:14:15.966,10 Jun 2027 11:20:51.751,395.785
86,11 Jun 2027 03:34:41.637,11 Jun 2027 03:35:04.830,23.194
87,11 Jun 2027 03:35:04.993,11 Jun 2027 03:41:37.617,392.624
88,11 Jun 2027 05:13:59.148,11 Jun 2027 05:19:13.093,313.946
89,11 Jun 2027 05:20:16.321,11 Jun 2027 05:21:49.919,93.598
90,11 Jun 2027 06:40:22.786,11 Jun 2027 06:40:25.081,2.295
91,11 Jun 2027 06:51:05.087,11 Jun 2027 06:51:47.161,42.074
92,11 Jun 2027 06:51:52.782,11 Jun 2027 06:54:41.685,168.903
93,11 Jun 2027 08:15:04.952,11 Jun 2027 08:17:46.988,162.036
94,11 Jun 2027 09:50:50.382,11 Jun 2027 09:55:02.766,252.384
95,11 Jun 2027 11:25:44.585,11 Jun 2027 11:33:01.191,436.606
96,12 Jun 2027 03:47:22.233,12 Jun 2027 03:53:49.087,386.855
97,12 Jun 2027 05:26:19.842,12 Jun 2027 05:33:44.000,444.158
98,12 Jun 2027 06:51:40.398,12 Jun 2027 06:52:49.576,69.178
99,12 Jun 2027 07:03:03.666,12 Jun 2027 07:04:31.948,88.281
100,12 Jun 2027 08:25:40.726,12 Jun 2027 08:26:42.016,61.290
101,12 Jun 2027 08:26:55.894,12 Jun 2027 08:30:21.201,205.307
102,12 Jun 2027 10:01:04.775,12 Jun 2027 10:02:00.583,55.807
103,12 Jun 2027 10:02:36.216,12 Jun 2027 10:07:17.870,281.654
104,12 Jun 2027 11:37:31.227,12 Jun 2027 11:45:02.279,451.053
105,13 Jun 2027 03:59:30.281,13 Jun 2027 04:01:04.388,94.107
106,13 Jun 2027 04:01:05.350,13 Jun 2027 04:05:36.164,270.813
107,13 Jun 2027 05:38:35.326,13 Jun 2027 05:45:39.852,424.526
108,13 Jun 2027 07:03:23.328,13 Jun 2027 07:04:58.902,95.574
109,13 Jun 2027 07:15:03.068,13 Jun 2027 07:16:01.012,57.944
110,13 Jun 2027 08:37:20.336,13 Jun 2027 08:38:26.907,66.571
111,13 Jun 2027 08:39:14.745,13 Jun 2027 08:42:34.917,200.172
112,13 Jun 2027 10:12:14.068,13 Jun 2027 10:14:15.850,121.781
113,13 Jun 2027 10:14:22.582,13 Jun 2027 10:19:31.505,308.923
114,13 Jun 2027 10:20:18.280,13 Jun 2027 10:20:41.390,23.110
115,13 Jun 2027 11:49:46.748,13 Jun 2027 11:57:06.799,440.050
