dataset/facility_timing/facility_Facility-Anadyr2/Anadyr2-To-KinoSat_112001.csv

Acces,Start Time (UTCG),Stop Time (UTCG),Duration (sec)
1,1 Jun 2027 00:17:22.699,1 Jun 2027 00:27:59.042,636.343
2,1 Jun 2027 01:52:32.500,1 Jun 2027 02:01:15.155,522.655
3,1 Jun 2027 03:26:29.602,1 Jun 2027 03:35:15.011,525.409
4,1 Jun 2027 04:59:45.748,1 Jun 2027 05:10:26.919,641.171
5,1 Jun 2027 06:33:44.924,1 Jun 2027 06:46:15.055,750.131
6,1 Jun 2027 08:09:22.046,1 Jun 2027 08:22:11.783,769.737
7,1 Jun 2027 09:47:15.939,1 Jun 2027 09:57:55.340,639.401
8,1 Jun 2027 11:30:08.043,1 Jun 2027 11:31:04.283,56.240
9,1 Jun 2027 18:07:19.313,1 Jun 2027 18:12:04.057,284.745
10,1 Jun 2027 19:41:52.387,1 Jun 2027 19:53:07.012,674.625
11,1 Jun 2027 21:17:40.247,1 Jun 2027 21:30:35.219,774.972
12,1 Jun 2027 22:53:36.913,1 Jun 2027 23:05:53.768,736.855
13,2 Jun 2027 00:29:21.483,2 Jun 2027 00:39:41.204,619.722
14,2 Jun 2027 02:04:23.628,2 Jun 2027 02:12:58.188,514.559
15,2 Jun 2027 03:38:11.643,2 Jun 2027 03:47:07.782,536.140
16,2 Jun 2027 05:11:28.847,2 Jun 2027 05:22:26.431,657.584
17,2 Jun 2027 06:45:38.087,2 Jun 2027 06:58:16.840,758.753
18,2 Jun 2027 08:21:30.238,2 Jun 2027 08:34:13.266,763.028
19,2 Jun 2027 09:59:45.346,2 Jun 2027 10:09:52.541,607.196
20,2 Jun 2027 18:18:55.467,2 Jun 2027 18:25:08.287,372.820
21,2 Jun 2027 19:53:51.637,2 Jun 2027 20:05:29.186,697.550
22,2 Jun 2027 21:29:42.067,2 Jun 2027 21:42:38.609,776.543
23,2 Jun 2027 23:05:38.353,2 Jun 2027 23:17:43.402,725.049
24,3 Jun 2027 00:41:19.620,3 Jun 2027 00:51:22.827,603.207
25,3 Jun 2027 02:16:13.426,3 Jun 2027 02:24:42.189,508.764
26,3 Jun 2027 03:49:53.138,3 Jun 2027 03:59:01.723,548.585
27,3 Jun 2027 05:23:12.844,3 Jun 2027 05:34:26.429,673.585
28,3 Jun 2027 06:57:32.911,3 Jun 2027 07:10:18.719,765.808
29,3 Jun 2027 08:33:40.664,3 Jun 2027 08:46:14.520,753.856
30,3 Jun 2027 10:12:18.419,3 Jun 2027 10:21:48.410,569.991
31,3 Jun 2027 18:30:40.351,3 Jun 2027 18:38:01.221,440.870
32,3 Jun 2027 20:05:51.498,3 Jun 2027 20:17:48.563,717.065
33,3 Jun 2027 21:41:43.973,3 Jun 2027 21:54:40.015,776.042
34,3 Jun 2027 23:17:39.561,3 Jun 2027 23:29:31.637,712.076
35,4 Jun 2027 00:53:17.016,4 Jun 2027 01:03:04.072,587.055
36,4 Jun 2027 02:28:01.883,4 Jun 2027 02:36:27.306,505.423
37,4 Jun 2027 04:01:34.305,4 Jun 2027 04:10:56.749,562.444
38,4 Jun 2027 05:34:57.864,4 Jun 2027 05:46:26.834,688.970
39,4 Jun 2027 07:09:29.471,4 Jun 2027 07:22:20.655,771.184
40,4 Jun 2027 08:45:53.421,4 Jun 2027 08:58:15.487,742.066
41,4 Jun 2027 10:24:55.639,4 Jun 2027 10:33:42.519,526.880
42,4 Jun 2027 18:42:30.021,4 Jun 2027 18:50:46.858,496.837
43,4 Jun 2027 20:17:51.860,4 Jun 2027 20:30:05.301,733.441
44,4 Jun 2027 21:53:45.912,4 Jun 2027 22:06:39.518,773.606
45,4 Jun 2027 23:29:40.507,4 Jun 2027 23:41:18.563,698.057
46,5 Jun 2027 01:05:13.580,5 Jun 2027 01:14:45.134,571.554
47,5 Jun 2027 02:39:49.014,5 Jun 2027 02:48:13.651,504.637
48,5 Jun 2027 04:13:15.338,5 Jun 2027 04:22:52.761,577.423
49,5 Jun 2027 05:46:44.027,5 Jun 2027 05:58:27.588,703.562
50,5 Jun 2027 07:21:27.835,5 Jun 2027 07:34:22.600,774.765
51,5 Jun 2027 08:58:08.602,5 Jun 2027 09:10:16.098,727.496
52,5 Jun 2027 10:37:37.741,5 Jun 2027 10:45:34.192,476.452
53,5 Jun 2027 18:54:22.746,5 Jun 2027 19:03:26.965,544.220
54,5 Jun 2027 20:29:52.616,5 Jun 2027 20:42:19.535,746.919
55,5 Jun 2027 22:05:47.857,5 Jun 2027 22:18:37.178,769.321
56,5 Jun 2027 23:41:41.131,5 Jun 2027 23:53:04.278,683.147
57,6 Jun 2027 01:17:09.219,6 Jun 2027 01:26:26.201,556.982
58,6 Jun 2027 02:51:34.858,6 Jun 2027 03:00:01.295,506.437
59,6 Jun 2027 04:24:56.438,6 Jun 2027 04:34:49.664,593.226
60,6 Jun 2027 05:58:31.435,6 Jun 2027 06:10:28.643,717.208
61,6 Jun 2027 07:33:28.064,6 Jun 2027 07:46:24.531,776.467
62,6 Jun 2027 09:10:26.345,6 Jun 2027 09:22:16.267,709.922
63,6 Jun 2027 10:50:25.924,6 Jun 2027 10:57:22.278,416.355
64,6 Jun 2027 19:06:17.605,6 Jun 2027 19:16:02.518,584.913
65,6 Jun 2027 20:41:53.707,6 Jun 2027 20:54:31.379,757.672
66,6 Jun 2027 22:17:49.771,6 Jun 2027 22:30:33.065,763.294
67,6 Jun 2027 23:53:41.375,7 Jun 2027 00:04:48.890,667.515
68,7 Jun 2027 01:29:03.826,7 Jun 2027 01:38:07.479,543.653
69,7 Jun 2027 03:03:19.524,7 Jun 2027 03:11:50.278,510.754
70,7 Jun 2027 04:36:37.802,7 Jun 2027 04:46:47.365,609.563
71,7 Jun 2027 06:10:20.197,7 Jun 2027 06:22:29.953,729.756
72,7 Jun 2027 07:45:30.226,7 Jun 2027 07:58:26.407,776.181
73,7 Jun 2027 09:22:46.778,7 Jun 2027 09:34:15.905,689.127
74,7 Jun 2027 11:03:22.531,7 Jun 2027 11:09:04.469,341.939
75,7 Jun 2027 19:18:14.037,7 Jun 2027 19:28:34.131,620.094
76,7 Jun 2027 20:53:55.053,7 Jun 2027 21:06:40.931,765.879
77,7 Jun 2027 22:29:51.616,7 Jun 2027 22:42:27.251,755.634
78,8 Jun 2027 00:05:41.186,8 Jun 2027 00:16:32.531,651.345
79,8 Jun 2027 01:40:57.316,8 Jun 2027 01:49:49.172,531.855
80,8 Jun 2027 03:15:03.121,8 Jun 2027 03:23:40.608,517.487
81,8 Jun 2027 04:48:19.608,8 Jun 2027 04:58:45.767,626.159
82,8 Jun 2027 06:22:10.401,8 Jun 2027 06:34:31.461,741.061
83,8 Jun 2027 07:57:34.393,8 Jun 2027 08:10:28.185,773.793
84,8 Jun 2027 09:35:10.086,8 Jun 2027 09:46:14.872,664.786
85,8 Jun 2027 11:16:33.667,8 Jun 2027 11:20:34.705,241.038
86,8 Jun 2027 17:56:18.659,8 Jun 2027 17:59:01.699,163.040
87,8 Jun 2027 19:30:11.664,8 Jun 2027 19:41:02.219,650.555
88,8 Jun 2027 21:05:56.609,8 Jun 2027 21:18:48.289,771.680
89,8 Jun 2027 22:41:53.357,8 Jun 2027 22:54:19.795,746.437
90,9 Jun 2027 00:17:40.497,9 Jun 2027 00:28:15.332,634.836
91,9 Jun 2027 01:52:49.598,9 Jun 2027 02:01:31.480,521.882
92,9 Jun 2027 03:26:45.826,9 Jun 2027 03:35:32.237,526.411
93,9 Jun 2027 05:00:02.024,9 Jun 2027 05:10:44.784,642.761
94,9 Jun 2027 06:34:02.120,9 Jun 2027 06:46:33.137,751.016
95,9 Jun 2027 08:09:40.633,9 Jun 2027 08:22:29.833,769.200
96,9 Jun 2027 09:47:36.472,9 Jun 2027 09:58:13.005,636.534
97,9 Jun 2027 18:07:34.509,9 Jun 2027 18:12:28.577,294.068
98,9 Jun 2027 19:42:10.223,9 Jun 2027 19:53:27.102,676.879
99,9 Jun 2027 21:17:58.328,9 Jun 2027 21:30:53.530,775.202
100,9 Jun 2027 22:53:54.955,9 Jun 2027 23:06:10.782,735.827
101,10 Jun 2027 00:29:39.220,10 Jun 2027 00:39:57.443,618.223
102,10 Jun 2027 02:04:40.601,10 Jun 2027 02:13:14.601,513.999
103,10 Jun 2027 03:38:27.808,10 Jun 2027 03:47:25.116,537.309
104,10 Jun 2027 05:11:45.203,10 Jun 2027 05:22:44.345,659.142
105,10 Jun 2027 06:45:55.437,10 Jun 2027 06:58:34.929,759.492
106,10 Jun 2027 08:21:49.031,10 Jun 2027 08:34:31.294,762.263
107,10 Jun 2027 10:00:06.204,10 Jun 2027 10:10:10.092,603.887
108,10 Jun 2027 18:19:11.761,10 Jun 2027 18:25:31.468,379.707
109,10 Jun 2027 19:54:09.531,10 Jun 2027 20:05:49.009,699.478
110,10 Jun 2027 21:30:00.154,10 Jun 2027 21:42:56.733,776.579
111,10 Jun 2027 23:05:56.369,10 Jun 2027 23:18:00.282,723.913
112,11 Jun 2027 00:41:37.292,11 Jun 2027 00:51:39.023,601.731
113,11 Jun 2027 02:16:30.273,11 Jun 2027 02:24:58.702,508.429
114,11 Jun 2027 03:50:09.266,11 Jun 2027 03:59:19.159,549.893
115,11 Jun 2027 05:23:29.292,11 Jun 2027 05:34:44.380,675.087
116,11 Jun 2027 06:57:50.420,11 Jun 2027 07:10:36.811,766.391
117,11 Jun 2027 08:33:59.671,11 Jun 2027 08:46:32.520,752.849
118,11 Jun 2027 10:12:39.644,11 Jun 2027 10:22:05.811,566.167
119,11 Jun 2027 18:30:57.187,11 Jun 2027 18:38:23.621,446.434
120,11 Jun 2027 20:06:09.439,11 Jun 2027 20:18:08.131,718.692
121,11 Jun 2027 21:42:02.063,11 Jun 2027 21:54:57.958,775.896
122,11 Jun 2027 23:17:57.555,11 Jun 2027 23:29:48.390,710.836
123,12 Jun 2027 00:53:34.612,12 Jun 2027 01:03:20.243,585.631
124,12 Jun 2027 02:28:18.604,12 Jun 2027 02:36:43.926,505.322
125,12 Jun 2027 04:01:50.413,12 Jun 2027 04:11:14.278,563.865
126,12 Jun 2027 05:35:14.415,12 Jun 2027 05:46:44.817,690.401
127,12 Jun 2027 07:09:47.147,12 Jun 2027 07:22:38.748,771.601
128,12 Jun 2027 08:46:12.651,12 Jun 2027 08:58:33.454,740.803
129,12 Jun 2027 10:25:17.292,12 Jun 2027 10:33:59.721,522.429
130,12 Jun 2027 18:42:47.186,12 Jun 2027 18:51:08.693,501.507
131,12 Jun 2027 20:18:09.838,12 Jun 2027 20:30:24.634,734.796
132,12 Jun 2027 21:54:04.000,12 Jun 2027 22:06:57.287,773.286
133,12 Jun 2027 23:29:58.470,12 Jun 2027 23:41:35.201,696.730
134,13 Jun 2027 01:05:31.091,13 Jun 2027 01:15:01.300,570.209
135,13 Jun 2027 02:40:05.612,13 Jun 2027 02:48:30.389,504.777
136,13 Jun 2027 04:13:31.446,13 Jun 2027 04:23:10.375,578.929
137,13 Jun 2027 05:47:00.691,13 Jun 2027 05:58:45.599,704.907
138,13 Jun 2027 07:21:45.683,13 Jun 2027 07:34:40.690,775.007
139,13 Jun 2027 08:58:28.067,13 Jun 2027 09:10:34.025,725.958
140,13 Jun 2027 10:37:59.906,13 Jun 2027 10:45:51.110,471.203
141,13 Jun 2027 18:54:40.135,13 Jun 2027 19:03:48.347,548.212
142,13 Jun 2027 20:30:10.625,13 Jun 2027 20:42:38.641,748.016
143,13 Jun 2027 22:06:05.941,13 Jun 2027 22:18:54.779,768.837
144,13 Jun 2027 23:41:59.059,13 Jun 2027 23:53:20.808,681.749
