dataset/facility_timing/facility_Facility-Anadyr2/Anadyr2-To-KinoSat_111205.csv

Acces,Start Time (UTCG),Stop Time (UTCG),Duration (sec)
1,1 Jun 2027 00:06:34.086,1 Jun 2027 00:15:25.505,531.418
2,1 Jun 2027 01:39:51.280,1 Jun 2027 01:50:37.442,646.162
3,1 Jun 2027 03:13:52.608,1 Jun 2027 03:26:24.921,752.313
4,1 Jun 2027 04:49:32.374,1 Jun 2027 05:02:20.634,768.260
5,1 Jun 2027 06:27:30.023,1 Jun 2027 06:38:02.262,632.240
6,1 Jun 2027 14:47:30.513,1 Jun 2027 14:52:17.252,286.739
7,1 Jun 2027 16:22:02.746,1 Jun 2027 16:33:18.159,675.413
8,1 Jun 2027 17:57:49.722,1 Jun 2027 18:10:44.655,774.933
9,1 Jun 2027 19:33:45.388,1 Jun 2027 19:46:02.006,736.618
10,1 Jun 2027 21:09:28.548,1 Jun 2027 21:19:49.232,620.684
11,1 Jun 2027 22:44:28.806,1 Jun 2027 22:53:07.367,518.560
12,2 Jun 2027 00:18:16.001,2 Jun 2027 00:27:18.114,542.114
13,2 Jun 2027 01:51:34.452,2 Jun 2027 02:02:36.622,662.170
14,2 Jun 2027 03:25:45.845,2 Jun 2027 03:38:26.312,760.467
15,2 Jun 2027 05:01:40.600,2 Jun 2027 05:14:21.666,761.066
16,2 Jun 2027 06:39:59.631,2 Jun 2027 06:49:58.774,599.143
17,2 Jun 2027 14:59:06.464,2 Jun 2027 15:05:20.489,374.025
18,2 Jun 2027 16:34:01.609,2 Jun 2027 16:45:39.682,698.073
19,2 Jun 2027 18:09:51.140,2 Jun 2027 18:22:47.563,776.423
20,2 Jun 2027 19:45:46.384,2 Jun 2027 19:57:51.350,724.967
21,2 Jun 2027 21:21:26.200,2 Jun 2027 21:31:30.775,604.575
22,2 Jun 2027 22:56:18.192,2 Jun 2027 23:04:51.396,513.204
23,3 Jun 2027 00:29:57.413,3 Jun 2027 00:39:11.855,554.442
24,3 Jun 2027 02:03:18.518,3 Jun 2027 02:14:36.267,677.748
25,3 Jun 2027 03:37:40.723,3 Jun 2027 03:50:27.792,767.069
26,3 Jun 2027 05:13:51.050,3 Jun 2027 05:26:22.457,751.407
27,3 Jun 2027 06:52:32.956,3 Jun 2027 07:01:53.880,560.924
28,3 Jun 2027 15:10:51.017,3 Jun 2027 15:18:12.599,441.582
29,3 Jun 2027 16:46:01.078,3 Jun 2027 16:57:58.444,717.365
30,3 Jun 2027 18:21:52.638,3 Jun 2027 18:34:48.529,775.891
31,3 Jun 2027 19:57:47.161,3 Jun 2027 20:09:39.325,712.164
32,3 Jun 2027 21:33:23.117,3 Jun 2027 21:43:11.968,588.851
33,3 Jun 2027 23:08:06.275,3 Jun 2027 23:16:36.519,510.244
34,4 Jun 2027 00:41:38.528,4 Jun 2027 00:51:06.648,568.119
35,4 Jun 2027 02:15:03.605,4 Jun 2027 02:26:36.311,692.706
36,4 Jun 2027 03:49:37.314,4 Jun 2027 04:02:29.312,771.998
37,4 Jun 2027 05:26:03.816,4 Jun 2027 05:38:22.947,739.131
38,4 Jun 2027 07:05:10.532,4 Jun 2027 07:13:47.105,516.573
39,4 Jun 2027 15:22:40.297,4 Jun 2027 15:30:57.499,497.201
40,4 Jun 2027 16:58:01.039,4 Jun 2027 17:10:14.607,733.568
41,4 Jun 2027 18:33:54.169,4 Jun 2027 18:46:47.621,773.452
42,4 Jun 2027 20:09:47.659,4 Jun 2027 20:21:26.026,698.366
43,4 Jun 2027 21:45:19.210,4 Jun 2027 21:54:53.002,573.791
44,4 Jun 2027 23:19:53.075,4 Jun 2027 23:28:22.839,509.764
45,5 Jun 2027 00:53:19.544,5 Jun 2027 01:03:02.400,582.856
46,5 Jun 2027 02:26:49.831,5 Jun 2027 02:38:36.692,706.862
47,5 Jun 2027 04:01:35.693,5 Jun 2027 04:14:30.848,775.156
48,5 Jun 2027 05:38:19.002,5 Jun 2027 05:50:23.072,724.070
49,5 Jun 2027 07:17:53.140,5 Jun 2027 07:25:37.708,464.569
50,5 Jun 2027 15:34:32.616,5 Jun 2027 15:43:36.924,544.307
51,5 Jun 2027 17:10:01.398,5 Jun 2027 17:22:28.309,746.910
52,5 Jun 2027 18:45:55.697,5 Jun 2027 18:58:44.906,769.209
53,5 Jun 2027 20:21:47.838,5 Jun 2027 20:33:11.548,683.709
54,5 Jun 2027 21:57:14.382,5 Jun 2027 22:06:34.065,559.683
55,5 Jun 2027 23:31:38.643,5 Jun 2027 23:40:10.424,511.780
56,6 Jun 2027 01:05:00.648,6 Jun 2027 01:14:59.011,598.363
57,6 Jun 2027 02:38:37.286,6 Jun 2027 02:50:37.369,720.083
58,6 Jun 2027 04:13:35.915,6 Jun 2027 04:26:32.360,776.445
59,6 Jun 2027 05:50:36.733,6 Jun 2027 06:02:22.737,706.004
60,6 Jun 2027 07:30:42.151,6 Jun 2027 07:37:24.385,402.234
61,6 Jun 2027 15:46:27.061,6 Jun 2027 15:56:11.841,584.780
62,6 Jun 2027 17:22:02.081,6 Jun 2027 17:34:39.652,757.571
63,6 Jun 2027 18:57:57.198,6 Jun 2027 19:10:40.455,763.256
64,6 Jun 2027 20:33:47.640,6 Jun 2027 20:44:56.001,668.362
65,6 Jun 2027 22:09:08.535,6 Jun 2027 22:18:15.342,546.807
66,6 Jun 2027 23:43:23.081,6 Jun 2027 23:51:59.304,516.223
67,7 Jun 2027 01:16:42.028,7 Jun 2027 01:26:56.392,614.364
68,7 Jun 2027 02:50:26.080,7 Jun 2027 03:02:38.291,732.211
69,7 Jun 2027 04:25:38.049,7 Jun 2027 04:38:33.815,775.766
70,7 Jun 2027 06:02:57.150,7 Jun 2027 06:14:21.849,684.699
71,7 Jun 2027 07:43:40.297,7 Jun 2027 07:49:04.421,324.124
72,7 Jun 2027 15:58:23.071,7 Jun 2027 16:08:42.852,619.782
73,7 Jun 2027 17:34:03.029,7 Jun 2027 17:46:48.738,765.709
74,7 Jun 2027 19:09:58.621,7 Jun 2027 19:22:34.327,755.705
75,7 Jun 2027 20:45:47.003,7 Jun 2027 20:56:39.517,652.514
76,7 Jun 2027 22:21:01.592,7 Jun 2027 22:29:57.048,535.456
77,7 Jun 2027 23:55:06.500,8 Jun 2027 00:03:49.485,522.985
78,8 Jun 2027 01:28:23.861,8 Jun 2027 01:38:54.455,630.595
79,8 Jun 2027 03:02:16.299,8 Jun 2027 03:14:39.408,743.109
80,8 Jun 2027 04:37:42.175,8 Jun 2027 04:50:35.161,772.986
81,8 Jun 2027 06:15:20.444,8 Jun 2027 06:26:20.267,659.823
82,8 Jun 2027 07:56:55.526,8 Jun 2027 08:00:29.929,214.404
83,8 Jun 2027 14:36:31.139,8 Jun 2027 14:39:07.949,156.810
84,8 Jun 2027 16:10:20.276,8 Jun 2027 16:21:10.375,650.100
85,8 Jun 2027 17:46:04.174,8 Jun 2027 17:58:55.663,771.489
86,8 Jun 2027 19:21:59.941,8 Jun 2027 19:34:26.593,746.652
87,8 Jun 2027 20:57:45.866,8 Jun 2027 21:08:22.213,636.347
88,8 Jun 2027 22:32:53.464,8 Jun 2027 22:41:39.360,525.896
89,9 Jun 2027 00:06:49.070,9 Jun 2027 00:15:40.935,531.864
90,9 Jun 2027 01:40:06.304,9 Jun 2027 01:50:53.122,646.818
91,9 Jun 2027 03:14:08.016,9 Jun 2027 03:26:40.683,752.666
92,9 Jun 2027 04:49:48.351,9 Jun 2027 05:02:36.373,768.022
93,9 Jun 2027 06:27:46.821,9 Jun 2027 06:38:17.823,631.002
94,9 Jun 2027 14:47:45.126,9 Jun 2027 14:52:35.611,290.485
95,9 Jun 2027 16:22:18.413,9 Jun 2027 16:33:34.731,676.318
96,9 Jun 2027 17:58:05.483,9 Jun 2027 18:11:00.503,775.020
97,9 Jun 2027 19:34:01.116,9 Jun 2027 19:46:17.330,736.215
98,9 Jun 2027 21:09:44.144,9 Jun 2027 21:20:04.253,620.109
99,9 Jun 2027 22:44:44.084,9 Jun 2027 22:53:22.474,518.390
100,10 Jun 2027 00:18:30.957,10 Jun 2027 00:27:33.588,542.631
101,10 Jun 2027 01:51:49.509,10 Jun 2027 02:02:52.324,662.815
102,10 Jun 2027 03:26:01.308,10 Jun 2027 03:38:42.077,760.769
103,10 Jun 2027 05:01:56.666,10 Jun 2027 05:14:37.392,760.726
104,10 Jun 2027 06:40:16.566,10 Jun 2027 06:50:14.280,597.714
105,10 Jun 2027 14:59:21.519,10 Jun 2027 15:05:38.308,376.789
106,10 Jun 2027 16:34:17.298,10 Jun 2027 16:45:56.142,698.844
107,10 Jun 2027 18:10:06.898,10 Jun 2027 18:23:03.339,776.440
108,10 Jun 2027 19:46:02.106,10 Jun 2027 19:58:06.621,724.515
109,10 Jun 2027 21:21:41.770,10 Jun 2027 21:31:45.780,604.010
110,10 Jun 2027 22:56:33.418,10 Jun 2027 23:05:06.542,513.124
111,11 Jun 2027 00:30:12.360,11 Jun 2027 00:39:27.369,555.009
112,11 Jun 2027 02:03:33.608,11 Jun 2027 02:14:51.978,678.370
113,11 Jun 2027 03:37:56.255,11 Jun 2027 03:50:43.553,767.298
114,11 Jun 2027 05:14:07.203,11 Jun 2027 05:26:38.169,750.966
115,11 Jun 2027 06:52:50.045,11 Jun 2027 07:02:09.318,559.273
116,11 Jun 2027 15:11:06.286,11 Jun 2027 15:18:30.101,443.814
117,11 Jun 2027 16:46:16.785,11 Jun 2027 16:58:14.802,718.017
118,11 Jun 2027 18:22:08.395,11 Jun 2027 18:35:04.227,775.832
119,11 Jun 2027 19:58:02.869,11 Jun 2027 20:09:54.546,711.677
120,11 Jun 2027 21:33:38.651,11 Jun 2027 21:43:26.964,588.313
121,11 Jun 2027 23:08:21.450,11 Jun 2027 23:16:51.706,510.256
122,12 Jun 2027 00:41:53.467,12 Jun 2027 00:51:22.197,568.730
123,12 Jun 2027 02:15:18.737,12 Jun 2027 02:26:52.035,693.298
124,12 Jun 2027 03:49:52.913,12 Jun 2027 04:02:45.072,772.158
125,12 Jun 2027 05:26:20.061,12 Jun 2027 05:38:38.643,738.581
126,12 Jun 2027 07:05:27.804,12 Jun 2027 07:14:02.452,514.648
127,12 Jun 2027 15:22:55.698,12 Jun 2027 15:31:14.772,499.074
128,12 Jun 2027 16:58:16.759,12 Jun 2027 17:10:30.869,734.110
129,12 Jun 2027 18:34:09.924,12 Jun 2027 18:47:03.249,773.325
130,12 Jun 2027 20:10:03.354,12 Jun 2027 20:21:41.200,697.847
131,12 Jun 2027 21:45:34.708,12 Jun 2027 21:55:07.997,573.289
132,12 Jun 2027 23:20:08.200,12 Jun 2027 23:28:38.074,509.875
133,13 Jun 2027 00:53:34.483,13 Jun 2027 01:03:17.982,583.499
134,13 Jun 2027 02:27:05.009,13 Jun 2027 02:38:52.430,707.421
135,13 Jun 2027 04:01:51.362,13 Jun 2027 04:14:46.605,775.243
136,13 Jun 2027 05:38:35.344,13 Jun 2027 05:50:38.748,723.405
137,13 Jun 2027 07:18:10.639,13 Jun 2027 07:25:52.926,462.287
138,13 Jun 2027 15:34:48.106,13 Jun 2027 15:43:54.017,545.911
139,13 Jun 2027 17:10:17.129,13 Jun 2027 17:22:44.478,747.349
140,13 Jun 2027 18:46:11.449,13 Jun 2027 18:59:00.466,769.017
141,13 Jun 2027 20:22:03.516,13 Jun 2027 20:33:26.681,683.164
142,13 Jun 2027 21:57:29.839,13 Jun 2027 22:06:49.067,559.228
143,13 Jun 2027 23:31:53.721,13 Jun 2027 23:40:25.708,511.986
