dataset/facility_timing/facility_Facility-Anadyr2/Anadyr2-To-KinoSat_111802.csv

Acces,Start Time (UTCG),Stop Time (UTCG),Duration (sec)
1,1 Jun 2027 00:15:16.126,1 Jun 2027 00:24:44.914,568.788
2,1 Jun 2027 01:49:49.153,1 Jun 2027 01:58:15.012,505.860
3,1 Jun 2027 03:23:14.376,1 Jun 2027 03:32:56.243,581.867
4,1 Jun 2027 04:56:44.653,1 Jun 2027 05:08:31.903,707.250
5,1 Jun 2027 06:31:31.589,1 Jun 2027 06:44:26.959,775.371
6,1 Jun 2027 08:08:16.587,1 Jun 2027 08:20:19.849,723.262
7,1 Jun 2027 09:47:52.967,1 Jun 2027 09:55:34.944,461.977
8,1 Jun 2027 18:04:25.741,1 Jun 2027 18:13:39.264,553.523
9,1 Jun 2027 19:39:56.870,1 Jun 2027 19:52:26.321,749.451
10,1 Jun 2027 21:15:52.127,1 Jun 2027 21:28:40.272,768.145
11,1 Jun 2027 22:51:44.834,1 Jun 2027 23:03:04.791,679.957
12,2 Jun 2027 00:27:11.447,2 Jun 2027 00:36:26.007,554.560
13,2 Jun 2027 02:01:34.679,2 Jun 2027 02:10:02.932,508.253
14,2 Jun 2027 03:34:55.519,2 Jun 2027 03:44:53.264,597.746
15,2 Jun 2027 05:08:32.356,2 Jun 2027 05:20:32.938,720.581
16,2 Jun 2027 06:43:32.227,2 Jun 2027 06:56:28.788,776.561
17,2 Jun 2027 08:20:34.892,2 Jun 2027 08:32:19.807,704.915
18,2 Jun 2027 10:00:42.879,2 Jun 2027 10:07:21.712,398.833
19,2 Jun 2027 18:16:20.894,2 Jun 2027 18:26:13.786,592.893
20,2 Jun 2027 19:51:57.930,2 Jun 2027 20:04:37.560,759.631
21,2 Jun 2027 21:27:53.938,2 Jun 2027 21:40:35.715,761.778
22,2 Jun 2027 23:03:44.898,2 Jun 2027 23:14:49.157,664.258
23,3 Jun 2027 00:39:05.728,3 Jun 2027 00:48:07.363,541.634
24,3 Jun 2027 02:13:19.053,3 Jun 2027 02:21:52.182,513.129
25,3 Jun 2027 03:46:36.962,3 Jun 2027 03:56:51.057,614.095
26,3 Jun 2027 05:20:21.428,3 Jun 2027 05:32:34.208,732.780
27,3 Jun 2027 06:55:34.802,3 Jun 2027 07:08:30.561,775.759
28,3 Jun 2027 08:32:55.919,3 Jun 2027 08:44:19.203,683.284
29,3 Jun 2027 10:13:42.184,3 Jun 2027 10:19:01.618,319.434
30,3 Jun 2027 18:28:17.517,3 Jun 2027 18:38:44.480,626.963
31,3 Jun 2027 20:03:59.243,3 Jun 2027 20:16:46.534,767.291
32,3 Jun 2027 21:39:55.675,3 Jun 2027 21:52:29.475,753.800
33,3 Jun 2027 23:15:44.512,3 Jun 2027 23:26:32.579,648.067
34,4 Jun 2027 00:50:58.874,4 Jun 2027 00:59:49.172,530.297
35,4 Jun 2027 02:25:02.410,4 Jun 2027 02:33:42.765,520.356
36,4 Jun 2027 03:58:18.894,4 Jun 2027 04:08:49.527,630.634
37,4 Jun 2027 05:32:11.949,4 Jun 2027 05:44:35.673,743.724
38,4 Jun 2027 07:07:39.401,4 Jun 2027 07:20:32.220,772.819
39,4 Jun 2027 08:45:19.863,4 Jun 2027 08:56:17.890,658.026
40,4 Jun 2027 10:26:59.484,4 Jun 2027 10:30:26.109,206.625
41,4 Jun 2027 17:06:10.004,4 Jun 2027 17:09:28.059,198.056
42,4 Jun 2027 18:40:15.277,4 Jun 2027 18:51:11.739,656.463
43,4 Jun 2027 20:16:00.756,4 Jun 2027 20:28:53.344,772.588
44,4 Jun 2027 21:51:57.304,4 Jun 2027 22:04:21.621,744.318
45,4 Jun 2027 23:27:43.606,4 Jun 2027 23:38:15.197,631.591
46,5 Jun 2027 01:02:50.798,5 Jun 2027 01:11:31.643,520.845
47,5 Jun 2027 02:36:44.917,5 Jun 2027 02:45:34.630,529.713
48,5 Jun 2027 04:10:01.465,5 Jun 2027 04:20:48.592,647.127
49,5 Jun 2027 05:44:04.003,5 Jun 2027 05:56:37.297,753.293
50,5 Jun 2027 07:19:46.081,5 Jun 2027 07:32:33.741,767.659
51,5 Jun 2027 08:57:46.938,5 Jun 2027 09:08:15.700,628.762
52,5 Jun 2027 17:17:32.956,5 Jun 2027 17:22:47.048,314.092
53,5 Jun 2027 18:52:13.926,5 Jun 2027 19:03:35.846,681.919
54,5 Jun 2027 20:28:02.409,5 Jun 2027 20:40:58.056,775.646
55,5 Jun 2027 22:03:58.776,5 Jun 2027 22:16:12.227,733.451
56,5 Jun 2027 23:39:42.108,5 Jun 2027 23:49:57.167,615.059
57,6 Jun 2027 01:14:41.440,6 Jun 2027 01:23:14.960,513.520
58,6 Jun 2027 02:48:26.748,6 Jun 2027 02:57:27.717,540.969
59,6 Jun 2027 04:21:44.830,6 Jun 2027 04:32:48.185,663.355
60,6 Jun 2027 05:55:57.667,6 Jun 2027 06:08:39.026,761.359
61,6 Jun 2027 07:31:54.934,6 Jun 2027 07:44:35.063,760.129
62,6 Jun 2027 09:10:17.433,6 Jun 2027 09:20:12.389,594.956
63,6 Jun 2027 17:29:12.328,6 Jun 2027 17:35:47.048,394.720
64,6 Jun 2027 19:04:13.287,6 Jun 2027 19:15:57.040,703.754
65,6 Jun 2027 20:40:04.174,6 Jun 2027 20:53:00.745,776.571
66,6 Jun 2027 22:16:00.051,6 Jun 2027 22:28:01.379,721.328
67,6 Jun 2027 23:51:39.927,7 Jun 2027 00:01:38.644,598.717
68,7 Jun 2027 01:26:30.758,7 Jun 2027 01:34:59.281,508.524
69,7 Jun 2027 03:00:08.115,7 Jun 2027 03:09:21.941,553.826
70,7 Jun 2027 04:33:29.132,7 Jun 2027 04:44:48.231,679.099
71,7 Jun 2027 06:07:53.010,7 Jun 2027 06:20:40.841,767.830
72,7 Jun 2027 07:44:06.043,7 Jun 2027 07:56:36.138,750.095
73,7 Jun 2027 09:22:51.735,7 Jun 2027 09:32:07.622,555.887
74,7 Jun 2027 17:40:58.809,7 Jun 2027 17:48:37.387,458.578
75,7 Jun 2027 19:16:13.220,7 Jun 2027 19:28:15.489,722.268
76,7 Jun 2027 20:52:06.005,7 Jun 2027 21:05:01.492,775.487
77,7 Jun 2027 22:28:01.097,7 Jun 2027 22:39:49.164,708.067
78,8 Jun 2027 00:03:36.986,8 Jun 2027 00:13:19.803,582.817
79,8 Jun 2027 01:38:18.740,8 Jun 2027 01:46:44.747,506.007
80,8 Jun 2027 03:11:49.208,8 Jun 2027 03:21:17.220,568.012
81,8 Jun 2027 04:45:14.497,8 Jun 2027 04:56:48.667,694.170
82,8 Jun 2027 06:19:50.103,8 Jun 2027 06:32:42.689,772.586
83,8 Jun 2027 07:56:19.506,8 Jun 2027 08:08:36.900,737.395
84,8 Jun 2027 09:35:30.394,8 Jun 2027 09:44:00.895,510.500
85,8 Jun 2027 17:52:49.419,8 Jun 2027 18:01:21.105,511.686
86,8 Jun 2027 19:28:13.619,8 Jun 2027 19:40:31.355,737.737
87,8 Jun 2027 21:04:07.859,8 Jun 2027 21:17:00.355,772.496
88,8 Jun 2027 22:40:01.856,8 Jun 2027 22:51:35.675,693.819
89,9 Jun 2027 00:15:33.183,9 Jun 2027 00:25:00.845,567.662
90,9 Jun 2027 01:50:05.415,9 Jun 2027 01:58:31.467,506.051
91,9 Jun 2027 03:23:30.242,9 Jun 2027 03:33:13.448,583.206
92,9 Jun 2027 04:57:01.032,9 Jun 2027 05:08:49.438,708.406
93,9 Jun 2027 06:31:49.012,9 Jun 2027 06:44:44.549,775.538
94,9 Jun 2027 08:08:35.437,9 Jun 2027 08:20:37.288,721.851
95,9 Jun 2027 09:48:14.261,9 Jun 2027 09:55:51.418,457.158
96,9 Jun 2027 18:04:42.763,9 Jun 2027 18:13:59.644,556.881
97,9 Jun 2027 19:40:14.396,9 Jun 2027 19:52:44.758,750.362
98,9 Jun 2027 21:16:09.709,9 Jun 2027 21:28:57.405,767.697
99,9 Jun 2027 22:52:02.273,9 Jun 2027 23:03:21.012,678.739
100,10 Jun 2027 00:27:28.422,10 Jun 2027 00:36:41.953,553.532
101,10 Jun 2027 02:01:50.841,10 Jun 2027 02:10:19.490,508.648
102,10 Jun 2027 03:35:11.403,10 Jun 2027 03:45:10.531,599.128
103,10 Jun 2027 05:08:48.844,10 Jun 2027 05:20:50.488,721.644
104,10 Jun 2027 06:43:49.803,10 Jun 2027 06:56:46.374,776.571
105,10 Jun 2027 08:20:53.956,10 Jun 2027 08:32:37.197,703.241
106,10 Jun 2027 10:01:04.806,10 Jun 2027 10:07:37.751,392.945
107,10 Jun 2027 18:16:38.046,10 Jun 2027 18:26:33.841,595.795
108,10 Jun 2027 19:52:15.478,10 Jun 2027 20:04:55.809,760.331
109,10 Jun 2027 21:28:11.516,10 Jun 2027 21:40:52.713,761.198
110,10 Jun 2027 23:04:02.301,10 Jun 2027 23:15:05.297,662.996
111,11 Jun 2027 00:39:22.613,11 Jun 2027 00:48:23.335,540.722
112,11 Jun 2027 02:13:35.128,11 Jun 2027 02:22:08.846,513.718
113,11 Jun 2027 03:46:52.885,11 Jun 2027 03:57:08.376,615.491
114,11 Jun 2027 05:20:38.028,11 Jun 2027 05:32:51.772,733.744
115,11 Jun 2027 06:55:52.542,11 Jun 2027 07:08:48.135,775.593
116,11 Jun 2027 08:33:15.214,11 Jun 2027 08:44:36.538,681.323
117,11 Jun 2027 10:14:05.131,11 Jun 2027 10:19:16.841,311.709
118,11 Jun 2027 18:28:34.766,11 Jun 2027 18:39:04.245,629.478
119,11 Jun 2027 20:04:16.806,11 Jun 2027 20:17:04.603,767.798
120,11 Jun 2027 21:40:13.242,11 Jun 2027 21:52:46.339,753.097
121,11 Jun 2027 23:16:01.872,11 Jun 2027 23:26:48.649,646.777
122,12 Jun 2027 00:51:15.659,12 Jun 2027 01:00:05.191,529.531
123,12 Jun 2027 02:25:18.410,12 Jun 2027 02:33:59.534,521.124
124,12 Jun 2027 03:58:34.860,12 Jun 2027 04:09:06.895,632.035
125,12 Jun 2027 05:32:28.672,12 Jun 2027 05:44:53.252,744.580
126,12 Jun 2027 07:07:57.307,12 Jun 2027 07:20:49.781,772.474
127,12 Jun 2027 08:45:39.407,12 Jun 2027 08:56:35.155,655.748
128,12 Jun 2027 10:27:24.975,12 Jun 2027 10:30:38.999,194.024
129,12 Jun 2027 17:06:23.321,12 Jun 2027 17:09:53.152,209.831
130,12 Jun 2027 18:40:32.602,12 Jun 2027 18:51:31.240,658.638
131,12 Jun 2027 20:16:18.330,12 Jun 2027 20:29:11.239,772.910
132,12 Jun 2027 21:52:14.853,12 Jun 2027 22:04:38.358,743.505
133,12 Jun 2027 23:28:00.917,12 Jun 2027 23:38:31.208,630.291
134,13 Jun 2027 01:03:07.480,13 Jun 2027 01:11:47.725,520.245
135,13 Jun 2027 02:37:00.856,13 Jun 2027 02:45:51.495,530.640
136,13 Jun 2027 04:10:17.493,13 Jun 2027 04:21:06.002,648.509
137,13 Jun 2027 05:44:20.855,13 Jun 2027 05:56:54.879,754.024
138,13 Jun 2027 07:20:04.162,13 Jun 2027 07:32:51.284,767.123
139,13 Jun 2027 08:58:06.751,13 Jun 2027 09:08:32.879,626.129
140,13 Jun 2027 17:17:48.401,13 Jun 2027 17:23:09.797,321.396
141,13 Jun 2027 18:52:31.311,13 Jun 2027 19:03:55.106,683.795
142,13 Jun 2027 20:28:19.993,13 Jun 2027 20:41:15.781,775.787
143,13 Jun 2027 22:04:16.308,13 Jun 2027 22:16:28.846,732.538
144,13 Jun 2027 23:39:59.361,13 Jun 2027 23:50:13.130,613.768
