dataset/facility_timing/facility_Facility-Anadyr2/Anadyr2-To-KinoSat_110707.csv

Acces,Start Time (UTCG),Stop Time (UTCG),Duration (sec)
1,1 Jun 2027 00:03:38.006,1 Jun 2027 00:15:24.801,706.795
2,1 Jun 2027 01:38:23.417,1 Jun 2027 01:51:18.491,775.074
3,1 Jun 2027 03:15:05.988,1 Jun 2027 03:27:10.338,724.350
4,1 Jun 2027 04:54:39.202,1 Jun 2027 05:02:24.647,465.445
5,1 Jun 2027 13:11:21.800,1 Jun 2027 13:20:21.513,539.713
6,1 Jun 2027 14:46:49.375,1 Jun 2027 14:59:14.998,745.623
7,1 Jun 2027 16:22:43.173,1 Jun 2027 16:35:32.865,769.692
8,1 Jun 2027 17:58:34.996,1 Jun 2027 18:10:00.520,685.524
9,1 Jun 2027 19:34:01.452,1 Jun 2027 19:43:23.687,562.235
10,1 Jun 2027 21:08:26.164,1 Jun 2027 21:16:59.830,513.666
11,1 Jun 2027 22:41:48.747,1 Jun 2027 22:51:47.581,598.835
12,2 Jun 2027 00:15:25.350,2 Jun 2027 00:27:25.279,719.929
13,2 Jun 2027 01:50:23.437,2 Jun 2027 02:03:19.821,776.384
14,2 Jun 2027 03:27:23.435,2 Jun 2027 03:39:09.841,706.406
15,2 Jun 2027 05:07:27.787,2 Jun 2027 05:14:11.225,403.438
16,2 Jun 2027 13:23:15.874,2 Jun 2027 13:32:56.594,580.720
17,2 Jun 2027 14:58:49.850,2 Jun 2027 15:11:26.371,756.522
18,2 Jun 2027 16:34:44.496,2 Jun 2027 16:47:28.442,763.946
19,2 Jun 2027 18:10:34.649,2 Jun 2027 18:21:45.008,670.359
20,2 Jun 2027 19:45:55.526,2 Jun 2027 19:55:04.931,549.405
21,2 Jun 2027 21:20:10.618,2 Jun 2027 21:28:48.525,517.906
22,2 Jun 2027 22:53:30.094,2 Jun 2027 23:03:44.747,614.653
23,3 Jun 2027 00:27:14.008,3 Jun 2027 00:39:26.010,732.002
24,3 Jun 2027 02:02:25.349,3 Jun 2027 02:15:21.102,775.753
25,3 Jun 2027 03:39:43.547,3 Jun 2027 03:51:08.795,685.248
26,3 Jun 2027 05:20:25.404,3 Jun 2027 05:25:51.254,325.849
27,3 Jun 2027 13:35:11.555,3 Jun 2027 13:45:27.736,616.182
28,3 Jun 2027 15:10:50.595,3 Jun 2027 15:23:35.489,764.894
29,3 Jun 2027 16:46:45.748,3 Jun 2027 16:59:22.352,756.604
30,3 Jun 2027 18:22:33.870,3 Jun 2027 18:33:28.557,654.687
31,3 Jun 2027 19:57:48.519,3 Jun 2027 20:06:46.579,538.060
32,3 Jun 2027 21:31:54.061,3 Jun 2027 21:40:38.502,524.441
33,3 Jun 2027 23:05:11.877,3 Jun 2027 23:15:42.595,630.719
34,4 Jun 2027 00:39:04.070,4 Jun 2027 00:51:26.938,742.868
35,4 Jun 2027 02:14:29.237,4 Jun 2027 02:27:22.276,773.039
36,4 Jun 2027 03:52:06.513,4 Jun 2027 04:03:07.059,660.546
37,4 Jun 2027 05:33:39.766,4 Jun 2027 05:37:17.076,217.311
38,4 Jun 2027 12:13:29.733,4 Jun 2027 12:15:41.322,131.589
39,4 Jun 2027 13:47:08.464,4 Jun 2027 13:57:55.368,646.904
40,4 Jun 2027 15:22:51.546,4 Jun 2027 15:35:42.451,770.905
41,4 Jun 2027 16:58:46.900,4 Jun 2027 17:11:14.662,747.761
42,4 Jun 2027 18:34:32.600,4 Jun 2027 18:45:11.284,638.684
43,4 Jun 2027 20:09:40.344,4 Jun 2027 20:18:28.812,528.468
44,4 Jun 2027 21:43:36.657,4 Jun 2027 21:52:29.737,533.080
45,4 Jun 2027 23:16:54.254,4 Jun 2027 23:27:41.049,646.796
46,5 Jun 2027 00:50:55.619,5 Jun 2027 01:03:28.026,752.407
47,5 Jun 2027 02:26:35.158,5 Jun 2027 02:39:23.318,768.160
48,5 Jun 2027 04:04:32.539,5 Jun 2027 04:15:04.469,631.931
49,5 Jun 2027 12:24:37.259,5 Jun 2027 12:29:15.243,277.984
50,5 Jun 2027 13:59:06.329,5 Jun 2027 14:10:19.819,673.490
51,5 Jun 2027 15:34:52.664,5 Jun 2027 15:47:47.335,774.671
52,5 Jun 2027 17:10:47.911,5 Jun 2027 17:23:05.454,737.543
53,5 Jun 2027 18:46:30.753,5 Jun 2027 18:56:53.346,622.594
54,5 Jun 2027 20:21:30.943,5 Jun 2027 20:30:11.819,520.876
55,5 Jun 2027 21:55:18.563,5 Jun 2027 22:04:22.166,543.603
56,5 Jun 2027 23:28:37.379,5 Jun 2027 23:39:40.040,662.661
57,6 Jun 2027 01:02:48.729,6 Jun 2027 01:15:29.236,760.507
58,6 Jun 2027 02:38:43.205,6 Jun 2027 02:51:24.165,760.961
59,6 Jun 2027 04:17:01.901,6 Jun 2027 04:27:00.792,598.890
60,6 Jun 2027 12:36:11.941,6 Jun 2027 12:42:19.459,367.518
61,6 Jun 2027 14:11:04.961,6 Jun 2027 14:22:41.318,696.358
62,6 Jun 2027 15:46:53.893,6 Jun 2027 15:59:50.219,776.327
63,6 Jun 2027 17:22:48.742,6 Jun 2027 17:34:54.794,726.052
64,6 Jun 2027 18:58:28.268,6 Jun 2027 19:08:34.893,606.626
65,6 Jun 2027 20:33:20.272,6 Jun 2027 20:41:55.762,515.491
66,6 Jun 2027 22:06:59.977,6 Jun 2027 22:16:15.716,555.739
67,6 Jun 2027 23:40:21.381,6 Jun 2027 23:51:39.488,678.106
68,7 Jun 2027 01:14:43.472,7 Jun 2027 01:27:30.530,767.058
69,7 Jun 2027 02:50:53.448,7 Jun 2027 03:03:24.784,751.336
70,7 Jun 2027 04:29:34.973,7 Jun 2027 04:38:55.713,560.741
71,7 Jun 2027 12:47:55.771,7 Jun 2027 12:55:12.016,436.245
72,7 Jun 2027 14:23:04.207,7 Jun 2027 14:35:00.060,715.853
73,7 Jun 2027 15:58:55.207,7 Jun 2027 16:11:51.163,775.956
74,7 Jun 2027 17:34:49.349,7 Jun 2027 17:46:42.776,713.427
75,7 Jun 2027 19:10:25.047,7 Jun 2027 19:20:16.085,591.037
76,7 Jun 2027 20:45:08.314,7 Jun 2027 20:53:40.772,512.457
77,7 Jun 2027 22:18:41.090,7 Jun 2027 22:28:10.310,569.220
78,7 Jun 2027 23:52:06.394,8 Jun 2027 00:03:39.339,692.945
79,8 Jun 2027 01:26:39.912,8 Jun 2027 01:39:31.869,771.957
80,8 Jun 2027 03:03:05.997,8 Jun 2027 03:15:25.097,739.101
81,8 Jun 2027 04:42:12.276,8 Jun 2027 04:50:48.753,516.477
82,8 Jun 2027 12:59:44.534,8 Jun 2027 13:07:57.169,492.634
83,8 Jun 2027 14:35:03.956,8 Jun 2027 14:47:16.206,732.250
84,8 Jun 2027 16:10:56.556,8 Jun 2027 16:23:50.246,773.690
85,8 Jun 2027 17:46:49.685,8 Jun 2027 17:58:29.489,699.804
86,8 Jun 2027 19:22:21.017,8 Jun 2027 19:31:57.108,576.091
87,8 Jun 2027 20:56:55.091,8 Jun 2027 21:05:26.960,511.869
88,8 Jun 2027 22:30:22.096,8 Jun 2027 22:40:05.860,583.764
89,9 Jun 2027 00:03:52.532,9 Jun 2027 00:15:39.531,707.000
90,9 Jun 2027 01:38:38.125,9 Jun 2027 01:51:33.225,775.100
91,9 Jun 2027 03:15:20.949,9 Jun 2027 03:27:25.048,724.099
92,9 Jun 2027 04:54:54.597,9 Jun 2027 05:02:39.180,464.583
93,9 Jun 2027 13:11:36.440,9 Jun 2027 13:20:36.757,540.317
94,9 Jun 2027 14:47:04.102,9 Jun 2027 14:59:29.897,745.795
95,9 Jun 2027 16:22:57.906,9 Jun 2027 16:35:47.530,769.624
96,9 Jun 2027 17:58:49.704,9 Jun 2027 18:10:15.028,685.324
97,9 Jun 2027 19:34:16.077,9 Jun 2027 19:43:38.146,562.069
98,9 Jun 2027 21:08:40.648,9 Jun 2027 21:17:14.389,513.741
99,9 Jun 2027 22:42:03.178,9 Jun 2027 22:52:02.266,599.088
100,10 Jun 2027 00:15:39.886,10 Jun 2027 00:27:40.014,720.128
101,10 Jun 2027 01:50:38.169,10 Jun 2027 02:03:34.559,776.390
102,10 Jun 2027 03:27:38.430,10 Jun 2027 03:39:24.540,706.109
103,10 Jun 2027 05:07:43.285,10 Jun 2027 05:14:25.680,402.395
104,10 Jun 2027 13:23:30.535,10 Jun 2027 13:33:11.778,581.242
105,10 Jun 2027 14:59:04.581,10 Jun 2027 15:11:41.234,756.653
106,10 Jun 2027 16:34:59.230,10 Jun 2027 16:47:43.085,763.855
107,10 Jun 2027 18:10:49.349,10 Jun 2027 18:21:59.502,670.153
108,10 Jun 2027 19:46:10.134,10 Jun 2027 19:55:19.395,549.260
109,10 Jun 2027 21:20:25.086,10 Jun 2027 21:29:03.106,518.020
110,10 Jun 2027 22:53:44.533,10 Jun 2027 23:03:59.441,614.908
111,11 Jun 2027 00:27:28.567,11 Jun 2027 00:39:40.745,732.178
112,11 Jun 2027 02:02:40.109,11 Jun 2027 02:15:35.835,775.727
113,11 Jun 2027 03:39:58.582,11 Jun 2027 03:51:23.481,684.899
114,11 Jun 2027 05:20:41.081,11 Jun 2027 05:26:05.569,324.488
115,11 Jun 2027 13:35:26.234,11 Jun 2027 13:45:42.867,616.633
116,11 Jun 2027 15:11:05.329,11 Jun 2027 15:23:50.320,764.991
117,11 Jun 2027 16:47:00.479,11 Jun 2027 16:59:36.971,756.493
118,11 Jun 2027 18:22:48.562,11 Jun 2027 18:33:43.039,654.477
119,11 Jun 2027 19:58:03.109,11 Jun 2027 20:07:01.051,537.943
120,11 Jun 2027 21:32:08.514,11 Jun 2027 21:40:53.101,524.588
121,11 Jun 2027 23:05:26.324,11 Jun 2027 23:15:57.298,630.974
122,12 Jun 2027 00:39:18.650,12 Jun 2027 00:51:41.674,743.024
123,12 Jun 2027 02:14:44.026,12 Jun 2027 02:27:37.006,772.980
124,12 Jun 2027 03:52:21.592,12 Jun 2027 04:03:21.732,660.140
125,12 Jun 2027 05:33:55.845,12 Jun 2027 05:37:31.023,215.178
126,12 Jun 2027 12:13:43.214,12 Jun 2027 12:15:57.897,134.683
127,12 Jun 2027 13:47:23.157,12 Jun 2027 13:58:10.452,647.294
128,12 Jun 2027 15:23:06.281,12 Jun 2027 15:35:57.251,770.971
129,12 Jun 2027 16:59:01.628,12 Jun 2027 17:11:29.259,747.631
130,12 Jun 2027 18:34:47.282,12 Jun 2027 18:45:25.756,638.474
131,12 Jun 2027 20:09:54.914,12 Jun 2027 20:18:43.295,528.381
132,12 Jun 2027 21:43:51.098,12 Jun 2027 21:52:44.354,533.256
133,12 Jun 2027 23:17:08.710,12 Jun 2027 23:27:55.759,647.049
134,13 Jun 2027 00:51:10.221,13 Jun 2027 01:03:42.763,752.542
135,13 Jun 2027 02:26:49.977,13 Jun 2027 02:39:38.044,768.067
136,13 Jun 2027 04:04:47.665,13 Jun 2027 04:15:19.125,631.460
137,13 Jun 2027 12:24:51.555,13 Jun 2027 12:29:30.968,279.413
138,13 Jun 2027 13:59:21.033,13 Jun 2027 14:10:34.859,673.825
139,13 Jun 2027 15:35:07.400,13 Jun 2027 15:48:02.106,774.706
140,13 Jun 2027 17:11:02.635,13 Jun 2027 17:23:20.031,737.396
141,13 Jun 2027 18:46:45.423,13 Jun 2027 18:57:07.811,622.387
142,13 Jun 2027 20:21:45.493,13 Jun 2027 20:30:26.316,520.823
143,13 Jun 2027 21:55:32.995,13 Jun 2027 22:04:36.800,543.805
144,13 Jun 2027 23:28:51.848,13 Jun 2027 23:39:54.756,662.909
