dataset/facility_timing/facility_Facility-Anadyr2/Anadyr2-To-KinoSat_111302.csv

Acces,Start Time (UTCG),Stop Time (UTCG),Duration (sec)
1,1 Jun 2027 00:31:33.858,1 Jun 2027 00:40:24.552,530.694
2,1 Jun 2027 02:04:50.919,1 Jun 2027 02:15:36.517,645.598
3,1 Jun 2027 03:38:52.013,1 Jun 2027 03:51:24.088,752.075
4,1 Jun 2027 05:14:31.492,1 Jun 2027 05:27:19.929,768.437
5,1 Jun 2027 06:52:28.746,1 Jun 2027 07:03:01.790,633.045
6,1 Jun 2027 15:12:29.390,1 Jun 2027 15:17:16.254,286.864
7,1 Jun 2027 16:47:01.837,1 Jun 2027 16:58:17.244,675.407
8,1 Jun 2027 18:22:48.939,1 Jun 2027 18:35:43.884,774.945
9,1 Jun 2027 19:58:44.724,1 Jun 2027 20:11:01.338,736.614
10,1 Jun 2027 21:34:28.052,1 Jun 2027 21:44:48.552,620.501
11,1 Jun 2027 23:09:28.523,1 Jun 2027 23:18:06.553,518.030
12,2 Jun 2027 00:43:15.783,2 Jun 2027 00:52:17.191,541.407
13,2 Jun 2027 02:16:34.089,2 Jun 2027 02:27:35.741,661.652
14,2 Jun 2027 03:50:45.244,2 Jun 2027 04:03:25.532,760.287
15,2 Jun 2027 05:26:39.730,2 Jun 2027 05:39:21.012,761.282
16,2 Jun 2027 07:04:58.333,2 Jun 2027 07:14:58.383,600.050
17,2 Jun 2027 15:24:05.411,2 Jun 2027 15:30:19.559,374.148
18,2 Jun 2027 16:59:00.752,2 Jun 2027 17:10:38.836,698.084
19,2 Jun 2027 18:34:50.405,2 Jun 2027 18:47:46.844,776.439
20,2 Jun 2027 20:10:45.778,2 Jun 2027 20:22:50.710,724.932
21,2 Jun 2027 21:46:25.765,2 Jun 2027 21:56:30.107,604.342
22,2 Jun 2027 23:21:17.954,2 Jun 2027 23:29:50.582,512.628
23,3 Jun 2027 00:54:57.207,3 Jun 2027 01:04:10.961,553.754
24,3 Jun 2027 02:28:18.147,3 Jun 2027 02:39:35.430,677.283
25,3 Jun 2027 04:02:40.123,3 Jun 2027 04:15:27.059,766.936
26,3 Jun 2027 05:38:50.181,3 Jun 2027 05:51:21.865,751.684
27,3 Jun 2027 07:17:31.642,3 Jun 2027 07:26:53.583,561.940
28,3 Jun 2027 15:35:50.030,3 Jun 2027 15:43:11.741,441.711
29,3 Jun 2027 17:11:00.273,3 Jun 2027 17:22:57.665,717.392
30,3 Jun 2027 18:46:51.954,3 Jun 2027 18:59:47.859,775.905
31,3 Jun 2027 20:22:46.610,3 Jun 2027 20:34:38.713,712.103
32,3 Jun 2027 21:58:22.739,3 Jun 2027 22:08:11.306,588.567
33,3 Jun 2027 23:33:06.078,3 Jun 2027 23:41:35.708,509.630
34,4 Jun 2027 01:06:38.328,4 Jun 2027 01:16:05.787,567.459
35,4 Jun 2027 02:40:03.229,4 Jun 2027 02:51:35.522,692.293
36,4 Jun 2027 04:14:36.716,4 Jun 2027 04:27:28.631,771.914
37,4 Jun 2027 05:51:02.954,4 Jun 2027 06:03:22.413,739.459
38,4 Jun 2027 07:30:09.189,4 Jun 2027 07:38:46.913,517.723
39,4 Jun 2027 15:47:39.373,4 Jun 2027 15:55:56.712,497.339
40,4 Jun 2027 17:23:00.285,4 Jun 2027 17:35:13.891,733.606
41,4 Jun 2027 18:58:53.538,4 Jun 2027 19:11:46.996,773.459
42,4 Jun 2027 20:34:47.163,4 Jun 2027 20:46:25.438,698.275
43,4 Jun 2027 22:10:18.889,4 Jun 2027 22:19:52.344,573.454
44,4 Jun 2027 23:44:52.915,4 Jun 2027 23:53:22.038,509.123
45,5 Jun 2027 01:18:19.346,5 Jun 2027 01:28:01.576,582.230
46,5 Jun 2027 02:51:49.452,5 Jun 2027 03:03:35.951,706.499
47,5 Jun 2027 04:26:35.100,5 Jun 2027 04:39:30.219,775.119
48,5 Jun 2027 06:03:18.148,5 Jun 2027 06:15:22.599,724.450
49,5 Jun 2027 07:42:51.750,5 Jun 2027 07:50:37.643,465.893
50,5 Jun 2027 15:59:31.753,5 Jun 2027 16:08:36.210,544.457
51,5 Jun 2027 17:35:00.697,5 Jun 2027 17:47:27.652,746.955
52,5 Jun 2027 19:10:55.119,5 Jun 2027 19:23:44.323,769.204
53,5 Jun 2027 20:46:47.397,5 Jun 2027 20:58:10.980,683.584
54,5 Jun 2027 22:22:14.116,5 Jun 2027 22:31:33.409,559.293
55,5 Jun 2027 23:56:38.514,6 Jun 2027 00:05:09.635,511.121
56,6 Jun 2027 01:30:00.450,6 Jun 2027 01:39:58.227,597.777
57,6 Jun 2027 03:03:36.906,6 Jun 2027 03:15:36.677,719.770
58,6 Jun 2027 04:38:35.330,6 Jun 2027 04:51:31.784,776.453
59,6 Jun 2027 06:15:35.891,6 Jun 2027 06:27:22.326,706.435
60,6 Jun 2027 07:55:40.678,6 Jun 2027 08:02:24.486,403.807
61,6 Jun 2027 16:11:26.256,6 Jun 2027 16:21:11.188,584.932
62,6 Jun 2027 17:47:01.432,6 Jun 2027 17:59:39.050,757.618
63,6 Jun 2027 19:22:56.672,6 Jun 2027 19:35:39.909,763.237
64,6 Jun 2027 20:58:47.253,6 Jun 2027 21:09:55.451,668.198
65,6 Jun 2027 22:34:08.321,6 Jun 2027 22:43:14.687,546.366
66,7 Jun 2027 00:08:22.976,7 Jun 2027 00:16:58.534,515.558
67,7 Jun 2027 01:41:41.830,7 Jun 2027 01:51:55.652,613.822
68,7 Jun 2027 03:15:25.701,7 Jun 2027 03:27:37.649,731.947
69,7 Jun 2027 04:50:37.475,7 Jun 2027 05:03:33.292,775.818
70,7 Jun 2027 06:27:56.321,7 Jun 2027 06:39:21.503,685.182
71,7 Jun 2027 08:08:38.656,7 Jun 2027 08:14:04.778,326.123
72,7 Jun 2027 16:23:22.324,7 Jun 2027 16:33:42.262,619.938
73,7 Jun 2027 17:59:02.432,7 Jun 2027 18:11:48.187,765.755
74,7 Jun 2027 19:34:58.147,7 Jun 2027 19:47:33.814,755.666
75,7 Jun 2027 21:10:46.671,7 Jun 2027 21:21:38.980,652.309
76,7 Jun 2027 22:46:01.429,7 Jun 2027 22:54:56.395,534.966
77,8 Jun 2027 00:20:06.414,8 Jun 2027 00:28:48.739,522.325
78,8 Jun 2027 01:53:23.662,8 Jun 2027 02:03:53.762,630.101
79,8 Jun 2027 03:27:15.925,8 Jun 2027 03:39:38.816,742.891
80,8 Jun 2027 05:02:41.614,8 Jun 2027 05:15:34.692,773.078
81,8 Jun 2027 06:40:19.627,8 Jun 2027 06:51:19.987,660.360
82,8 Jun 2027 08:21:53.393,8 Jun 2027 08:25:30.862,217.469
83,8 Jun 2027 15:01:29.697,8 Jun 2027 15:04:07.991,158.294
84,8 Jun 2027 16:35:19.587,8 Jun 2027 16:46:09.844,650.257
85,8 Jun 2027 18:11:03.629,8 Jun 2027 18:23:55.159,771.530
86,8 Jun 2027 19:46:59.520,8 Jun 2027 19:59:26.107,746.588
87,8 Jun 2027 21:22:45.588,8 Jun 2027 21:33:21.687,636.099
88,8 Jun 2027 22:57:53.349,8 Jun 2027 23:06:38.710,525.361
89,9 Jun 2027 00:31:48.999,9 Jun 2027 00:40:40.217,531.218
90,9 Jun 2027 02:05:06.104,9 Jun 2027 02:15:52.473,646.369
91,9 Jun 2027 03:39:07.648,9 Jun 2027 03:51:40.142,752.494
92,9 Jun 2027 05:14:47.806,9 Jun 2027 05:27:35.958,768.153
93,9 Jun 2027 06:52:46.017,9 Jun 2027 07:03:17.613,631.597
94,9 Jun 2027 15:12:44.084,9 Jun 2027 15:17:35.380,291.297
95,9 Jun 2027 16:47:17.780,9 Jun 2027 16:58:34.255,676.475
96,9 Jun 2027 18:23:04.991,9 Jun 2027 18:36:00.042,775.052
97,9 Jun 2027 19:59:00.747,9 Jun 2027 20:11:16.873,736.126
98,9 Jun 2027 21:34:43.920,9 Jun 2027 21:45:03.734,619.814
99,9 Jun 2027 23:09:44.011,9 Jun 2027 23:18:21.829,517.818
100,10 Jun 2027 00:43:30.895,10 Jun 2027 00:52:32.903,542.008
101,10 Jun 2027 02:16:49.309,10 Jun 2027 02:27:51.723,662.413
102,10 Jun 2027 03:51:00.949,10 Jun 2027 04:03:41.588,760.639
103,10 Jun 2027 05:26:56.140,10 Jun 2027 05:39:37.033,760.893
104,10 Jun 2027 07:05:15.773,10 Jun 2027 07:15:14.145,598.373
105,10 Jun 2027 15:24:20.628,10 Jun 2027 15:30:38.051,377.423
106,10 Jun 2027 16:59:16.721,10 Jun 2027 17:10:55.719,698.998
107,10 Jun 2027 18:35:06.458,10 Jun 2027 18:48:02.917,776.459
108,10 Jun 2027 20:11:01.790,10 Jun 2027 20:23:06.186,724.395
109,10 Jun 2027 21:46:41.599,10 Jun 2027 21:56:45.267,603.667
110,10 Jun 2027 23:21:33.384,10 Jun 2027 23:30:05.906,512.522
111,11 Jun 2027 00:55:12.304,11 Jun 2027 01:04:26.721,554.417
112,11 Jun 2027 02:28:33.411,11 Jun 2027 02:39:51.426,678.015
113,11 Jun 2027 04:02:55.908,11 Jun 2027 04:15:43.115,767.207
114,11 Jun 2027 05:39:06.698,11 Jun 2027 05:51:37.866,751.168
115,11 Jun 2027 07:17:49.261,11 Jun 2027 07:27:09.265,560.004
116,11 Jun 2027 15:36:05.501,11 Jun 2027 15:43:29.858,444.358
117,11 Jun 2027 17:11:16.263,11 Jun 2027 17:23:14.428,718.165
118,11 Jun 2027 18:47:08.007,11 Jun 2027 19:00:03.842,775.835
119,11 Jun 2027 20:23:02.607,11 Jun 2027 20:34:54.130,711.523
120,11 Jun 2027 21:58:38.533,11 Jun 2027 22:08:26.455,587.923
121,11 Jun 2027 23:33:21.448,11 Jun 2027 23:41:51.081,509.633
122,12 Jun 2027 01:06:53.416,12 Jun 2027 01:16:21.590,568.174
123,12 Jun 2027 02:40:18.543,12 Jun 2027 02:51:51.532,692.989
124,12 Jun 2027 04:14:52.581,12 Jun 2027 04:27:44.686,772.105
125,12 Jun 2027 05:51:19.580,12 Jun 2027 06:03:38.396,738.816
126,12 Jun 2027 07:30:27.021,12 Jun 2027 07:39:02.487,515.466
127,12 Jun 2027 15:47:55.000,12 Jun 2027 15:56:14.559,499.559
128,12 Jun 2027 17:23:16.292,12 Jun 2027 17:35:30.540,734.249
129,12 Jun 2027 18:59:09.588,12 Jun 2027 19:12:02.896,773.308
130,12 Jun 2027 20:35:03.143,12 Jun 2027 20:46:40.800,697.656
131,12 Jun 2027 22:10:34.639,12 Jun 2027 22:20:07.491,572.852
132,12 Jun 2027 23:45:08.225,12 Jun 2027 23:53:37.467,509.242
133,13 Jun 2027 01:18:34.434,13 Jun 2027 01:28:17.417,582.984
134,13 Jun 2027 02:52:04.821,13 Jun 2027 03:03:51.973,707.152
135,13 Jun 2027 04:26:51.048,13 Jun 2027 04:39:46.271,775.223
136,13 Jun 2027 06:03:34.889,13 Jun 2027 06:15:38.559,723.669
137,13 Jun 2027 07:43:09.843,13 Jun 2027 07:50:53.065,463.221
138,13 Jun 2027 15:59:47.483,13 Jun 2027 16:08:53.838,546.355
139,13 Jun 2027 17:35:16.716,13 Jun 2027 17:47:44.191,747.475
140,13 Jun 2027 19:11:11.165,13 Jun 2027 19:24:00.142,768.977
141,13 Jun 2027 20:47:03.358,13 Jun 2027 20:58:26.292,682.934
142,13 Jun 2027 22:22:29.817,13 Jun 2027 22:31:48.564,558.747
143,13 Jun 2027 23:56:53.769,14 Jun 2027 00:00:01.000,187.231
