dataset/facility_timing/facility_Facility-Anadyr2/Anadyr2-To-KinoSat_110703.csv

Acces,Start Time (UTCG),Stop Time (UTCG),Duration (sec)
1,1 Jun 2027 00:41:20.422,1 Jun 2027 00:53:45.244,744.822
2,1 Jun 2027 02:16:48.337,1 Jun 2027 02:29:40.602,772.266
3,1 Jun 2027 03:54:29.428,1 Jun 2027 04:05:24.743,655.314
4,1 Jun 2027 05:36:16.301,1 Jun 2027 05:39:24.864,188.563
5,1 Jun 2027 12:15:32.425,1 Jun 2027 12:18:23.094,170.670
6,1 Jun 2027 13:49:26.087,1 Jun 2027 14:00:18.472,652.385
7,1 Jun 2027 15:25:09.862,1 Jun 2027 15:38:01.672,771.810
8,1 Jun 2027 17:01:05.222,1 Jun 2027 17:13:31.099,745.877
9,1 Jun 2027 18:36:50.405,1 Jun 2027 18:47:25.958,635.553
10,1 Jun 2027 20:11:56.738,1 Jun 2027 20:20:43.552,526.814
11,1 Jun 2027 21:45:51.308,1 Jun 2027 21:54:46.280,534.972
12,1 Jun 2027 23:19:09.031,1 Jun 2027 23:29:58.922,649.891
13,2 Jun 2027 00:53:12.270,2 Jun 2027 01:05:46.363,754.094
14,2 Jun 2027 02:28:54.663,2 Jun 2027 02:41:41.612,766.950
15,2 Jun 2027 04:06:56.078,2 Jun 2027 04:17:21.966,625.887
16,2 Jun 2027 12:26:49.326,2 Jun 2027 12:31:47.150,297.825
17,2 Jun 2027 14:01:24.117,2 Jun 2027 14:12:42.333,678.216
18,2 Jun 2027 15:37:11.007,2 Jun 2027 15:50:06.161,775.154
19,2 Jun 2027 17:13:06.202,2 Jun 2027 17:25:21.606,735.404
20,2 Jun 2027 18:48:48.439,2 Jun 2027 18:59:07.905,619.466
21,2 Jun 2027 20:23:47.094,2 Jun 2027 20:32:26.728,519.634
22,2 Jun 2027 21:57:33.104,2 Jun 2027 22:06:38.934,545.831
23,2 Jun 2027 23:30:52.315,2 Jun 2027 23:41:58.008,665.693
24,3 Jun 2027 01:05:05.691,3 Jun 2027 01:17:47.593,761.902
25,3 Jun 2027 02:41:03.127,3 Jun 2027 02:53:42.419,759.292
26,3 Jun 2027 04:19:26.131,3 Jun 2027 04:29:18.043,591.912
27,3 Jun 2027 12:38:26.378,3 Jun 2027 12:44:48.508,382.130
28,3 Jun 2027 14:13:22.879,3 Jun 2027 14:25:03.283,700.404
29,3 Jun 2027 15:49:12.254,3 Jun 2027 16:02:08.661,776.407
30,3 Jun 2027 17:25:06.992,3 Jun 2027 17:37:10.674,723.682
31,3 Jun 2027 19:00:45.816,3 Jun 2027 19:10:49.371,603.555
32,3 Jun 2027 20:35:36.169,3 Jun 2027 20:44:10.865,514.696
33,3 Jun 2027 22:09:14.445,3 Jun 2027 22:18:32.694,558.248
34,3 Jun 2027 23:42:36.503,3 Jun 2027 23:53:57.540,681.037
35,4 Jun 2027 01:17:00.759,4 Jun 2027 01:29:48.896,768.137
36,4 Jun 2027 02:53:13.813,4 Jun 2027 03:05:42.980,749.168
37,4 Jun 2027 04:31:59.976,4 Jun 2027 04:41:12.647,552.671
38,4 Jun 2027 12:50:11.379,4 Jun 2027 12:57:39.410,448.031
39,4 Jun 2027 14:25:22.231,4 Jun 2027 14:37:21.509,719.278
40,4 Jun 2027 16:01:13.579,4 Jun 2027 16:14:09.241,775.661
41,4 Jun 2027 17:37:07.553,4 Jun 2027 17:48:58.402,710.849
42,4 Jun 2027 19:12:42.449,4 Jun 2027 19:22:30.514,588.065
43,4 Jun 2027 20:47:23.963,4 Jun 2027 20:55:56.098,512.135
44,4 Jun 2027 22:20:55.523,4 Jun 2027 22:30:27.481,571.958
45,4 Jun 2027 23:54:21.725,5 Jun 2027 00:05:57.461,695.736
46,5 Jun 2027 01:28:57.537,5 Jun 2027 01:41:50.246,772.709
47,5 Jun 2027 03:05:26.821,5 Jun 2027 03:17:43.234,736.413
48,5 Jun 2027 04:44:38.178,5 Jun 2027 04:53:05.249,507.071
49,5 Jun 2027 13:02:00.859,5 Jun 2027 13:10:23.373,502.514
50,5 Jun 2027 14:37:22.066,5 Jun 2027 14:49:37.169,735.103
51,5 Jun 2027 16:13:14.933,5 Jun 2027 16:26:07.970,773.037
52,5 Jun 2027 17:49:07.832,5 Jun 2027 18:00:44.880,697.048
53,5 Jun 2027 19:24:38.250,5 Jun 2027 19:34:11.526,573.276
54,5 Jun 2027 20:59:10.498,5 Jun 2027 21:07:42.526,512.029
55,5 Jun 2027 22:32:36.527,5 Jun 2027 22:42:23.206,586.678
56,6 Jun 2027 00:06:08.093,6 Jun 2027 00:17:57.715,709.622
57,6 Jun 2027 01:40:56.102,6 Jun 2027 01:53:51.604,775.502
58,6 Jun 2027 03:17:42.254,6 Jun 2027 03:29:43.105,720.851
59,6 Jun 2027 04:57:21.604,6 Jun 2027 05:04:55.045,453.441
60,6 Jun 2027 13:13:53.249,6 Jun 2027 13:23:02.011,548.763
61,6 Jun 2027 14:49:22.282,6 Jun 2027 15:01:50.394,748.112
62,6 Jun 2027 16:25:16.280,6 Jun 2027 16:38:04.912,768.632
63,6 Jun 2027 18:01:07.783,6 Jun 2027 18:12:30.203,682.421
64,6 Jun 2027 19:36:33.125,6 Jun 2027 19:45:52.589,559.464
65,6 Jun 2027 21:10:55.831,6 Jun 2027 21:19:30.207,514.377
66,6 Jun 2027 22:44:17.652,6 Jun 2027 22:54:19.768,602.116
67,7 Jun 2027 00:17:55.696,7 Jun 2027 00:29:58.251,722.554
68,7 Jun 2027 01:52:56.509,7 Jun 2027 02:05:52.925,776.415
69,7 Jun 2027 03:30:00.242,7 Jun 2027 03:41:42.498,702.256
70,7 Jun 2027 05:10:11.776,7 Jun 2027 05:16:40.546,388.769
71,7 Jun 2027 13:25:47.696,7 Jun 2027 13:35:36.227,588.531
72,7 Jun 2027 15:01:22.819,7 Jun 2027 15:14:01.288,758.469
73,7 Jun 2027 16:37:17.592,7 Jun 2027 16:50:00.139,762.547
74,7 Jun 2027 18:13:07.350,7 Jun 2027 18:24:14.487,667.137
75,7 Jun 2027 19:48:26.980,7 Jun 2027 19:57:33.904,546.924
76,7 Jun 2027 21:22:40.060,7 Jun 2027 21:31:19.172,519.112
77,7 Jun 2027 22:55:59.072,7 Jun 2027 23:06:17.079,618.007
78,8 Jun 2027 00:29:44.644,8 Jun 2027 00:41:59.018,734.374
79,8 Jun 2027 02:04:58.830,8 Jun 2027 02:17:54.183,775.353
80,8 Jun 2027 03:42:20.935,8 Jun 2027 03:53:41.320,680.385
81,8 Jun 2027 05:23:11.923,8 Jun 2027 05:28:18.568,306.644
82,8 Jun 2027 13:37:43.655,8 Jun 2027 13:48:06.606,622.951
83,8 Jun 2027 15:13:23.612,8 Jun 2027 15:26:09.947,766.335
84,8 Jun 2027 16:49:18.827,8 Jun 2027 17:01:53.709,754.883
85,8 Jun 2027 18:25:06.473,8 Jun 2027 18:35:57.849,651.376
86,8 Jun 2027 20:00:19.733,8 Jun 2027 20:09:15.657,535.923
87,8 Jun 2027 21:34:23.314,8 Jun 2027 21:43:09.415,526.101
88,8 Jun 2027 23:07:40.971,8 Jun 2027 23:18:15.063,634.092
89,9 Jun 2027 00:41:35.010,9 Jun 2027 00:53:59.986,744.976
90,9 Jun 2027 02:17:03.133,9 Jun 2027 02:29:55.334,772.201
91,9 Jun 2027 03:54:44.518,9 Jun 2027 04:05:39.418,654.899
92,9 Jun 2027 05:36:32.551,9 Jun 2027 05:39:38.654,186.103
93,9 Jun 2027 12:15:46.249,9 Jun 2027 12:18:39.325,173.076
94,9 Jun 2027 13:49:40.783,9 Jun 2027 14:00:33.550,652.767
95,9 Jun 2027 15:25:24.599,9 Jun 2027 15:38:16.469,771.870
96,9 Jun 2027 17:01:19.952,9 Jun 2027 17:13:45.694,745.742
97,9 Jun 2027 18:37:05.089,9 Jun 2027 18:47:40.429,635.340
98,9 Jun 2027 20:12:11.309,9 Jun 2027 20:20:58.036,526.727
99,9 Jun 2027 21:46:05.752,9 Jun 2027 21:55:00.900,535.149
100,9 Jun 2027 23:19:23.493,9 Jun 2027 23:30:13.633,650.140
101,10 Jun 2027 00:53:26.878,10 Jun 2027 01:06:01.102,754.223
102,10 Jun 2027 02:29:09.489,10 Jun 2027 02:41:56.340,766.851
103,10 Jun 2027 04:07:11.215,10 Jun 2027 04:17:36.622,625.407
104,10 Jun 2027 12:27:03.664,10 Jun 2027 12:32:02.828,299.163
105,10 Jun 2027 14:01:38.823,10 Jun 2027 14:12:57.367,678.545
106,10 Jun 2027 15:37:25.744,10 Jun 2027 15:50:20.928,775.184
107,10 Jun 2027 17:13:20.927,10 Jun 2027 17:25:36.179,735.252
108,10 Jun 2027 18:49:03.111,10 Jun 2027 18:59:22.368,619.256
109,10 Jun 2027 20:24:01.644,10 Jun 2027 20:32:41.226,519.583
110,10 Jun 2027 21:57:47.539,10 Jun 2027 22:06:53.570,546.032
111,10 Jun 2027 23:31:06.789,10 Jun 2027 23:42:12.725,665.936
112,11 Jun 2027 01:05:20.323,11 Jun 2027 01:18:02.332,762.008
113,11 Jun 2027 02:41:17.986,11 Jun 2027 02:53:57.142,759.156
114,11 Jun 2027 04:19:41.321,11 Jun 2027 04:29:32.678,591.356
115,11 Jun 2027 12:38:40.868,11 Jun 2027 12:45:03.997,383.130
116,11 Jun 2027 14:13:37.592,11 Jun 2027 14:25:18.277,700.685
117,11 Jun 2027 15:49:26.996,11 Jun 2027 16:02:23.400,776.404
118,11 Jun 2027 17:25:21.713,11 Jun 2027 17:37:25.228,723.515
119,11 Jun 2027 19:01:00.476,11 Jun 2027 19:11:03.829,603.353
120,11 Jun 2027 20:35:50.699,11 Jun 2027 20:44:25.379,514.679
121,11 Jun 2027 22:09:28.875,11 Jun 2027 22:18:47.345,558.470
122,11 Jun 2027 23:42:50.991,11 Jun 2027 23:54:12.262,681.271
123,12 Jun 2027 01:17:15.415,12 Jun 2027 01:30:03.634,768.219
124,12 Jun 2027 02:53:28.704,12 Jun 2027 03:05:57.697,748.993
125,12 Jun 2027 04:32:15.227,12 Jun 2027 04:41:27.252,552.026
126,12 Jun 2027 12:50:25.943,12 Jun 2027 12:57:54.785,448.842
127,12 Jun 2027 14:25:36.951,12 Jun 2027 14:37:36.465,719.515
128,12 Jun 2027 16:01:28.315,12 Jun 2027 16:14:23.952,775.637
129,12 Jun 2027 17:37:22.268,12 Jun 2027 17:49:12.937,710.670
130,12 Jun 2027 19:12:57.095,12 Jun 2027 19:22:44.970,587.875
131,12 Jun 2027 20:47:38.474,12 Jun 2027 20:56:10.630,512.156
132,12 Jun 2027 22:21:09.949,12 Jun 2027 22:30:42.145,572.196
133,12 Jun 2027 23:54:36.229,13 Jun 2027 00:06:12.187,695.958
134,13 Jun 2027 01:29:12.219,13 Jun 2027 01:42:04.983,772.765
135,13 Jun 2027 03:05:41.747,13 Jun 2027 03:17:57.944,736.196
136,13 Jun 2027 04:44:53.500,13 Jun 2027 04:53:19.815,506.315
137,13 Jun 2027 13:02:15.472,13 Jun 2027 13:10:38.664,503.192
138,13 Jun 2027 14:37:36.791,13 Jun 2027 14:49:52.089,735.299
139,13 Jun 2027 16:13:29.668,13 Jun 2027 16:26:22.655,772.987
140,13 Jun 2027 17:49:22.540,13 Jun 2027 18:00:59.399,696.858
141,13 Jun 2027 19:24:52.882,13 Jun 2027 19:34:25.983,573.101
142,13 Jun 2027 20:59:24.989,13 Jun 2027 21:07:57.076,512.087
143,13 Jun 2027 22:32:50.954,13 Jun 2027 22:42:37.882,586.928
