dataset/facility_timing/facility_Facility-Anadyr2/Anadyr2-To-KinoSat_111502.csv

Acces,Start Time (UTCG),Stop Time (UTCG),Duration (sec)
1,1 Jun 2027 00:25:24.106,1 Jun 2027 00:33:51.952,507.846
2,1 Jun 2027 01:58:54.450,1 Jun 2027 02:08:24.801,570.351
3,1 Jun 2027 03:32:20.395,1 Jun 2027 03:43:56.156,695.761
4,1 Jun 2027 05:06:56.973,1 Jun 2027 05:19:49.888,772.916
5,1 Jun 2027 06:43:27.601,1 Jun 2027 06:55:43.615,736.014
6,1 Jun 2027 08:22:40.638,1 Jun 2027 08:31:06.339,505.701
7,1 Jun 2027 16:39:57.073,1 Jun 2027 16:48:29.619,512.546
8,1 Jun 2027 18:15:20.989,1 Jun 2027 18:27:38.975,737.986
9,1 Jun 2027 19:51:14.901,1 Jun 2027 20:04:07.278,772.377
10,1 Jun 2027 21:27:08.454,1 Jun 2027 21:38:42.189,693.735
11,1 Jun 2027 23:02:39.130,1 Jun 2027 23:12:07.454,568.324
12,2 Jun 2027 00:37:10.637,2 Jun 2027 00:45:38.673,508.036
13,2 Jun 2027 02:10:35.473,2 Jun 2027 02:20:20.941,585.468
14,2 Jun 2027 03:44:06.969,2 Jun 2027 03:55:56.786,709.817
15,2 Jun 2027 05:18:55.914,2 Jun 2027 05:31:51.585,775.671
16,2 Jun 2027 06:55:43.565,2 Jun 2027 07:07:43.807,720.242
17,2 Jun 2027 08:35:24.811,2 Jun 2027 08:42:56.375,451.564
18,2 Jun 2027 16:51:50.291,2 Jun 2027 17:01:07.829,557.538
19,2 Jun 2027 18:27:21.617,2 Jun 2027 18:39:52.138,750.521
20,2 Jun 2027 20:03:16.587,2 Jun 2027 20:16:04.160,767.573
21,2 Jun 2027 21:39:08.700,2 Jun 2027 21:50:27.436,678.736
22,2 Jun 2027 23:14:34.175,2 Jun 2027 23:23:48.568,554.393
23,3 Jun 2027 00:48:55.945,3 Jun 2027 00:57:26.688,510.743
24,3 Jun 2027 02:22:16.641,3 Jun 2027 02:32:17.921,601.280
25,3 Jun 2027 03:55:54.811,3 Jun 2027 04:07:57.694,722.883
26,3 Jun 2027 05:30:56.728,3 Jun 2027 05:43:53.247,776.519
27,3 Jun 2027 07:08:02.117,3 Jun 2027 07:19:43.514,701.396
28,3 Jun 2027 08:48:15.838,3 Jun 2027 08:54:42.034,386.195
29,3 Jun 2027 17:03:45.441,3 Jun 2027 17:13:41.720,596.279
30,3 Jun 2027 18:39:22.548,3 Jun 2027 18:52:02.965,760.417
31,3 Jun 2027 20:15:18.233,3 Jun 2027 20:27:59.314,761.081
32,3 Jun 2027 21:51:08.547,3 Jun 2027 22:02:11.650,663.103
33,3 Jun 2027 23:26:28.177,3 Jun 2027 23:35:29.957,541.781
34,4 Jun 2027 01:00:40.133,4 Jun 2027 01:09:16.021,515.888
35,4 Jun 2027 02:33:58.136,4 Jun 2027 02:44:15.653,617.517
36,4 Jun 2027 04:07:44.030,4 Jun 2027 04:19:58.831,734.801
37,4 Jun 2027 05:42:59.484,4 Jun 2027 05:55:54.843,775.359
38,4 Jun 2027 07:20:23.409,4 Jun 2027 07:31:42.640,679.231
39,4 Jun 2027 09:01:17.082,4 Jun 2027 09:06:19.999,302.917
40,4 Jun 2027 17:15:42.023,4 Jun 2027 17:26:11.844,629.821
41,4 Jun 2027 18:51:23.724,4 Jun 2027 19:04:11.554,767.830
42,4 Jun 2027 20:27:19.797,4 Jun 2027 20:39:52.796,752.999
43,4 Jun 2027 22:03:07.943,4 Jun 2027 22:13:54.941,646.998
44,4 Jun 2027 23:38:21.040,4 Jun 2027 23:47:11.823,530.783
45,5 Jun 2027 01:12:23.340,5 Jun 2027 01:21:06.667,523.327
46,5 Jun 2027 02:45:40.128,5 Jun 2027 02:56:14.051,633.923
47,5 Jun 2027 04:19:34.700,5 Jun 2027 04:32:00.162,745.463
48,5 Jun 2027 05:55:04.259,5 Jun 2027 06:07:56.322,772.063
49,5 Jun 2027 07:32:47.638,5 Jun 2027 07:43:41.031,653.393
50,5 Jun 2027 09:14:39.817,5 Jun 2027 09:17:39.052,179.235
51,5 Jun 2027 15:53:30.865,5 Jun 2027 15:57:01.071,210.206
52,5 Jun 2027 17:27:39.709,5 Jun 2027 17:38:38.574,658.866
53,5 Jun 2027 19:03:25.092,5 Jun 2027 19:16:17.991,772.899
54,5 Jun 2027 20:39:21.247,5 Jun 2027 20:51:44.691,743.444
55,5 Jun 2027 22:15:06.804,5 Jun 2027 22:25:37.456,630.652
56,5 Jun 2027 23:50:12.689,5 Jun 2027 23:58:54.367,521.679
57,6 Jun 2027 01:24:05.725,6 Jun 2027 01:32:58.575,532.851
58,6 Jun 2027 02:57:22.782,6 Jun 2027 03:08:13.030,650.248
59,6 Jun 2027 04:31:26.902,6 Jun 2027 04:44:01.637,754.736
60,6 Jun 2027 06:07:11.116,6 Jun 2027 06:19:57.654,766.539
61,6 Jun 2027 07:45:15.026,6 Jun 2027 07:55:38.516,623.490
62,6 Jun 2027 16:04:55.843,6 Jun 2027 16:10:17.364,321.521
63,6 Jun 2027 17:39:38.267,6 Jun 2027 17:51:02.193,683.925
64,6 Jun 2027 19:15:26.597,6 Jun 2027 19:28:22.355,775.758
65,6 Jun 2027 20:51:22.538,6 Jun 2027 21:03:35.063,732.525
66,6 Jun 2027 22:27:05.070,6 Jun 2027 22:37:19.346,614.276
67,7 Jun 2027 00:02:03.062,7 Jun 2027 00:10:37.771,514.710
68,7 Jun 2027 01:35:47.473,7 Jun 2027 01:44:51.678,544.205
69,7 Jun 2027 03:09:06.240,7 Jun 2027 03:20:12.524,666.285
70,7 Jun 2027 04:43:20.713,7 Jun 2027 04:56:03.218,762.505
71,7 Jun 2027 06:19:20.147,7 Jun 2027 06:31:58.782,758.635
72,7 Jun 2027 07:57:45.873,7 Jun 2027 08:07:34.827,588.953
73,7 Jun 2027 16:16:35.812,7 Jun 2027 16:23:16.115,400.303
74,7 Jun 2027 17:51:37.522,7 Jun 2027 18:03:22.927,705.405
75,7 Jun 2027 19:27:28.211,7 Jun 2027 19:40:24.716,776.505
76,7 Jun 2027 21:03:23.626,7 Jun 2027 21:15:23.999,720.374
77,7 Jun 2027 22:39:02.647,7 Jun 2027 22:49:00.768,598.121
78,8 Jun 2027 00:13:52.122,8 Jun 2027 00:22:22.183,510.061
79,8 Jun 2027 01:47:28.781,8 Jun 2027 01:56:45.905,557.124
80,8 Jun 2027 03:20:50.644,8 Jun 2027 03:32:12.463,681.820
81,8 Jun 2027 04:55:16.201,8 Jun 2027 05:08:04.875,768.673
82,8 Jun 2027 06:31:31.434,8 Jun 2027 06:43:59.650,748.216
83,8 Jun 2027 08:10:20.590,8 Jun 2027 08:19:29.621,549.032
84,8 Jun 2027 16:28:22.530,8 Jun 2027 16:36:05.583,463.053
85,8 Jun 2027 18:03:37.339,8 Jun 2027 18:15:40.944,723.606
86,8 Jun 2027 19:39:29.883,8 Jun 2027 19:52:25.151,775.268
87,8 Jun 2027 21:15:24.481,8 Jun 2027 21:27:11.590,707.108
88,8 Jun 2027 22:50:59.459,8 Jun 2027 23:00:41.896,582.437
89,9 Jun 2027 00:25:39.865,9 Jun 2027 00:34:07.736,507.871
90,9 Jun 2027 01:59:09.852,9 Jun 2027 02:08:41.162,571.310
91,9 Jun 2027 03:32:36.118,9 Jun 2027 03:44:12.783,696.664
92,9 Jun 2027 05:07:13.437,9 Jun 2027 05:20:06.567,773.130
93,9 Jun 2027 06:43:45.081,9 Jun 2027 06:56:00.201,735.120
94,9 Jun 2027 08:22:59.757,9 Jun 2027 08:31:22.357,502.600
95,9 Jun 2027 16:40:13.223,9 Jun 2027 16:48:48.597,515.374
96,9 Jun 2027 18:15:37.612,9 Jun 2027 18:27:56.405,738.794
97,9 Jun 2027 19:51:31.576,9 Jun 2027 20:04:23.724,772.148
98,9 Jun 2027 21:27:25.042,9 Jun 2027 21:38:57.928,692.886
99,9 Jun 2027 23:02:55.402,9 Jun 2027 23:12:22.930,567.528
100,10 Jun 2027 00:37:26.324,10 Jun 2027 00:45:54.537,508.214
101,10 Jun 2027 02:10:50.884,10 Jun 2027 02:20:37.348,586.464
102,10 Jun 2027 03:44:22.766,10 Jun 2027 03:56:13.428,710.662
103,10 Jun 2027 05:19:12.487,10 Jun 2027 05:32:08.262,775.775
104,10 Jun 2027 06:56:01.196,10 Jun 2027 07:08:00.363,719.167
105,10 Jun 2027 08:35:44.287,10 Jun 2027 08:43:12.172,447.885
106,10 Jun 2027 16:52:06.571,10 Jun 2027 17:01:26.531,559.960
107,10 Jun 2027 18:27:38.256,10 Jun 2027 18:40:09.425,751.169
108,10 Jun 2027 20:03:33.261,10 Jun 2027 20:16:20.499,767.238
109,10 Jun 2027 21:39:25.261,10 Jun 2027 21:50:43.109,677.848
110,10 Jun 2027 23:14:50.385,10 Jun 2027 23:24:04.052,553.667
111,11 Jun 2027 00:49:11.559,11 Jun 2027 00:57:42.631,511.071
112,11 Jun 2027 02:22:32.067,11 Jun 2027 02:32:34.373,602.306
113,11 Jun 2027 03:56:10.689,11 Jun 2027 04:08:14.349,723.659
114,11 Jun 2027 05:31:13.416,11 Jun 2027 05:44:09.919,776.503
115,11 Jun 2027 07:08:19.910,11 Jun 2027 07:20:00.034,700.124
116,11 Jun 2027 08:48:35.823,11 Jun 2027 08:54:57.476,381.653
117,11 Jun 2027 17:04:01.813,11 Jun 2027 17:14:00.186,598.373
118,11 Jun 2027 18:39:39.200,11 Jun 2027 18:52:20.116,760.916
119,11 Jun 2027 20:15:34.900,11 Jun 2027 20:28:15.551,760.651
120,11 Jun 2027 21:51:25.078,11 Jun 2027 22:02:27.266,662.188
121,11 Jun 2027 23:26:44.319,11 Jun 2027 23:35:45.465,541.147
122,12 Jun 2027 01:00:55.684,12 Jun 2027 01:09:32.041,516.356
123,12 Jun 2027 02:34:13.589,12 Jun 2027 02:44:32.144,618.555
124,12 Jun 2027 04:07:59.994,12 Jun 2027 04:20:15.495,735.501
125,12 Jun 2027 05:43:16.292,12 Jun 2027 05:56:11.504,775.211
126,12 Jun 2027 07:20:41.377,12 Jun 2027 07:31:59.117,677.740
127,12 Jun 2027 09:01:37.907,12 Jun 2027 09:06:34.757,296.850
128,12 Jun 2027 17:15:58.463,12 Jun 2027 17:26:30.099,631.636
129,12 Jun 2027 18:51:40.387,12 Jun 2027 19:04:28.569,768.182
130,12 Jun 2027 20:27:36.458,12 Jun 2027 20:40:08.939,752.481
131,12 Jun 2027 22:03:24.436,12 Jun 2027 22:14:10.510,646.073
132,12 Jun 2027 23:38:37.110,12 Jun 2027 23:47:27.369,530.259
133,13 Jun 2027 01:12:38.835,13 Jun 2027 01:21:22.762,523.928
134,13 Jun 2027 02:45:55.618,13 Jun 2027 02:56:30.573,634.955
135,13 Jun 2027 04:19:50.754,13 Jun 2027 04:32:16.833,746.079
136,13 Jun 2027 05:55:21.190,13 Jun 2027 06:08:12.975,771.785
137,13 Jun 2027 07:33:05.788,13 Jun 2027 07:43:57.453,651.665
138,13 Jun 2027 09:15:03.107,13 Jun 2027 09:17:51.492,168.385
139,13 Jun 2027 15:53:44.646,13 Jun 2027 15:57:23.011,218.365
140,13 Jun 2027 17:27:56.203,13 Jun 2027 17:38:56.637,660.434
141,13 Jun 2027 19:03:41.761,13 Jun 2027 19:16:34.883,773.123
142,13 Jun 2027 20:39:37.890,13 Jun 2027 20:52:00.738,742.848
143,13 Jun 2027 22:15:23.264,13 Jun 2027 22:25:52.980,629.716
144,13 Jun 2027 23:50:28.679,13 Jun 2027 23:59:09.959,521.280
