dataset/facility_timing/facility_Facility-Anadyr2/Anadyr2-To-KinoSat_111002.csv

Acces,Start Time (UTCG),Stop Time (UTCG),Duration (sec)
1,1 Jun 2027 00:40:36.976,1 Jun 2027 00:51:15.175,638.199
2,1 Jun 2027 02:14:33.485,1 Jun 2027 02:27:01.098,747.613
3,1 Jun 2027 03:50:05.662,1 Jun 2027 04:02:56.660,770.998
4,1 Jun 2027 05:27:52.693,1 Jun 2027 05:38:40.003,647.310
5,1 Jun 2027 07:10:05.032,1 Jun 2027 07:12:20.659,135.627
6,1 Jun 2027 13:48:28.927,1 Jun 2027 13:52:10.635,221.709
7,1 Jun 2027 15:22:40.717,1 Jun 2027 15:33:42.038,661.321
8,1 Jun 2027 16:58:25.802,1 Jun 2027 17:11:18.980,773.177
9,1 Jun 2027 18:34:21.349,1 Jun 2027 18:46:43.901,742.552
10,1 Jun 2027 20:10:05.870,1 Jun 2027 20:20:35.840,629.971
11,1 Jun 2027 21:45:10.078,1 Jun 2027 21:53:53.462,523.384
12,1 Jun 2027 23:19:01.892,1 Jun 2027 23:27:59.098,537.206
13,2 Jun 2027 00:52:19.718,2 Jun 2027 01:03:13.989,654.270
14,2 Jun 2027 02:26:25.840,2 Jun 2027 02:39:02.336,756.496
15,2 Jun 2027 04:02:12.691,2 Jun 2027 04:14:57.702,765.011
16,2 Jun 2027 05:40:20.418,2 Jun 2027 05:50:37.013,616.595
17,2 Jun 2027 13:59:55.592,2 Jun 2027 14:05:24.317,328.724
18,2 Jun 2027 15:34:39.095,2 Jun 2027 15:46:05.034,685.940
19,2 Jun 2027 17:10:27.068,2 Jun 2027 17:23:22.896,775.829
20,2 Jun 2027 18:46:22.361,2 Jun 2027 18:58:33.976,731.614
21,2 Jun 2027 20:22:03.798,2 Jun 2027 20:32:17.632,613.834
22,2 Jun 2027 21:57:00.096,2 Jun 2027 22:05:36.944,516.847
23,2 Jun 2027 23:30:43.537,2 Jun 2027 23:39:52.171,548.634
24,3 Jun 2027 01:04:03.278,3 Jun 2027 01:15:13.305,670.027
25,3 Jun 2027 02:38:19.799,3 Jun 2027 02:51:03.681,763.882
26,3 Jun 2027 04:14:21.895,3 Jun 2027 04:26:58.532,756.637
27,3 Jun 2027 05:52:51.652,3 Jun 2027 06:02:32.789,581.137
28,3 Jun 2027 14:11:36.013,3 Jun 2027 14:18:21.714,405.701
29,3 Jun 2027 15:46:38.153,3 Jun 2027 15:58:25.185,707.031
30,3 Jun 2027 17:22:28.436,3 Jun 2027 17:35:24.836,776.400
31,3 Jun 2027 18:58:23.167,3 Jun 2027 19:10:22.646,719.479
32,3 Jun 2027 20:34:01.031,3 Jun 2027 20:43:58.986,597.955
33,3 Jun 2027 22:08:48.824,3 Jun 2027 22:17:21.442,512.619
34,3 Jun 2027 23:42:24.779,3 Jun 2027 23:51:46.338,561.559
35,4 Jun 2027 01:15:47.792,4 Jun 2027 01:27:13.056,685.264
36,4 Jun 2027 02:50:15.431,4 Jun 2027 03:03:05.094,769.663
37,4 Jun 2027 04:26:33.347,4 Jun 2027 04:38:59.094,745.747
38,4 Jun 2027 06:05:26.835,4 Jun 2027 06:14:26.959,540.123
39,4 Jun 2027 14:23:22.850,4 Jun 2027 14:31:10.192,467.342
40,4 Jun 2027 15:58:37.763,4 Jun 2027 16:10:42.656,724.893
41,4 Jun 2027 17:34:29.862,4 Jun 2027 17:47:24.876,775.015
42,4 Jun 2027 19:10:23.730,4 Jun 2027 19:22:09.996,706.267
43,4 Jun 2027 20:45:57.494,4 Jun 2027 20:55:40.076,582.583
44,4 Jun 2027 22:20:36.266,4 Jun 2027 22:29:07.074,510.808
45,4 Jun 2027 23:54:05.820,5 Jun 2027 00:03:41.506,575.687
46,5 Jun 2027 01:27:33.380,5 Jun 2027 01:39:13.171,699.791
47,5 Jun 2027 03:02:12.802,5 Jun 2027 03:15:06.536,773.735
48,5 Jun 2027 04:38:47.159,5 Jun 2027 04:50:59.329,732.171
49,5 Jun 2027 06:18:06.588,5 Jun 2027 06:26:18.936,492.348
50,5 Jun 2027 14:35:13.524,5 Jun 2027 14:43:52.374,518.850
51,5 Jun 2027 16:10:37.820,5 Jun 2027 16:22:57.603,739.783
52,5 Jun 2027 17:46:31.306,5 Jun 2027 17:59:23.080,771.774
53,5 Jun 2027 19:22:24.003,5 Jun 2027 19:33:56.118,692.115
54,5 Jun 2027 20:57:53.090,5 Jun 2027 21:07:21.089,567.999
55,5 Jun 2027 22:32:22.445,5 Jun 2027 22:40:53.930,511.485
56,6 Jun 2027 00:05:46.844,6 Jun 2027 00:15:37.585,590.741
57,6 Jun 2027 01:39:20.143,6 Jun 2027 01:51:13.609,713.466
58,6 Jun 2027 03:14:11.978,6 Jun 2027 03:27:07.978,776.000
59,6 Jun 2027 04:51:03.443,6 Jun 2027 05:02:59.155,715.712
60,6 Jun 2027 06:30:51.938,6 Jun 2027 06:38:07.754,435.816
61,6 Jun 2027 14:47:06.767,6 Jun 2027 14:56:29.583,562.817
62,6 Jun 2027 16:22:38.241,6 Jun 2027 16:35:10.138,751.898
63,6 Jun 2027 17:58:32.731,6 Jun 2027 18:11:19.513,766.782
64,6 Jun 2027 19:34:23.923,6 Jun 2027 19:45:41.118,677.195
65,6 Jun 2027 21:09:47.723,6 Jun 2027 21:19:02.224,554.501
66,6 Jun 2027 22:44:07.446,6 Jun 2027 22:52:42.063,514.617
67,7 Jun 2027 00:17:28.052,7 Jun 2027 00:27:34.477,606.425
68,7 Jun 2027 01:51:08.182,7 Jun 2027 02:03:14.312,726.130
69,7 Jun 2027 03:26:13.028,7 Jun 2027 03:39:09.375,776.346
70,7 Jun 2027 05:03:22.331,7 Jun 2027 05:14:58.478,696.147
71,7 Jun 2027 06:43:44.722,7 Jun 2027 06:49:51.612,366.890
72,7 Jun 2027 14:59:01.865,7 Jun 2027 15:09:02.582,600.716
73,7 Jun 2027 16:34:38.955,7 Jun 2027 16:47:20.374,761.418
74,7 Jun 2027 18:10:34.110,7 Jun 2027 18:23:14.246,760.136
75,7 Jun 2027 19:46:23.439,7 Jun 2027 19:57:25.111,661.672
76,7 Jun 2027 21:21:41.310,7 Jun 2027 21:30:43.665,542.355
77,7 Jun 2027 22:55:51.374,7 Jun 2027 23:04:31.486,520.112
78,8 Jun 2027 00:29:09.614,8 Jun 2027 00:39:32.097,622.483
79,8 Jun 2027 02:02:57.597,8 Jun 2027 02:15:15.233,737.636
80,8 Jun 2027 03:38:16.024,8 Jun 2027 03:51:10.687,774.664
81,8 Jun 2027 05:15:43.990,8 Jun 2027 05:26:57.183,673.194
82,8 Jun 2027 06:56:49.245,8 Jun 2027 07:01:26.247,277.002
83,8 Jun 2027 15:10:58.339,8 Jun 2027 15:21:31.893,633.554
84,8 Jun 2027 16:46:39.906,8 Jun 2027 16:59:28.398,768.492
85,8 Jun 2027 18:22:35.403,8 Jun 2027 18:35:07.339,751.936
86,8 Jun 2027 19:58:22.490,8 Jun 2027 20:09:08.222,645.732
87,8 Jun 2027 21:33:33.762,8 Jun 2027 21:42:25.610,531.848
88,8 Jun 2027 23:07:34.366,8 Jun 2027 23:16:22.195,527.829
89,9 Jun 2027 00:40:51.699,9 Jun 2027 00:51:30.356,638.656
90,9 Jun 2027 02:14:48.462,9 Jun 2027 02:27:16.340,747.878
91,9 Jun 2027 03:50:21.023,9 Jun 2027 04:03:11.885,770.862
92,9 Jun 2027 05:28:08.600,9 Jun 2027 05:38:55.120,646.519
93,9 Jun 2027 07:10:23.997,9 Jun 2027 07:12:33.219,129.222
94,9 Jun 2027 13:48:43.016,9 Jun 2027 13:52:28.059,225.043
95,9 Jun 2027 15:22:55.889,9 Jun 2027 15:33:57.872,661.984
96,9 Jun 2027 16:58:41.041,9 Jun 2027 17:11:34.310,773.269
97,9 Jun 2027 18:34:36.573,9 Jun 2027 18:46:58.868,742.295
98,9 Jun 2027 20:10:21.006,9 Jun 2027 20:20:50.589,629.582
99,9 Jun 2027 21:45:25.004,9 Jun 2027 21:54:08.248,523.244
100,9 Jun 2027 23:19:16.590,9 Jun 2027 23:28:14.133,537.543
101,10 Jun 2027 00:52:34.462,10 Jun 2027 01:03:29.186,654.723
102,10 Jun 2027 02:26:40.859,10 Jun 2027 02:39:17.579,756.720
103,10 Jun 2027 04:02:28.112,10 Jun 2027 04:15:12.923,764.811
104,10 Jun 2027 05:40:36.416,10 Jun 2027 05:50:52.096,615.679
105,10 Jun 2027 14:00:10.225,10 Jun 2027 14:05:41.130,330.905
106,10 Jun 2027 15:34:54.283,10 Jun 2027 15:46:20.792,686.509
107,10 Jun 2027 17:10:42.308,10 Jun 2027 17:23:38.174,775.866
108,10 Jun 2027 18:46:37.578,10 Jun 2027 18:58:48.905,731.327
109,10 Jun 2027 20:22:18.915,10 Jun 2027 20:32:32.368,613.453
110,10 Jun 2027 21:57:14.986,10 Jun 2027 22:05:51.758,516.771
111,10 Jun 2027 23:30:58.223,10 Jun 2027 23:40:07.235,549.012
112,11 Jun 2027 01:04:18.046,11 Jun 2027 01:15:28.512,670.466
113,11 Jun 2027 02:38:34.861,11 Jun 2027 02:51:18.925,764.064
114,11 Jun 2027 04:14:37.375,11 Jun 2027 04:27:13.744,756.370
115,11 Jun 2027 05:53:07.748,11 Jun 2027 06:02:47.830,580.082
116,11 Jun 2027 14:11:50.856,11 Jun 2027 14:18:38.247,407.391
117,11 Jun 2027 15:46:53.354,11 Jun 2027 15:58:40.871,707.516
118,11 Jun 2027 17:22:43.677,11 Jun 2027 17:35:40.063,776.386
119,11 Jun 2027 18:58:38.375,11 Jun 2027 19:10:37.540,719.165
120,11 Jun 2027 20:34:16.126,11 Jun 2027 20:44:13.714,597.588
121,11 Jun 2027 22:09:03.678,11 Jun 2027 22:17:36.283,512.605
122,11 Jun 2027 23:42:39.457,11 Jun 2027 23:52:01.428,561.970
123,12 Jun 2027 01:16:02.587,12 Jun 2027 01:27:28.271,685.684
124,12 Jun 2027 02:50:30.538,12 Jun 2027 03:03:20.335,769.798
125,12 Jun 2027 04:26:48.887,12 Jun 2027 04:39:14.294,745.408
126,12 Jun 2027 06:05:43.046,12 Jun 2027 06:14:41.946,538.899
127,12 Jun 2027 14:23:37.808,12 Jun 2027 14:31:26.542,468.733
128,12 Jun 2027 15:58:52.974,12 Jun 2027 16:10:58.273,725.299
129,12 Jun 2027 17:34:45.100,12 Jun 2027 17:47:40.054,774.954
130,12 Jun 2027 19:10:38.929,12 Jun 2027 19:22:24.858,705.929
131,12 Jun 2027 20:46:12.563,12 Jun 2027 20:55:54.801,582.238
132,12 Jun 2027 22:20:51.085,12 Jun 2027 22:29:21.946,510.861
133,12 Jun 2027 23:54:20.496,13 Jun 2027 00:03:56.620,576.124
134,13 Jun 2027 01:27:48.205,13 Jun 2027 01:39:28.393,700.187
135,13 Jun 2027 03:02:27.956,13 Jun 2027 03:15:21.776,773.820
136,13 Jun 2027 04:39:02.763,13 Jun 2027 04:51:14.517,731.754
137,13 Jun 2027 06:18:22.937,13 Jun 2027 06:26:33.845,490.908
138,13 Jun 2027 14:35:28.556,13 Jun 2027 14:44:08.585,520.028
139,13 Jun 2027 16:10:53.039,13 Jun 2027 16:23:13.156,740.117
140,13 Jun 2027 17:46:46.542,13 Jun 2027 17:59:38.211,771.669
141,13 Jun 2027 19:22:39.191,13 Jun 2027 19:34:10.950,691.759
142,13 Jun 2027 20:58:08.133,13 Jun 2027 21:07:35.816,567.683
143,13 Jun 2027 22:32:37.230,13 Jun 2027 22:41:08.836,511.605
