dataset/facility_timing/facility_Facility-Anadyr2/Anadyr2-To-KinoSat_110505.csv

Acces,Start Time (UTCG),Stop Time (UTCG),Duration (sec)
1,1 Jun 2027 00:30:21.051,1 Jun 2027 00:43:16.145,775.094
2,1 Jun 2027 02:07:03.833,1 Jun 2027 02:19:07.937,724.104
3,1 Jun 2027 03:46:37.435,1 Jun 2027 03:54:22.028,464.593
4,1 Jun 2027 12:03:19.473,1 Jun 2027 12:12:19.473,540.000
5,1 Jun 2027 13:38:47.046,1 Jun 2027 13:51:12.752,745.706
6,1 Jun 2027 15:14:40.812,1 Jun 2027 15:27:30.468,769.656
7,1 Jun 2027 16:50:32.584,1 Jun 2027 17:01:58.034,685.450
8,1 Jun 2027 18:25:58.946,1 Jun 2027 18:35:21.198,562.252
9,1 Jun 2027 20:00:23.542,1 Jun 2027 20:08:57.431,513.888
10,1 Jun 2027 21:33:46.113,1 Jun 2027 21:43:45.251,599.138
11,1 Jun 2027 23:07:22.825,1 Jun 2027 23:19:22.952,720.127
12,2 Jun 2027 00:42:21.078,2 Jun 2027 00:55:17.463,776.385
13,2 Jun 2027 02:19:21.291,2 Jun 2027 02:31:07.415,706.124
14,2 Jun 2027 03:59:26.092,2 Jun 2027 04:06:08.522,402.430
15,2 Jun 2027 12:15:13.536,2 Jun 2027 12:24:54.499,580.963
16,2 Jun 2027 13:50:47.507,2 Jun 2027 14:03:24.087,756.580
17,2 Jun 2027 15:26:42.120,2 Jun 2027 15:39:26.022,763.902
18,2 Jun 2027 17:02:32.216,2 Jun 2027 17:13:42.507,670.291
19,2 Jun 2027 18:37:52.996,2 Jun 2027 18:47:02.442,549.446
20,2 Jun 2027 20:12:07.982,2 Jun 2027 20:20:46.131,518.150
21,2 Jun 2027 21:45:27.467,2 Jun 2027 21:55:42.407,614.940
22,2 Jun 2027 23:19:11.490,2 Jun 2027 23:31:23.665,732.175
23,3 Jun 2027 00:54:22.999,3 Jun 2027 01:07:18.724,775.724
24,3 Jun 2027 02:31:41.417,3 Jun 2027 02:43:06.343,684.926
25,3 Jun 2027 04:12:23.845,3 Jun 2027 04:17:48.408,324.563
26,3 Jun 2027 12:27:09.207,3 Jun 2027 12:37:25.592,616.385
27,3 Jun 2027 14:02:48.236,3 Jun 2027 14:15:33.170,764.934
28,3 Jun 2027 15:38:43.354,3 Jun 2027 15:51:19.907,756.553
29,3 Jun 2027 17:14:31.417,3 Jun 2027 17:25:26.043,654.626
30,3 Jun 2027 18:49:45.965,3 Jun 2027 18:58:44.091,538.126
31,3 Jun 2027 20:23:51.411,3 Jun 2027 20:32:36.107,524.696
32,3 Jun 2027 21:57:09.254,3 Jun 2027 22:07:40.244,630.990
33,3 Jun 2027 23:31:01.566,3 Jun 2027 23:43:24.577,743.011
34,4 Jun 2027 01:06:26.896,4 Jun 2027 01:19:19.879,772.982
35,4 Jun 2027 02:44:04.398,4 Jun 2027 02:55:04.580,660.182
36,4 Jun 2027 04:25:38.542,4 Jun 2027 04:29:13.881,215.339
37,4 Jun 2027 11:05:26.947,4 Jun 2027 11:07:39.759,132.812
38,4 Jun 2027 12:39:06.104,4 Jun 2027 12:49:53.178,647.074
39,4 Jun 2027 14:14:49.170,4 Jun 2027 14:27:40.100,770.930
40,4 Jun 2027 15:50:44.488,4 Jun 2027 16:03:12.194,747.706
41,4 Jun 2027 17:26:30.126,4 Jun 2027 17:37:08.760,638.634
42,4 Jun 2027 19:01:37.767,4 Jun 2027 19:10:26.325,528.559
43,4 Jun 2027 20:35:33.998,4 Jun 2027 20:44:27.341,533.343
44,4 Jun 2027 22:08:51.636,4 Jun 2027 22:19:38.685,647.050
45,4 Jun 2027 23:42:53.124,4 Jun 2027 23:55:25.649,752.525
46,5 Jun 2027 01:18:32.826,5 Jun 2027 01:31:20.901,768.076
47,5 Jun 2027 02:56:30.440,5 Jun 2027 03:07:01.962,631.522
48,5 Jun 2027 11:16:34.775,5 Jun 2027 11:21:13.314,278.539
49,5 Jun 2027 12:51:03.956,5 Jun 2027 13:02:17.587,673.630
50,5 Jun 2027 14:26:50.272,5 Jun 2027 14:39:44.953,774.681
51,5 Jun 2027 16:02:45.481,5 Jun 2027 16:15:02.966,737.485
52,5 Jun 2027 17:38:28.257,5 Jun 2027 17:48:50.813,622.556
53,5 Jun 2027 19:13:28.344,5 Jun 2027 19:22:09.335,520.991
54,5 Jun 2027 20:47:15.896,5 Jun 2027 20:56:19.765,543.869
55,5 Jun 2027 22:20:34.767,5 Jun 2027 22:31:37.663,662.896
56,5 Jun 2027 23:54:46.242,6 Jun 2027 00:07:26.842,760.600
57,6 Jun 2027 01:30:40.881,6 Jun 2027 01:43:21.730,760.849
58,6 Jun 2027 03:08:59.822,6 Jun 2027 03:18:58.252,598.431
59,6 Jun 2027 11:28:09.506,6 Jun 2027 11:34:17.418,367.912
60,6 Jun 2027 13:03:02.573,6 Jun 2027 13:14:39.046,696.473
61,6 Jun 2027 14:38:51.483,6 Jun 2027 14:51:47.809,776.326
62,6 Jun 2027 16:14:46.292,6 Jun 2027 16:26:52.287,725.994
63,6 Jun 2027 17:50:25.750,6 Jun 2027 18:00:32.352,606.602
64,6 Jun 2027 19:25:17.651,6 Jun 2027 19:33:53.280,515.629
65,6 Jun 2027 20:58:57.305,6 Jun 2027 21:08:13.310,556.004
66,6 Jun 2027 22:32:18.774,6 Jun 2027 22:43:37.097,678.322
67,7 Jun 2027 00:06:40.991,7 Jun 2027 00:19:28.119,767.127
68,7 Jun 2027 01:42:51.131,7 Jun 2027 01:55:22.328,751.196
69,7 Jun 2027 03:21:32.914,7 Jun 2027 03:30:53.138,560.223
70,7 Jun 2027 11:39:53.349,7 Jun 2027 11:47:09.902,436.553
71,7 Jun 2027 13:15:01.804,7 Jun 2027 13:26:57.750,715.946
72,7 Jun 2027 14:50:52.780,7 Jun 2027 15:03:48.725,775.945
73,7 Jun 2027 16:26:46.881,7 Jun 2027 16:38:40.251,713.371
74,7 Jun 2027 18:02:22.508,7 Jun 2027 18:12:13.538,591.030
75,7 Jun 2027 19:37:05.674,7 Jun 2027 19:45:38.291,512.617
76,7 Jun 2027 21:10:38.416,7 Jun 2027 21:20:07.897,569.481
77,7 Jun 2027 22:44:03.793,7 Jun 2027 22:55:36.933,693.140
78,8 Jun 2027 00:18:37.438,8 Jun 2027 00:31:29.441,772.003
79,8 Jun 2027 01:55:03.688,8 Jun 2027 02:07:22.621,738.933
80,8 Jun 2027 03:34:10.246,8 Jun 2027 03:42:46.135,515.890
81,8 Jun 2027 11:51:42.112,8 Jun 2027 11:59:54.995,492.883
82,8 Jun 2027 13:27:01.538,8 Jun 2027 13:39:13.862,732.323
83,8 Jun 2027 15:02:54.113,8 Jun 2027 15:15:47.783,773.670
84,8 Jun 2027 16:38:47.198,8 Jun 2027 16:50:26.948,699.750
85,8 Jun 2027 18:14:18.456,8 Jun 2027 18:23:54.558,576.101
86,8 Jun 2027 19:48:52.434,8 Jun 2027 19:57:24.480,512.047
87,8 Jun 2027 21:22:19.420,8 Jun 2027 21:32:03.438,584.018
88,8 Jun 2027 22:55:49.937,8 Jun 2027 23:07:37.111,707.174
89,9 Jun 2027 00:30:35.658,9 Jun 2027 00:43:30.780,775.122
90,9 Jun 2027 02:07:18.647,9 Jun 2027 02:19:22.550,723.903
91,9 Jun 2027 03:46:52.604,9 Jun 2027 03:54:36.509,463.906
92,9 Jun 2027 12:03:34.012,9 Jun 2027 12:12:34.533,540.521
93,9 Jun 2027 13:39:01.669,9 Jun 2027 13:51:27.519,745.850
94,9 Jun 2027 15:14:55.445,9 Jun 2027 15:27:45.043,769.597
95,9 Jun 2027 16:50:47.198,9 Jun 2027 17:02:12.473,685.276
96,9 Jun 2027 18:26:13.495,9 Jun 2027 18:35:35.593,562.098
97,9 Jun 2027 20:00:37.975,9 Jun 2027 20:09:11.910,513.934
98,9 Jun 2027 21:34:00.502,9 Jun 2027 21:43:59.834,599.332
99,9 Jun 2027 23:07:37.297,9 Jun 2027 23:19:37.579,720.282
100,10 Jun 2027 00:42:35.707,10 Jun 2027 00:55:32.096,776.389
101,10 Jun 2027 02:19:36.136,10 Jun 2027 02:31:22.021,705.885
102,10 Jun 2027 03:59:41.347,10 Jun 2027 04:06:22.937,401.590
103,10 Jun 2027 12:15:28.098,10 Jun 2027 12:25:09.508,581.411
104,10 Jun 2027 13:51:02.133,10 Jun 2027 14:03:38.826,756.693
105,10 Jun 2027 15:26:56.752,10 Jun 2027 15:39:40.576,763.824
106,10 Jun 2027 17:02:46.824,10 Jun 2027 17:13:56.935,670.110
107,10 Jun 2027 18:38:07.531,10 Jun 2027 18:47:16.840,549.310
108,10 Jun 2027 20:12:22.401,10 Jun 2027 20:21:00.626,518.225
109,10 Jun 2027 21:45:41.859,10 Jun 2027 21:55:56.998,615.139
110,10 Jun 2027 23:19:25.978,10 Jun 2027 23:31:38.294,732.315
111,11 Jun 2027 00:54:37.651,11 Jun 2027 01:07:33.355,775.704
112,11 Jun 2027 02:31:56.294,11 Jun 2027 02:43:20.940,684.645
113,11 Jun 2027 04:12:39.241,11 Jun 2027 04:18:02.709,323.468
114,11 Jun 2027 12:27:23.785,11 Jun 2027 12:37:40.557,616.772
115,11 Jun 2027 14:03:02.864,11 Jun 2027 14:15:47.882,765.018
116,11 Jun 2027 15:38:57.984,11 Jun 2027 15:51:34.442,756.458
117,11 Jun 2027 17:14:46.018,11 Jun 2027 17:25:40.460,654.442
118,11 Jun 2027 18:50:00.485,11 Jun 2027 18:58:58.496,538.012
119,11 Jun 2027 20:24:05.818,11 Jun 2027 20:32:50.618,524.800
120,11 Jun 2027 21:57:23.652,11 Jun 2027 22:07:54.843,631.191
121,11 Jun 2027 23:31:16.072,11 Jun 2027 23:43:39.207,743.136
122,12 Jun 2027 01:06:41.572,12 Jun 2027 01:19:34.507,772.935
123,12 Jun 2027 02:44:19.311,12 Jun 2027 02:55:19.167,659.855
124,12 Jun 2027 04:25:54.267,12 Jun 2027 04:29:27.884,213.616
125,12 Jun 2027 11:05:40.496,12 Jun 2027 11:07:55.955,135.458
126,12 Jun 2027 12:39:20.695,12 Jun 2027 12:50:08.103,647.408
127,12 Jun 2027 14:15:03.800,12 Jun 2027 14:27:54.786,770.986
128,12 Jun 2027 15:50:59.116,12 Jun 2027 16:03:26.710,747.595
129,12 Jun 2027 17:26:44.719,12 Jun 2027 17:37:23.168,638.450
130,12 Jun 2027 19:01:52.270,12 Jun 2027 19:10:40.740,528.470
131,12 Jun 2027 20:35:48.394,12 Jun 2027 20:44:41.866,533.472
132,12 Jun 2027 22:09:06.041,12 Jun 2027 22:19:53.291,647.250
133,12 Jun 2027 23:43:07.647,12 Jun 2027 23:55:40.280,752.634
134,13 Jun 2027 01:18:47.527,13 Jun 2027 01:31:35.527,768.001
135,13 Jun 2027 02:56:45.392,13 Jun 2027 03:07:16.535,631.142
136,13 Jun 2027 11:16:49.020,13 Jun 2027 11:21:28.785,279.765
137,13 Jun 2027 12:51:18.557,13 Jun 2027 13:02:32.474,673.917
138,13 Jun 2027 14:27:04.903,13 Jun 2027 14:39:59.615,774.712
139,13 Jun 2027 16:03:00.106,13 Jun 2027 16:15:17.465,737.359
140,13 Jun 2027 17:38:42.841,13 Jun 2027 17:49:05.215,622.374
141,13 Jun 2027 19:13:42.831,13 Jun 2027 19:22:23.761,520.930
142,13 Jun 2027 20:47:30.285,13 Jun 2027 20:56:34.306,544.021
143,13 Jun 2027 22:20:49.182,13 Jun 2027 22:31:52.275,663.093
144,13 Jun 2027 23:55:00.784,14 Jun 2027 00:00:01.000,300.216
