dataset/facility_timing/facility_Facility-Anadyr2/Anadyr2-To-KinoSat_110110.csv

Acces,Start Time (UTCG),Stop Time (UTCG),Duration (sec)
1,1 Jun 2027 00:02:46.900,1 Jun 2027 00:13:54.560,667.660
2,1 Jun 2027 01:44:03.783,1 Jun 2027 01:48:16.015,252.232
3,1 Jun 2027 08:24:52.797,1 Jun 2027 08:25:40.509,47.711
4,1 Jun 2027 09:57:55.743,1 Jun 2027 10:08:35.431,639.688
5,1 Jun 2027 11:33:38.028,1 Jun 2027 11:46:27.669,769.641
6,1 Jun 2027 13:09:33.475,1 Jun 2027 13:22:03.559,750.084
7,1 Jun 2027 14:45:19.966,1 Jun 2027 14:56:02.498,642.532
8,1 Jun 2027 16:20:29.678,1 Jun 2027 16:29:19.897,530.220
9,1 Jun 2027 17:54:28.340,1 Jun 2027 18:03:18.422,530.082
10,1 Jun 2027 19:27:45.738,1 Jun 2027 19:38:28.029,642.291
11,1 Jun 2027 21:01:44.536,1 Jun 2027 21:14:14.479,749.944
12,1 Jun 2027 22:37:20.206,1 Jun 2027 22:50:09.928,769.723
13,2 Jun 2027 00:15:12.137,2 Jun 2027 00:25:52.270,640.133
14,2 Jun 2027 01:58:02.652,2 Jun 2027 01:58:59.327,56.675
15,2 Jun 2027 08:35:32.531,2 Jun 2027 08:39:42.998,250.466
16,2 Jun 2027 10:09:53.437,2 Jun 2027 10:21:00.715,667.278
17,2 Jun 2027 11:45:39.154,2 Jun 2027 11:58:33.110,773.955
18,2 Jun 2027 13:21:34.576,2 Jun 2027 13:33:54.755,740.179
19,2 Jun 2027 14:57:18.323,2 Jun 2027 15:07:44.720,626.397
20,2 Jun 2027 16:32:20.640,2 Jun 2027 16:41:02.691,522.051
21,2 Jun 2027 18:06:10.419,2 Jun 2027 18:15:10.577,540.159
22,2 Jun 2027 19:39:28.663,2 Jun 2027 19:50:26.929,658.266
23,2 Jun 2027 21:13:37.251,2 Jun 2027 21:26:15.704,758.453
24,2 Jun 2027 22:49:27.719,2 Jun 2027 23:02:10.889,763.170
25,3 Jun 2027 00:27:40.628,3 Jun 2027 00:37:48.973,608.346
26,3 Jun 2027 08:47:03.572,3 Jun 2027 08:52:51.614,348.042
27,3 Jun 2027 10:21:51.941,3 Jun 2027 10:33:22.992,691.052
28,3 Jun 2027 11:57:40.405,3 Jun 2027 12:10:36.533,776.128
29,3 Jun 2027 13:33:35.512,3 Jun 2027 13:45:44.474,728.962
30,3 Jun 2027 15:09:16.063,3 Jun 2027 15:19:26.385,610.321
31,3 Jun 2027 16:44:10.336,3 Jun 2027 16:52:46.387,516.050
32,3 Jun 2027 18:17:51.954,3 Jun 2027 18:27:03.879,551.925
33,3 Jun 2027 19:51:12.432,3 Jun 2027 20:02:26.310,673.877
34,3 Jun 2027 21:25:31.584,3 Jun 2027 21:38:17.033,765.449
35,3 Jun 2027 23:01:37.416,3 Jun 2027 23:14:11.623,754.207
36,4 Jun 2027 00:40:12.722,4 Jun 2027 00:49:44.368,571.646
37,4 Jun 2027 08:58:45.762,4 Jun 2027 09:05:46.555,420.793
38,4 Jun 2027 10:33:51.093,4 Jun 2027 10:45:42.464,711.370
39,4 Jun 2027 12:09:41.753,4 Jun 2027 12:22:37.994,776.241
40,4 Jun 2027 13:45:36.232,4 Jun 2027 13:57:32.808,716.577
41,4 Jun 2027 15:21:13.091,4 Jun 2027 15:31:07.651,594.560
42,4 Jun 2027 16:55:58.743,4 Jun 2027 17:04:31.119,512.376
43,4 Jun 2027 18:29:33.131,4 Jun 2027 18:38:58.250,565.120
44,4 Jun 2027 20:02:57.183,4 Jun 2027 20:14:26.110,688.927
45,4 Jun 2027 21:37:27.599,4 Jun 2027 21:50:18.411,770.812
46,4 Jun 2027 23:13:49.390,4 Jun 2027 23:26:12.074,742.685
47,5 Jun 2027 00:52:48.887,5 Jun 2027 01:01:38.035,529.148
48,5 Jun 2027 09:10:33.580,5 Jun 2027 09:18:33.388,479.808
49,5 Jun 2027 10:45:50.776,5 Jun 2027 10:57:59.301,728.525
50,5 Jun 2027 12:21:43.146,5 Jun 2027 12:34:37.574,774.428
51,5 Jun 2027 13:57:36.690,5 Jun 2027 14:09:19.849,703.159
52,5 Jun 2027 15:33:09.331,5 Jun 2027 15:42:48.696,579.365
53,5 Jun 2027 17:07:45.873,5 Jun 2027 17:16:17.008,511.135
54,5 Jun 2027 18:41:14.152,5 Jun 2027 18:50:53.602,579.450
55,5 Jun 2027 20:14:43.032,5 Jun 2027 20:26:26.264,703.231
56,5 Jun 2027 21:49:25.374,5 Jun 2027 22:02:19.817,774.444
57,5 Jun 2027 23:26:03.741,5 Jun 2027 23:38:12.179,728.438
58,6 Jun 2027 01:05:29.817,6 Jun 2027 01:13:29.319,479.502
59,6 Jun 2027 09:22:24.875,6 Jun 2027 09:31:14.295,529.420
60,6 Jun 2027 10:57:50.878,6 Jun 2027 11:10:13.643,742.765
61,6 Jun 2027 12:33:44.549,6 Jun 2027 12:46:35.334,770.786
62,6 Jun 2027 14:09:36.849,6 Jun 2027 14:21:05.685,688.836
63,6 Jun 2027 15:45:04.681,6 Jun 2027 15:54:29.708,565.027
64,6 Jun 2027 17:19:31.758,6 Jun 2027 17:28:04.130,512.372
65,6 Jun 2027 18:52:55.200,6 Jun 2027 19:02:49.839,594.639
66,6 Jun 2027 20:26:30.075,6 Jun 2027 20:38:26.726,716.651
67,6 Jun 2027 22:01:24.964,6 Jun 2027 22:14:21.210,776.246
68,6 Jun 2027 23:38:20.595,6 Jun 2027 23:50:11.860,711.265
69,7 Jun 2027 01:18:16.678,7 Jun 2027 01:25:17.128,420.450
70,7 Jun 2027 09:34:18.550,7 Jun 2027 09:43:50.435,571.885
71,7 Jun 2027 11:09:51.334,7 Jun 2027 11:22:25.603,754.269
72,7 Jun 2027 12:45:45.932,7 Jun 2027 12:58:31.346,765.414
73,7 Jun 2027 14:21:36.647,7 Jun 2027 14:32:50.423,673.776
74,7 Jun 2027 15:56:59.050,7 Jun 2027 16:06:10.882,551.832
75,7 Jun 2027 17:31:16.494,7 Jun 2027 17:39:52.539,516.045
76,7 Jun 2027 19:04:36.475,7 Jun 2027 19:14:46.870,610.395
77,7 Jun 2027 20:38:18.417,7 Jun 2027 20:50:27.448,729.030
78,7 Jun 2027 22:13:26.436,7 Jun 2027 22:26:22.558,776.122
79,7 Jun 2027 23:50:40.078,8 Jun 2027 00:02:11.016,690.938
80,8 Jun 2027 01:31:11.664,8 Jun 2027 01:36:59.287,347.623
81,8 Jun 2027 09:46:13.945,8 Jun 2027 09:56:22.507,608.562
82,8 Jun 2027 11:21:52.066,8 Jun 2027 11:34:35.288,763.222
83,8 Jun 2027 12:57:47.257,8 Jun 2027 13:10:25.668,758.411
84,8 Jun 2027 14:33:36.029,8 Jun 2027 14:44:34.191,658.162
85,8 Jun 2027 16:08:52.355,8 Jun 2027 16:17:52.416,540.061
86,8 Jun 2027 17:43:00.180,8 Jun 2027 17:51:42.237,522.057
87,8 Jun 2027 19:16:18.144,8 Jun 2027 19:26:44.607,626.464
88,8 Jun 2027 20:50:08.153,8 Jun 2027 21:02:28.377,740.224
89,8 Jun 2027 22:25:29.870,8 Jun 2027 22:38:23.810,773.941
90,9 Jun 2027 00:03:02.371,9 Jun 2027 00:14:09.520,667.149
91,9 Jun 2027 01:44:20.362,9 Jun 2027 01:48:30.263,249.900
92,9 Jun 2027 08:25:01.944,9 Jun 2027 08:26:02.232,60.288
93,9 Jun 2027 09:58:10.651,9 Jun 2027 10:08:50.987,640.336
94,9 Jun 2027 11:33:53.024,9 Jun 2027 11:46:42.785,769.760
95,9 Jun 2027 13:09:48.488,9 Jun 2027 13:22:18.370,749.883
96,9 Jun 2027 14:45:34.935,9 Jun 2027 14:56:17.103,642.167
97,9 Jun 2027 16:20:44.508,9 Jun 2027 16:29:34.491,529.983
98,9 Jun 2027 17:54:42.977,9 Jun 2027 18:03:33.204,530.227
99,9 Jun 2027 19:28:00.369,9 Jun 2027 19:38:42.968,642.599
100,9 Jun 2027 21:01:59.354,9 Jun 2027 21:14:29.481,750.127
101,9 Jun 2027 22:37:35.322,9 Jun 2027 22:50:24.938,769.616
102,10 Jun 2027 00:15:27.669,10 Jun 2027 00:26:07.214,639.544
103,10 Jun 2027 01:58:24.050,10 Jun 2027 01:59:08.811,44.762
104,10 Jun 2027 08:35:46.635,10 Jun 2027 08:39:59.707,253.072
105,10 Jun 2027 10:10:08.365,10 Jun 2027 10:21:16.204,667.838
106,10 Jun 2027 11:45:54.159,10 Jun 2027 11:58:48.186,774.027
107,10 Jun 2027 13:21:49.587,10 Jun 2027 13:34:09.533,739.946
108,10 Jun 2027 14:57:33.281,10 Jun 2027 15:07:59.311,626.029
109,10 Jun 2027 16:32:35.444,10 Jun 2027 16:41:17.300,521.856
110,10 Jun 2027 18:06:25.042,10 Jun 2027 18:15:25.386,540.345
111,10 Jun 2027 19:39:43.309,10 Jun 2027 19:50:41.881,658.573
112,10 Jun 2027 21:13:52.102,10 Jun 2027 21:26:30.710,758.608
113,10 Jun 2027 22:49:42.882,10 Jun 2027 23:02:25.896,763.013
114,11 Jun 2027 00:27:56.230,11 Jun 2027 00:38:03.895,607.665
115,11 Jun 2027 08:47:18.051,11 Jun 2027 08:53:07.895,349.844
116,11 Jun 2027 10:22:06.887,11 Jun 2027 10:33:38.419,691.532
117,11 Jun 2027 11:57:55.414,11 Jun 2027 12:10:51.567,776.153
118,11 Jun 2027 13:33:50.520,11 Jun 2027 13:45:59.221,728.701
119,11 Jun 2027 15:09:31.008,11 Jun 2027 15:19:40.965,609.957
120,11 Jun 2027 16:44:25.113,11 Jun 2027 16:53:01.016,515.903
121,11 Jun 2027 18:18:06.565,11 Jun 2027 18:27:18.713,552.148
122,11 Jun 2027 19:51:27.096,11 Jun 2027 20:02:41.271,674.175
123,11 Jun 2027 21:25:46.468,11 Jun 2027 21:38:32.042,765.573
124,11 Jun 2027 23:01:52.623,11 Jun 2027 23:14:26.626,754.003
125,12 Jun 2027 00:40:28.403,12 Jun 2027 00:49:59.260,570.858
126,12 Jun 2027 08:59:00.408,12 Jun 2027 09:06:02.618,422.211
127,12 Jun 2027 10:34:06.054,12 Jun 2027 10:45:57.832,711.778
128,12 Jun 2027 12:09:56.764,12 Jun 2027 12:22:52.987,776.223
129,12 Jun 2027 13:45:51.231,12 Jun 2027 13:57:47.527,716.296
130,12 Jun 2027 15:21:28.021,12 Jun 2027 15:31:22.224,594.204
131,12 Jun 2027 16:56:13.493,12 Jun 2027 17:04:45.773,512.280
132,12 Jun 2027 18:29:47.735,12 Jun 2027 18:39:13.109,565.373
133,12 Jun 2027 20:03:11.867,12 Jun 2027 20:14:41.084,689.216
134,12 Jun 2027 21:37:42.520,12 Jun 2027 21:50:33.423,770.903
135,12 Jun 2027 23:14:04.645,12 Jun 2027 23:26:27.072,742.427
136,13 Jun 2027 00:53:04.658,13 Jun 2027 01:01:52.887,528.230
137,13 Jun 2027 09:10:48.323,13 Jun 2027 09:18:49.304,480.981
138,13 Jun 2027 10:46:05.749,13 Jun 2027 10:58:14.615,728.865
139,13 Jun 2027 12:21:58.160,13 Jun 2027 12:34:52.529,774.369
140,13 Jun 2027 13:57:51.689,13 Jun 2027 14:09:34.542,702.853
141,13 Jun 2027 15:33:24.244,13 Jun 2027 15:43:03.267,579.023
142,13 Jun 2027 17:08:00.595,13 Jun 2027 17:16:31.689,511.094
143,13 Jun 2027 18:41:28.754,13 Jun 2027 18:51:08.483,579.728
144,13 Jun 2027 20:14:57.740,13 Jun 2027 20:26:41.247,703.507
145,13 Jun 2027 21:49:40.332,13 Jun 2027 22:02:34.831,774.499
146,13 Jun 2027 23:26:19.047,13 Jun 2027 23:38:27.175,728.128
