dataset/facility_timing/facility_Facility-Anadyr2/Anadyr2-To-KinoSat_110209.csv

Acces,Start Time (UTCG),Stop Time (UTCG),Duration (sec)
1,1 Jun 2027 00:06:35.390,1 Jun 2027 00:18:45.617,730.228
2,1 Jun 2027 01:45:58.160,1 Jun 2027 01:54:03.820,485.661
3,1 Jun 2027 10:02:59.500,1 Jun 2027 10:11:42.871,523.371
4,1 Jun 2027 11:38:24.402,1 Jun 2027 11:50:45.458,741.056
5,1 Jun 2027 13:14:17.858,1 Jun 2027 13:27:09.215,771.358
6,1 Jun 2027 14:50:10.257,1 Jun 2027 15:01:41.052,690.796
7,1 Jun 2027 16:25:38.644,1 Jun 2027 16:35:05.676,567.033
8,1 Jun 2027 18:00:06.872,1 Jun 2027 18:08:39.325,512.453
9,1 Jun 2027 19:33:30.896,1 Jun 2027 19:43:23.879,592.984
10,1 Jun 2027 21:07:05.038,1 Jun 2027 21:19:00.204,715.166
11,1 Jun 2027 22:41:58.395,1 Jun 2027 22:54:54.519,776.125
12,2 Jun 2027 00:18:51.905,2 Jun 2027 00:30:45.321,713.416
13,2 Jun 2027 01:58:44.202,2 Jun 2027 02:05:52.082,427.880
14,2 Jun 2027 10:14:52.880,2 Jun 2027 10:24:19.541,566.661
15,2 Jun 2027 11:50:24.790,2 Jun 2027 12:02:57.692,752.901
16,2 Jun 2027 13:26:19.219,2 Jun 2027 13:39:05.424,766.206
17,2 Jun 2027 15:02:10.074,2 Jun 2027 15:13:25.916,675.842
18,2 Jun 2027 16:37:33.114,2 Jun 2027 16:46:46.819,553.705
19,2 Jun 2027 18:11:51.732,2 Jun 2027 18:20:27.556,515.824
20,2 Jun 2027 19:45:12.132,2 Jun 2027 19:55:20.792,608.660
21,2 Jun 2027 21:18:53.209,2 Jun 2027 21:31:00.868,727.659
22,2 Jun 2027 22:53:59.615,2 Jun 2027 23:06:55.846,776.232
23,3 Jun 2027 00:31:11.033,3 Jun 2027 00:42:44.514,693.480
24,3 Jun 2027 02:11:38.020,3 Jun 2027 02:17:35.041,357.021
25,3 Jun 2027 10:26:48.051,3 Jun 2027 10:36:52.074,604.023
26,3 Jun 2027 12:02:25.459,3 Jun 2027 12:15:07.635,762.176
27,3 Jun 2027 13:38:20.520,3 Jun 2027 13:50:59.941,759.421
28,3 Jun 2027 15:14:09.483,3 Jun 2027 15:25:09.795,660.312
29,3 Jun 2027 16:49:26.532,3 Jun 2027 16:58:28.296,541.764
30,3 Jun 2027 18:23:35.538,3 Jun 2027 18:32:17.075,521.537
31,3 Jun 2027 19:56:53.741,3 Jun 2027 20:07:18.419,624.678
32,3 Jun 2027 21:30:42.759,3 Jun 2027 21:43:01.742,738.982
33,3 Jun 2027 23:06:02.786,3 Jun 2027 23:18:57.082,774.295
34,4 Jun 2027 00:43:32.948,4 Jun 2027 00:54:43.071,670.123
35,4 Jun 2027 02:24:44.507,4 Jun 2027 02:29:07.849,263.342
36,4 Jun 2027 10:38:44.573,4 Jun 2027 10:49:20.964,636.391
37,4 Jun 2027 12:14:26.362,4 Jun 2027 12:27:15.386,769.024
38,4 Jun 2027 13:50:21.736,4 Jun 2027 14:02:52.830,751.095
39,4 Jun 2027 15:26:08.424,4 Jun 2027 15:36:52.803,644.379
40,4 Jun 2027 17:01:18.810,4 Jun 2027 17:10:10.287,531.477
41,4 Jun 2027 18:35:18.433,4 Jun 2027 18:44:07.868,529.435
42,4 Jun 2027 20:08:35.886,4 Jun 2027 20:19:16.678,640.792
43,4 Jun 2027 21:42:33.764,4 Jun 2027 21:55:02.800,749.036
44,4 Jun 2027 23:18:07.965,4 Jun 2027 23:30:58.197,770.232
45,5 Jun 2027 00:55:57.840,5 Jun 2027 01:06:40.844,643.005
46,5 Jun 2027 02:38:29.327,5 Jun 2027 02:40:04.883,95.556
47,5 Jun 2027 09:16:25.649,5 Jun 2027 09:20:22.451,236.802
48,5 Jun 2027 10:50:42.137,5 Jun 2027 11:01:46.554,664.417
49,5 Jun 2027 12:26:27.446,5 Jun 2027 12:39:21.029,773.583
50,5 Jun 2027 14:02:22.824,5 Jun 2027 14:14:44.174,741.349
51,5 Jun 2027 15:38:06.815,5 Jun 2027 15:48:35.089,628.274
52,5 Jun 2027 17:13:09.882,5 Jun 2027 17:21:52.992,523.110
53,5 Jun 2027 18:47:00.574,5 Jun 2027 18:55:59.879,539.305
54,5 Jun 2027 20:20:18.726,5 Jun 2027 20:31:15.497,656.771
55,5 Jun 2027 21:54:26.303,5 Jun 2027 22:07:03.985,757.682
56,5 Jun 2027 23:30:15.237,5 Jun 2027 23:42:59.149,763.913
57,6 Jun 2027 01:08:25.961,6 Jun 2027 01:18:37.629,611.669
58,6 Jun 2027 09:27:54.637,6 Jun 2027 09:33:33.320,338.684
59,6 Jun 2027 11:02:40.532,6 Jun 2027 11:14:09.113,688.581
60,6 Jun 2027 12:38:28.659,6 Jun 2027 12:51:24.640,775.982
61,6 Jun 2027 14:14:23.751,6 Jun 2027 14:26:34.033,730.282
62,6 Jun 2027 15:50:04.597,6 Jun 2027 16:00:16.802,612.206
63,6 Jun 2027 17:24:59.693,6 Jun 2027 17:33:36.579,516.886
64,6 Jun 2027 18:58:42.152,6 Jun 2027 19:07:53.042,550.889
65,6 Jun 2027 20:32:02.395,6 Jun 2027 20:43:14.803,672.408
66,6 Jun 2027 22:06:20.451,6 Jun 2027 22:19:05.277,764.826
67,6 Jun 2027 23:42:24.682,6 Jun 2027 23:54:59.880,755.197
68,7 Jun 2027 01:20:57.635,7 Jun 2027 01:30:33.139,575.504
69,7 Jun 2027 09:39:35.937,7 Jun 2027 09:46:29.362,413.425
70,7 Jun 2027 11:14:39.592,7 Jun 2027 11:26:28.853,709.261
71,7 Jun 2027 12:50:29.970,7 Jun 2027 13:03:26.287,776.317
72,7 Jun 2027 14:26:24.462,7 Jun 2027 14:38:22.502,718.040
73,7 Jun 2027 16:02:01.675,7 Jun 2027 16:11:58.100,596.426
74,7 Jun 2027 17:36:48.218,7 Jun 2027 17:45:21.188,512.969
75,7 Jun 2027 19:10:23.353,7 Jun 2027 19:19:47.283,563.929
76,7 Jun 2027 20:43:47.031,7 Jun 2027 20:55:14.536,687.504
77,7 Jun 2027 22:18:16.276,7 Jun 2027 22:31:06.623,770.347
78,7 Jun 2027 23:54:36.391,8 Jun 2027 00:07:00.333,743.942
79,8 Jun 2027 01:33:33.327,8 Jun 2027 01:42:26.972,533.645
80,8 Jun 2027 09:51:23.233,8 Jun 2027 09:59:16.914,473.681
81,8 Jun 2027 11:26:39.194,8 Jun 2027 11:38:45.937,726.743
82,8 Jun 2027 13:02:31.331,8 Jun 2027 13:15:26.049,774.717
83,8 Jun 2027 14:38:24.926,8 Jun 2027 14:50:09.669,704.743
84,8 Jun 2027 16:13:57.972,8 Jun 2027 16:23:39.159,581.187
85,8 Jun 2027 17:48:35.467,8 Jun 2027 17:57:06.941,511.473
86,8 Jun 2027 19:22:04.379,8 Jun 2027 19:31:42.511,578.133
87,8 Jun 2027 20:55:32.753,8 Jun 2027 21:07:14.627,701.873
88,8 Jun 2027 22:30:13.844,8 Jun 2027 22:43:08.000,774.156
89,9 Jun 2027 00:06:50.469,9 Jun 2027 00:19:00.449,729.980
90,9 Jun 2027 01:46:13.699,9 Jun 2027 01:54:18.501,484.802
91,9 Jun 2027 10:03:14.177,9 Jun 2027 10:11:58.372,524.195
92,9 Jun 2027 11:38:39.225,9 Jun 2027 11:51:00.519,741.294
93,9 Jun 2027 13:14:32.706,9 Jun 2027 13:27:23.985,771.279
94,9 Jun 2027 14:50:25.093,9 Jun 2027 15:01:55.622,690.529
95,9 Jun 2027 16:25:53.397,9 Jun 2027 16:35:20.164,566.767
96,9 Jun 2027 18:00:21.467,9 Jun 2027 18:08:53.921,512.454
97,9 Jun 2027 19:33:45.411,9 Jun 2027 19:43:38.635,593.224
98,9 Jun 2027 21:07:19.659,9 Jun 2027 21:19:15.034,715.375
99,9 Jun 2027 22:42:13.221,9 Jun 2027 22:55:09.372,776.151
100,10 Jun 2027 00:19:07.024,10 Jun 2027 00:31:00.149,713.125
101,10 Jun 2027 01:58:59.853,10 Jun 2027 02:06:06.692,426.839
102,10 Jun 2027 10:15:07.589,10 Jun 2027 10:24:34.969,567.380
103,10 Jun 2027 11:50:39.615,10 Jun 2027 12:03:12.707,753.092
104,10 Jun 2027 13:26:34.064,10 Jun 2027 13:39:20.164,766.100
105,10 Jun 2027 15:02:24.903,10 Jun 2027 15:13:40.470,675.567
106,10 Jun 2027 16:37:47.849,10 Jun 2027 16:47:01.315,553.466
107,10 Jun 2027 18:12:06.306,10 Jun 2027 18:20:42.177,515.870
108,10 Jun 2027 19:45:26.651,10 Jun 2027 19:55:35.559,608.908
109,10 Jun 2027 21:19:07.850,10 Jun 2027 21:31:15.700,727.850
110,10 Jun 2027 22:54:14.477,10 Jun 2027 23:07:10.694,776.218
111,11 Jun 2027 00:31:26.202,11 Jun 2027 00:42:59.332,693.129
112,11 Jun 2027 02:11:53.823,11 Jun 2027 02:17:49.542,355.719
113,11 Jun 2027 10:27:02.793,11 Jun 2027 10:37:07.430,604.637
114,11 Jun 2027 12:02:40.293,11 Jun 2027 12:15:22.612,762.319
115,11 Jun 2027 13:38:35.369,11 Jun 2027 13:51:14.656,759.287
116,11 Jun 2027 15:14:24.302,11 Jun 2027 15:25:24.330,660.028
117,11 Jun 2027 16:49:41.249,11 Jun 2027 16:58:42.795,541.546
118,11 Jun 2027 18:23:50.093,11 Jun 2027 18:32:31.716,521.623
119,11 Jun 2027 19:57:08.266,11 Jun 2027 20:07:33.199,624.933
120,11 Jun 2027 21:30:57.422,11 Jun 2027 21:43:16.579,739.157
121,11 Jun 2027 23:06:17.682,11 Jun 2027 23:19:11.929,774.247
122,12 Jun 2027 00:43:48.166,12 Jun 2027 00:54:57.875,669.709
123,12 Jun 2027 02:25:00.602,12 Jun 2027 02:29:22.102,261.500
124,12 Jun 2027 10:38:59.337,12 Jun 2027 10:49:36.259,636.922
125,12 Jun 2027 12:14:41.201,12 Jun 2027 12:27:30.326,769.125
126,12 Jun 2027 13:50:36.584,12 Jun 2027 14:03:07.518,750.934
127,12 Jun 2027 15:26:23.235,12 Jun 2027 15:37:07.324,644.089
128,12 Jun 2027 17:01:33.508,12 Jun 2027 17:10:24.798,531.290
129,12 Jun 2027 18:35:32.973,12 Jun 2027 18:44:22.533,529.560
130,12 Jun 2027 20:08:50.420,12 Jun 2027 20:19:31.470,641.049
131,12 Jun 2027 21:42:48.452,12 Jun 2027 21:55:17.641,749.190
132,12 Jun 2027 23:18:22.895,12 Jun 2027 23:31:13.043,770.148
133,13 Jun 2027 00:56:13.110,13 Jun 2027 01:06:55.634,642.525
134,13 Jun 2027 02:38:47.215,13 Jun 2027 02:40:17.389,90.174
135,13 Jun 2027 09:16:39.713,13 Jun 2027 09:20:38.734,239.022
136,13 Jun 2027 10:50:56.919,13 Jun 2027 11:02:01.794,664.875
137,13 Jun 2027 12:26:42.289,13 Jun 2027 12:39:35.933,773.644
138,13 Jun 2027 14:02:37.671,13 Jun 2027 14:14:58.836,741.165
139,13 Jun 2027 15:38:21.617,13 Jun 2027 15:48:49.600,627.983
140,13 Jun 2027 17:13:24.558,13 Jun 2027 17:22:07.517,522.959
141,13 Jun 2027 18:47:15.102,13 Jun 2027 18:56:14.566,539.465
142,13 Jun 2027 20:20:33.272,13 Jun 2027 20:31:30.299,657.027
143,13 Jun 2027 21:54:41.018,13 Jun 2027 22:07:18.830,757.812
144,13 Jun 2027 23:30:30.204,13 Jun 2027 23:43:13.993,763.789
