dataset/area_timing/orbit_05/Russia-To-KinoSat_110508.csv

Acces,Start Time (UTCG),Stop Time (UTCG),Duration (sec)
1,1 Jun 2027 00:19:53.599,1 Jun 2027 00:20:29.932,36.333
2,1 Jun 2027 00:20:58.510,1 Jun 2027 00:23:24.751,146.241
3,1 Jun 2027 01:43:58.134,1 Jun 2027 01:46:29.928,151.794
4,1 Jun 2027 03:19:43.881,1 Jun 2027 03:23:20.309,216.428
5,1 Jun 2027 04:54:41.631,1 Jun 2027 05:01:43.059,421.427
6,1 Jun 2027 06:30:53.731,1 Jun 2027 06:37:20.119,386.388
7,1 Jun 2027 08:08:54.099,1 Jun 2027 08:13:05.796,251.697
8,1 Jun 2027 09:44:35.109,1 Jun 2027 09:48:58.475,263.367
9,1 Jun 2027 09:49:04.749,1 Jun 2027 09:50:01.108,56.359
10,1 Jun 2027 14:51:32.888,1 Jun 2027 14:52:53.459,80.571
11,1 Jun 2027 16:27:19.290,1 Jun 2027 16:30:26.607,187.317
12,1 Jun 2027 18:03:50.547,1 Jun 2027 18:08:58.517,307.969
13,1 Jun 2027 19:39:58.393,1 Jun 2027 19:46:46.887,408.494
14,1 Jun 2027 21:15:26.913,1 Jun 2027 21:22:35.230,428.317
15,1 Jun 2027 22:54:44.973,1 Jun 2027 23:00:10.886,325.913
16,1 Jun 2027 23:00:54.945,1 Jun 2027 23:02:31.773,96.829
17,2 Jun 2027 00:20:44.445,2 Jun 2027 00:21:24.769,40.325
18,2 Jun 2027 00:31:49.100,2 Jun 2027 00:35:15.606,206.506
19,2 Jun 2027 01:54:47.849,2 Jun 2027 01:58:59.127,251.278
20,2 Jun 2027 03:30:19.932,2 Jun 2027 03:30:25.872,5.940
21,2 Jun 2027 03:31:29.479,2 Jun 2027 03:35:56.169,266.690
22,2 Jun 2027 05:06:15.434,2 Jun 2027 05:13:48.325,452.890
23,2 Jun 2027 06:43:14.774,2 Jun 2027 06:49:22.883,368.109
24,2 Jun 2027 08:21:15.792,2 Jun 2027 08:25:12.440,236.649
25,2 Jun 2027 09:54:31.112,2 Jun 2027 10:00:59.889,388.777
26,2 Jun 2027 10:01:16.063,2 Jun 2027 10:02:22.378,66.315
27,2 Jun 2027 15:03:01.113,2 Jun 2027 15:05:24.030,142.918
28,2 Jun 2027 16:39:15.987,2 Jun 2027 16:42:39.647,203.660
29,2 Jun 2027 18:15:58.160,2 Jun 2027 18:22:09.911,371.751
30,2 Jun 2027 19:52:06.533,2 Jun 2027 19:58:45.762,399.229
31,2 Jun 2027 21:28:07.136,2 Jun 2027 21:34:32.543,385.407
32,2 Jun 2027 23:07:06.633,2 Jun 2027 23:14:25.131,438.498
33,3 Jun 2027 00:32:07.727,3 Jun 2027 00:33:37.766,90.039
34,3 Jun 2027 00:43:49.988,3 Jun 2027 00:45:12.974,82.986
35,3 Jun 2027 02:06:04.074,3 Jun 2027 02:07:18.562,74.488
36,3 Jun 2027 02:08:03.934,3 Jun 2027 02:11:12.712,188.778
37,3 Jun 2027 03:41:12.790,3 Jun 2027 03:42:39.829,87.039
38,3 Jun 2027 03:43:12.951,3 Jun 2027 03:48:09.573,296.622
39,3 Jun 2027 03:49:07.630,3 Jun 2027 03:49:15.147,7.516
40,3 Jun 2027 05:18:22.905,3 Jun 2027 05:25:48.992,446.087
41,3 Jun 2027 06:55:20.304,3 Jun 2027 07:01:28.976,368.672
42,3 Jun 2027 08:33:13.347,3 Jun 2027 08:37:15.139,241.792
43,3 Jun 2027 10:06:40.613,3 Jun 2027 10:14:19.973,459.360
44,3 Jun 2027 15:15:00.310,3 Jun 2027 15:17:38.563,158.253
45,3 Jun 2027 16:51:23.691,3 Jun 2027 16:54:46.427,202.736
46,3 Jun 2027 16:56:22.201,3 Jun 2027 16:58:28.371,126.170
47,3 Jun 2027 18:28:13.398,3 Jun 2027 18:34:12.095,358.697
48,3 Jun 2027 20:04:07.632,3 Jun 2027 20:10:52.694,405.063
49,3 Jun 2027 21:40:22.384,3 Jun 2027 21:46:20.107,357.723
50,3 Jun 2027 23:19:23.915,3 Jun 2027 23:26:22.952,419.037
51,4 Jun 2027 00:43:34.256,4 Jun 2027 00:45:49.392,135.136
52,4 Jun 2027 00:55:46.988,4 Jun 2027 00:56:41.333,54.345
53,4 Jun 2027 02:17:49.064,4 Jun 2027 02:19:07.529,78.465
54,4 Jun 2027 02:19:51.961,4 Jun 2027 02:23:24.619,212.658
55,4 Jun 2027 03:52:41.619,4 Jun 2027 04:00:30.902,469.283
56,4 Jun 2027 04:00:55.930,4 Jun 2027 04:01:46.774,50.844
57,4 Jun 2027 05:30:24.185,4 Jun 2027 05:37:50.825,446.640
58,4 Jun 2027 07:07:12.367,4 Jun 2027 07:13:06.509,354.142
59,4 Jun 2027 07:13:15.148,4 Jun 2027 07:13:55.178,40.031
60,4 Jun 2027 08:45:14.058,4 Jun 2027 08:49:24.145,250.087
61,4 Jun 2027 10:19:06.732,4 Jun 2027 10:25:48.467,401.734
62,4 Jun 2027 15:27:04.030,4 Jun 2027 15:29:51.394,167.363
63,4 Jun 2027 17:03:30.678,4 Jun 2027 17:07:25.887,235.209
64,4 Jun 2027 17:08:27.263,4 Jun 2027 17:11:28.290,181.027
65,4 Jun 2027 18:40:03.581,4 Jun 2027 18:46:29.164,385.582
66,4 Jun 2027 20:15:37.122,4 Jun 2027 20:23:21.947,464.825
67,4 Jun 2027 21:52:41.521,4 Jun 2027 21:52:54.882,13.361
68,4 Jun 2027 21:53:08.882,4 Jun 2027 21:53:36.715,27.834
69,4 Jun 2027 21:53:39.022,4 Jun 2027 21:58:40.002,300.980
70,4 Jun 2027 23:31:29.849,4 Jun 2027 23:38:13.173,403.324
71,5 Jun 2027 00:55:38.005,5 Jun 2027 00:57:40.966,122.960
72,5 Jun 2027 02:29:24.517,5 Jun 2027 02:35:28.836,364.320
73,5 Jun 2027 04:05:24.957,5 Jun 2027 04:12:44.341,439.384
74,5 Jun 2027 04:12:54.088,5 Jun 2027 04:13:54.471,60.383
75,5 Jun 2027 05:42:27.441,5 Jun 2027 05:49:48.537,441.097
76,5 Jun 2027 07:19:22.192,5 Jun 2027 07:24:25.689,303.497
77,5 Jun 2027 07:24:37.063,5 Jun 2027 07:25:43.722,66.659
78,5 Jun 2027 08:56:28.504,5 Jun 2027 09:01:22.204,293.700
79,5 Jun 2027 10:31:27.657,5 Jun 2027 10:32:14.132,46.475
80,5 Jun 2027 10:33:10.676,5 Jun 2027 10:36:30.534,199.857
81,5 Jun 2027 15:39:09.100,5 Jun 2027 15:41:37.967,148.867
82,5 Jun 2027 15:41:47.021,5 Jun 2027 15:44:12.671,145.650
83,5 Jun 2027 17:15:24.713,5 Jun 2027 17:20:13.669,288.956
84,5 Jun 2027 17:20:18.263,5 Jun 2027 17:22:16.502,118.239
85,5 Jun 2027 17:22:54.203,5 Jun 2027 17:23:23.662,29.458
86,5 Jun 2027 18:52:03.486,5 Jun 2027 18:58:37.945,394.458
87,5 Jun 2027 20:27:34.923,5 Jun 2027 20:35:17.279,462.356
88,5 Jun 2027 22:05:18.988,5 Jun 2027 22:05:26.609,7.621
89,5 Jun 2027 22:05:40.596,5 Jun 2027 22:06:41.642,61.046
90,5 Jun 2027 22:06:46.499,5 Jun 2027 22:11:52.377,305.878
91,5 Jun 2027 23:44:06.197,5 Jun 2027 23:48:49.237,283.040
92,6 Jun 2027 01:07:32.709,6 Jun 2027 01:09:56.217,143.508
93,6 Jun 2027 02:43:52.064,6 Jun 2027 02:47:20.674,208.610
94,6 Jun 2027 04:17:21.276,6 Jun 2027 04:25:53.683,512.408
95,6 Jun 2027 05:54:53.465,6 Jun 2027 06:01:38.640,405.175
96,6 Jun 2027 07:31:49.486,6 Jun 2027 07:36:15.927,266.441
97,6 Jun 2027 07:36:21.348,6 Jun 2027 07:37:37.064,75.716
98,6 Jun 2027 09:08:40.326,6 Jun 2027 09:13:12.548,272.221
99,6 Jun 2027 10:46:13.667,6 Jun 2027 10:48:17.514,123.846
100,6 Jun 2027 15:51:23.908,6 Jun 2027 15:54:00.374,156.466
101,6 Jun 2027 15:54:37.904,6 Jun 2027 15:56:04.796,86.892
102,6 Jun 2027 17:27:24.263,6 Jun 2027 17:34:03.314,399.050
103,6 Jun 2027 19:04:06.948,6 Jun 2027 19:10:30.243,383.294
104,6 Jun 2027 20:39:37.887,6 Jun 2027 20:47:11.889,454.002
105,6 Jun 2027 22:17:45.595,6 Jun 2027 22:18:13.098,27.503
106,6 Jun 2027 22:18:16.851,6 Jun 2027 22:23:54.784,337.933
107,6 Jun 2027 23:55:46.296,7 Jun 2027 00:00:36.812,290.516
108,7 Jun 2027 01:19:23.651,7 Jun 2027 01:22:05.507,161.855
109,7 Jun 2027 02:55:53.487,7 Jun 2027 02:59:28.201,214.714
110,7 Jun 2027 04:30:00.851,7 Jun 2027 04:36:47.727,406.876
111,7 Jun 2027 04:36:50.396,7 Jun 2027 04:37:48.537,58.141
112,7 Jun 2027 06:06:59.360,7 Jun 2027 06:13:42.892,403.532
113,7 Jun 2027 07:44:37.998,7 Jun 2027 07:49:07.729,269.732
114,7 Jun 2027 09:20:43.520,7 Jun 2027 09:25:31.470,287.950
115,7 Jun 2027 10:59:27.010,7 Jun 2027 10:59:30.167,3.157
116,7 Jun 2027 16:03:32.306,7 Jun 2027 16:05:49.406,137.100
117,7 Jun 2027 17:39:28.037,7 Jun 2027 17:45:53.330,385.292
118,7 Jun 2027 19:16:09.119,7 Jun 2027 19:22:39.299,390.180
119,7 Jun 2027 20:51:42.149,7 Jun 2027 20:59:08.758,446.609
120,7 Jun 2027 22:29:51.362,7 Jun 2027 22:30:54.158,62.797
121,7 Jun 2027 22:31:00.896,7 Jun 2027 22:36:06.793,305.897
122,8 Jun 2027 00:08:59.310,8 Jun 2027 00:12:30.021,210.710
123,8 Jun 2027 01:31:32.878,8 Jun 2027 01:34:38.455,185.577
124,8 Jun 2027 03:08:03.390,8 Jun 2027 03:11:38.423,215.033
125,8 Jun 2027 04:43:13.455,8 Jun 2027 04:49:50.244,396.789
126,8 Jun 2027 06:19:35.465,8 Jun 2027 06:25:49.178,373.713
127,8 Jun 2027 07:56:53.703,8 Jun 2027 08:01:28.974,275.271
128,8 Jun 2027 09:33:05.446,8 Jun 2027 09:37:45.576,280.130
129,8 Jun 2027 14:40:48.820,8 Jun 2027 14:41:00.029,11.209
130,8 Jun 2027 16:15:39.164,8 Jun 2027 16:18:45.642,186.478
131,8 Jun 2027 17:51:33.230,8 Jun 2027 17:57:14.142,340.912
132,8 Jun 2027 19:28:14.696,8 Jun 2027 19:34:23.673,368.976
133,8 Jun 2027 21:03:40.310,8 Jun 2027 21:10:40.954,420.644
134,8 Jun 2027 22:41:55.218,8 Jun 2027 22:42:36.843,41.625
135,8 Jun 2027 22:42:59.021,8 Jun 2027 22:48:01.523,302.502
136,9 Jun 2027 00:20:08.166,9 Jun 2027 00:20:44.510,36.344
137,9 Jun 2027 00:21:13.072,9 Jun 2027 00:23:39.460,146.389
138,9 Jun 2027 01:44:12.658,9 Jun 2027 01:46:44.583,151.925
139,9 Jun 2027 03:19:58.354,9 Jun 2027 03:23:37.721,219.367
140,9 Jun 2027 04:54:55.884,9 Jun 2027 05:01:57.722,421.838
141,9 Jun 2027 06:31:08.249,9 Jun 2027 06:37:35.005,386.756
142,9 Jun 2027 08:09:09.174,9 Jun 2027 08:13:20.261,251.086
143,9 Jun 2027 09:44:49.382,9 Jun 2027 09:49:13.000,263.618
144,9 Jun 2027 09:49:19.377,9 Jun 2027 09:50:15.931,56.554
145,9 Jun 2027 14:51:47.047,9 Jun 2027 14:53:08.299,81.252
146,9 Jun 2027 16:27:33.752,9 Jun 2027 16:30:41.216,187.464
147,9 Jun 2027 18:04:05.151,9 Jun 2027 18:09:13.193,308.042
148,9 Jun 2027 19:40:13.045,9 Jun 2027 19:47:01.288,408.243
149,9 Jun 2027 21:15:41.538,9 Jun 2027 21:22:49.921,428.383
150,9 Jun 2027 22:54:59.658,9 Jun 2027 23:00:38.026,338.369
151,9 Jun 2027 23:01:09.674,9 Jun 2027 23:02:46.212,96.538
152,10 Jun 2027 00:20:58.551,10 Jun 2027 00:21:39.592,41.041
153,10 Jun 2027 00:32:03.666,10 Jun 2027 00:35:30.149,206.483
154,10 Jun 2027 01:55:02.120,10 Jun 2027 01:59:13.983,251.863
155,10 Jun 2027 03:30:34.362,10 Jun 2027 03:30:40.808,6.445
156,10 Jun 2027 03:31:44.069,10 Jun 2027 03:36:10.900,266.830
157,10 Jun 2027 05:06:29.622,10 Jun 2027 05:14:02.910,453.288
158,10 Jun 2027 06:43:29.508,10 Jun 2027 06:49:37.302,367.794
159,10 Jun 2027 08:21:30.608,10 Jun 2027 08:25:27.103,236.495
160,10 Jun 2027 09:54:45.329,10 Jun 2027 10:01:14.569,389.240
161,10 Jun 2027 10:01:30.857,10 Jun 2027 10:02:37.014,66.156
162,10 Jun 2027 15:03:15.669,10 Jun 2027 15:05:39.591,143.922
163,10 Jun 2027 16:39:30.632,10 Jun 2027 16:42:54.179,203.547
164,10 Jun 2027 18:16:13.049,10 Jun 2027 18:22:24.976,371.928
165,10 Jun 2027 19:52:21.283,10 Jun 2027 19:58:59.177,397.894
166,10 Jun 2027 21:28:21.792,10 Jun 2027 21:34:47.239,385.447
167,10 Jun 2027 23:07:21.468,10 Jun 2027 23:14:39.600,438.132
168,11 Jun 2027 00:32:22.202,11 Jun 2027 00:33:52.480,90.279
169,11 Jun 2027 00:44:04.620,11 Jun 2027 00:45:27.199,82.580
170,11 Jun 2027 02:06:18.413,11 Jun 2027 02:07:31.977,73.564
171,11 Jun 2027 02:08:18.806,11 Jun 2027 02:11:27.531,188.725
172,11 Jun 2027 03:41:26.549,11 Jun 2027 03:42:59.000,92.451
173,11 Jun 2027 03:43:27.436,11 Jun 2027 03:48:24.417,296.981
174,11 Jun 2027 03:49:22.149,11 Jun 2027 03:49:30.461,8.313
175,11 Jun 2027 05:18:37.655,11 Jun 2027 05:26:03.629,445.973
176,11 Jun 2027 06:55:34.960,11 Jun 2027 07:01:43.591,368.631
177,11 Jun 2027 08:33:27.977,11 Jun 2027 08:37:29.684,241.706
178,11 Jun 2027 10:06:55.695,11 Jun 2027 10:14:34.558,458.863
179,11 Jun 2027 15:15:15.005,11 Jun 2027 15:17:53.271,158.266
180,11 Jun 2027 16:51:38.436,11 Jun 2027 16:55:01.091,202.655
181,11 Jun 2027 16:56:36.748,11 Jun 2027 16:58:43.742,126.994
182,11 Jun 2027 18:28:28.110,11 Jun 2027 18:34:26.566,358.456
183,11 Jun 2027 20:04:22.140,11 Jun 2027 20:11:07.522,405.382
184,11 Jun 2027 21:40:37.266,11 Jun 2027 21:46:34.740,357.473
185,11 Jun 2027 23:19:39.050,11 Jun 2027 23:26:37.490,418.440
186,12 Jun 2027 00:43:49.093,12 Jun 2027 00:46:04.183,135.090
187,12 Jun 2027 00:56:01.623,12 Jun 2027 00:56:41.405,39.783
188,12 Jun 2027 02:18:03.375,12 Jun 2027 02:19:22.662,79.287
189,12 Jun 2027 02:20:06.437,12 Jun 2027 02:23:39.323,212.886
190,12 Jun 2027 03:52:55.938,12 Jun 2027 04:00:45.621,469.683
191,12 Jun 2027 04:01:10.518,12 Jun 2027 04:02:01.466,50.949
192,12 Jun 2027 05:30:38.917,12 Jun 2027 05:38:05.433,446.516
193,12 Jun 2027 07:07:27.111,12 Jun 2027 07:13:21.054,353.943
194,12 Jun 2027 07:13:29.495,12 Jun 2027 07:14:09.850,40.354
195,12 Jun 2027 08:45:29.162,12 Jun 2027 08:49:38.766,249.604
196,12 Jun 2027 10:19:21.442,12 Jun 2027 10:26:02.913,401.472
197,12 Jun 2027 15:27:18.716,12 Jun 2027 15:30:06.322,167.607
198,12 Jun 2027 17:03:45.201,12 Jun 2027 17:07:40.864,235.663
199,12 Jun 2027 17:08:42.185,12 Jun 2027 17:11:43.103,180.918
200,12 Jun 2027 18:40:18.130,12 Jun 2027 18:46:43.939,385.809
201,12 Jun 2027 20:15:51.692,12 Jun 2027 20:23:36.818,465.127
202,12 Jun 2027 21:52:56.179,12 Jun 2027 21:53:09.513,13.334
203,12 Jun 2027 21:53:23.618,12 Jun 2027 21:53:51.414,27.796
204,12 Jun 2027 21:53:53.582,12 Jun 2027 21:58:54.858,301.277
205,12 Jun 2027 23:31:44.759,12 Jun 2027 23:38:27.816,403.056
206,13 Jun 2027 00:55:52.586,13 Jun 2027 00:57:55.870,123.284
207,13 Jun 2027 02:31:50.091,13 Jun 2027 02:35:43.598,233.507
208,13 Jun 2027 04:05:39.539,13 Jun 2027 04:12:59.026,439.487
209,13 Jun 2027 04:13:08.837,13 Jun 2027 04:14:09.078,60.241
210,13 Jun 2027 05:42:42.217,13 Jun 2027 05:50:03.060,440.843
211,13 Jun 2027 07:19:37.033,13 Jun 2027 07:24:40.234,303.200
212,13 Jun 2027 07:24:51.572,13 Jun 2027 07:25:58.142,66.570
213,13 Jun 2027 08:56:43.108,13 Jun 2027 09:01:36.791,293.683
214,13 Jun 2027 10:31:42.871,13 Jun 2027 10:32:28.683,45.812
215,13 Jun 2027 10:33:24.907,13 Jun 2027 10:36:44.970,200.063
216,13 Jun 2027 15:39:23.740,13 Jun 2027 15:41:44.024,140.284
217,13 Jun 2027 15:42:01.740,13 Jun 2027 15:44:28.325,146.586
218,13 Jun 2027 17:15:39.188,13 Jun 2027 17:20:28.521,289.334
219,13 Jun 2027 17:20:32.853,13 Jun 2027 17:23:36.437,183.584
220,13 Jun 2027 18:52:18.194,13 Jun 2027 18:58:52.705,394.511
221,13 Jun 2027 20:27:49.545,13 Jun 2027 20:35:31.812,462.267
222,13 Jun 2027 22:05:33.739,13 Jun 2027 22:05:41.161,7.422
223,13 Jun 2027 22:05:55.260,13 Jun 2027 22:06:56.162,60.902
224,13 Jun 2027 22:07:01.050,13 Jun 2027 22:12:07.247,306.197
225,13 Jun 2027 23:44:21.070,13 Jun 2027 23:49:04.028,282.959
