dataset/area_timing/orbit_16/Russia-To-KinoSat_111608.csv

Acces,Start Time (UTCG),Stop Time (UTCG),Duration (sec)
1,1 Jun 2027 01:08:04.743,1 Jun 2027 01:14:39.352,394.609
2,1 Jun 2027 02:44:07.661,1 Jun 2027 02:50:15.147,367.486
3,1 Jun 2027 04:23:12.039,1 Jun 2027 04:30:19.049,427.009
4,1 Jun 2027 05:48:01.693,1 Jun 2027 05:49:37.395,95.702
5,1 Jun 2027 05:59:41.574,1 Jun 2027 06:00:41.644,60.071
6,1 Jun 2027 07:21:59.387,1 Jun 2027 07:23:05.724,66.337
7,1 Jun 2027 07:23:53.309,1 Jun 2027 07:27:13.544,200.235
8,1 Jun 2027 08:56:53.815,1 Jun 2027 08:58:54.297,120.482
9,1 Jun 2027 08:59:01.380,1 Jun 2027 09:04:10.113,308.732
10,1 Jun 2027 09:04:56.438,1 Jun 2027 09:05:20.158,23.719
11,1 Jun 2027 10:34:25.515,1 Jun 2027 10:41:45.328,439.813
12,1 Jun 2027 12:11:11.264,1 Jun 2027 12:16:30.066,318.802
13,1 Jun 2027 12:16:30.412,1 Jun 2027 12:17:24.111,53.699
14,1 Jun 2027 12:17:28.171,1 Jun 2027 12:17:44.354,16.183
15,1 Jun 2027 13:49:10.408,1 Jun 2027 13:53:20.923,250.515
16,1 Jun 2027 15:22:47.489,1 Jun 2027 15:30:12.235,444.746
17,1 Jun 2027 20:30:55.899,1 Jun 2027 20:33:47.821,171.922
18,1 Jun 2027 22:07:27.816,1 Jun 2027 22:10:59.881,212.065
19,1 Jun 2027 22:12:10.208,1 Jun 2027 22:15:08.843,178.635
20,1 Jun 2027 23:44:00.947,1 Jun 2027 23:50:15.585,374.638
21,2 Jun 2027 01:19:32.292,2 Jun 2027 01:20:09.542,37.250
22,2 Jun 2027 01:20:20.580,2 Jun 2027 01:27:09.019,408.439
23,2 Jun 2027 02:56:29.727,2 Jun 2027 02:56:53.877,24.150
24,2 Jun 2027 02:57:00.875,2 Jun 2027 02:57:30.785,29.910
25,2 Jun 2027 02:57:36.023,2 Jun 2027 02:58:30.011,53.988
26,2 Jun 2027 02:58:32.301,2 Jun 2027 03:02:29.446,237.145
27,2 Jun 2027 04:35:16.108,2 Jun 2027 04:42:10.954,414.846
28,2 Jun 2027 05:59:35.246,2 Jun 2027 06:01:34.726,119.480
29,2 Jun 2027 06:11:55.818,2 Jun 2027 06:12:15.840,20.022
30,2 Jun 2027 07:33:31.242,2 Jun 2027 07:34:51.410,80.168
31,2 Jun 2027 07:35:39.700,2 Jun 2027 07:39:26.345,226.644
32,2 Jun 2027 09:08:24.465,2 Jun 2027 09:16:29.935,485.470
33,2 Jun 2027 09:16:50.219,2 Jun 2027 09:17:48.208,57.989
34,2 Jun 2027 10:46:20.528,2 Jun 2027 10:53:45.069,444.541
35,2 Jun 2027 12:23:08.111,2 Jun 2027 12:29:48.458,400.347
36,2 Jun 2027 14:00:58.419,2 Jun 2027 14:05:20.444,262.026
37,2 Jun 2027 15:36:57.151,2 Jun 2027 15:41:15.727,258.576
38,2 Jun 2027 20:43:02.906,2 Jun 2027 20:46:14.814,191.909
39,2 Jun 2027 20:46:27.868,2 Jun 2027 20:47:29.039,61.171
40,2 Jun 2027 22:19:23.946,2 Jun 2027 22:23:54.881,270.935
41,2 Jun 2027 22:24:12.131,2 Jun 2027 22:25:59.845,107.714
42,2 Jun 2027 23:55:57.556,3 Jun 2027 00:02:32.849,395.293
43,3 Jun 2027 01:31:30.195,3 Jun 2027 01:39:15.707,465.512
44,3 Jun 2027 03:09:10.954,3 Jun 2027 03:09:24.244,13.291
45,3 Jun 2027 03:09:34.094,3 Jun 2027 03:10:34.976,60.882
46,3 Jun 2027 03:10:44.093,3 Jun 2027 03:11:08.583,24.489
47,3 Jun 2027 03:11:20.420,3 Jun 2027 03:14:46.540,206.121
48,3 Jun 2027 04:47:42.370,3 Jun 2027 04:52:43.915,301.546
49,3 Jun 2027 06:11:31.044,3 Jun 2027 06:13:47.489,136.445
50,3 Jun 2027 07:47:30.752,3 Jun 2027 07:51:24.352,233.601
51,3 Jun 2027 09:21:18.272,3 Jun 2027 09:28:38.449,440.178
52,3 Jun 2027 09:28:41.627,3 Jun 2027 09:29:50.166,68.539
53,3 Jun 2027 10:58:32.848,3 Jun 2027 11:05:46.444,433.596
54,3 Jun 2027 12:35:45.106,3 Jun 2027 12:40:13.859,268.753
55,3 Jun 2027 12:40:24.209,3 Jun 2027 12:41:35.239,71.030
56,3 Jun 2027 14:12:27.992,3 Jun 2027 14:17:17.124,289.132
57,3 Jun 2027 15:47:43.235,3 Jun 2027 15:47:53.160,9.925
58,3 Jun 2027 15:49:25.148,3 Jun 2027 15:52:18.834,173.686
59,3 Jun 2027 20:55:24.355,3 Jun 2027 20:57:48.046,143.690
60,3 Jun 2027 20:58:09.891,3 Jun 2027 21:00:22.150,132.260
61,3 Jun 2027 22:31:18.629,3 Jun 2027 22:38:12.208,413.579
62,4 Jun 2027 00:08:01.893,4 Jun 2027 00:14:27.826,385.933
63,4 Jun 2027 01:43:31.401,4 Jun 2027 01:51:00.074,448.672
64,4 Jun 2027 03:21:45.205,4 Jun 2027 03:22:12.340,27.135
65,4 Jun 2027 03:22:23.197,4 Jun 2027 03:27:53.932,330.735
66,4 Jun 2027 05:00:01.340,4 Jun 2027 05:04:35.594,274.254
67,4 Jun 2027 06:23:23.166,4 Jun 2027 06:25:58.619,155.453
68,4 Jun 2027 07:59:44.795,4 Jun 2027 08:03:15.919,211.124
69,4 Jun 2027 09:32:03.312,4 Jun 2027 09:32:37.520,34.207
70,4 Jun 2027 09:33:49.992,4 Jun 2027 09:40:45.833,415.841
71,4 Jun 2027 09:40:47.972,4 Jun 2027 09:41:49.021,61.049
72,4 Jun 2027 11:10:54.029,4 Jun 2027 11:17:36.134,402.106
73,4 Jun 2027 12:47:51.972,4 Jun 2027 12:52:50.608,298.636
74,4 Jun 2027 14:24:37.628,4 Jun 2027 14:29:10.559,272.931
75,4 Jun 2027 16:02:49.412,4 Jun 2027 16:03:49.799,60.387
76,4 Jun 2027 21:07:26.446,4 Jun 2027 21:09:41.918,135.472
77,4 Jun 2027 22:43:23.185,4 Jun 2027 22:49:55.258,392.072
78,5 Jun 2027 00:20:04.721,5 Jun 2027 00:26:33.117,388.396
79,5 Jun 2027 01:55:38.241,5 Jun 2027 02:03:09.471,451.230
80,5 Jun 2027 03:33:52.246,5 Jun 2027 03:34:53.349,61.103
81,5 Jun 2027 03:34:58.950,5 Jun 2027 03:40:02.116,303.166
82,5 Jun 2027 05:12:53.796,5 Jun 2027 05:16:23.517,209.721
83,5 Jun 2027 06:35:26.617,5 Jun 2027 06:38:04.819,158.203
84,5 Jun 2027 08:11:52.029,5 Jun 2027 08:15:23.968,211.939
85,5 Jun 2027 09:47:00.175,5 Jun 2027 09:52:45.187,345.012
86,5 Jun 2027 09:52:45.677,5 Jun 2027 09:53:48.126,62.449
87,5 Jun 2027 11:23:21.831,5 Jun 2027 11:29:42.496,380.665
88,5 Jun 2027 13:00:53.753,5 Jun 2027 13:05:17.112,263.360
89,5 Jun 2027 14:36:58.070,5 Jun 2027 14:41:10.250,252.179
90,5 Jun 2027 21:19:32.049,5 Jun 2027 21:22:36.532,184.483
91,5 Jun 2027 22:55:27.522,5 Jun 2027 23:01:19.395,351.873
92,6 Jun 2027 00:32:09.985,6 Jun 2027 00:38:20.363,370.379
93,6 Jun 2027 02:07:39.957,6 Jun 2027 02:14:44.679,424.722
94,6 Jun 2027 03:45:49.290,6 Jun 2027 03:46:38.981,49.690
95,6 Jun 2027 03:46:55.992,6 Jun 2027 03:51:56.870,300.877
96,6 Jun 2027 05:24:03.617,6 Jun 2027 05:24:40.799,37.182
97,6 Jun 2027 05:24:53.404,6 Jun 2027 05:27:43.484,170.079
98,6 Jun 2027 06:47:24.287,6 Jun 2027 06:50:38.807,194.520
99,6 Jun 2027 08:24:01.542,6 Jun 2027 08:27:28.592,207.050
100,6 Jun 2027 09:59:11.460,6 Jun 2027 10:05:47.550,396.091
101,6 Jun 2027 11:35:28.979,6 Jun 2027 11:41:15.827,346.848
102,6 Jun 2027 11:41:19.489,6 Jun 2027 11:41:35.296,15.807
103,6 Jun 2027 13:12:59.680,6 Jun 2027 13:17:31.205,271.524
104,6 Jun 2027 14:49:00.701,6 Jun 2027 14:53:12.647,251.946
105,6 Jun 2027 14:53:17.063,6 Jun 2027 14:53:55.839,38.775
106,6 Jun 2027 19:55:56.350,6 Jun 2027 19:56:21.626,25.275
107,6 Jun 2027 21:31:39.701,6 Jun 2027 21:34:36.282,176.580
108,6 Jun 2027 23:07:39.390,6 Jun 2027 23:13:06.194,326.804
109,7 Jun 2027 00:44:08.094,7 Jun 2027 00:50:21.226,373.132
110,7 Jun 2027 02:19:37.029,7 Jun 2027 02:26:33.357,416.327
111,7 Jun 2027 03:58:54.833,7 Jun 2027 04:04:08.858,314.026
112,7 Jun 2027 04:05:11.766,7 Jun 2027 04:06:45.453,93.687
113,7 Jun 2027 05:25:15.733,7 Jun 2027 05:25:24.153,8.420
114,7 Jun 2027 05:36:00.860,7 Jun 2027 05:36:42.998,42.138
115,7 Jun 2027 05:36:48.743,7 Jun 2027 05:39:37.435,168.692
116,7 Jun 2027 07:00:00.586,7 Jun 2027 07:02:42.951,162.365
117,7 Jun 2027 08:35:45.440,7 Jun 2027 08:39:58.705,253.265
118,7 Jun 2027 10:10:37.308,7 Jun 2027 10:17:56.924,439.616
119,7 Jun 2027 11:47:12.223,7 Jun 2027 11:53:35.744,383.521
120,7 Jun 2027 13:25:30.046,7 Jun 2027 13:29:24.334,234.287
121,7 Jun 2027 14:59:30.043,7 Jun 2027 15:00:16.407,46.363
122,7 Jun 2027 15:00:49.993,7 Jun 2027 15:04:59.806,249.813
123,7 Jun 2027 15:05:19.589,7 Jun 2027 15:06:18.522,58.933
124,7 Jun 2027 20:07:13.855,7 Jun 2027 20:09:22.745,128.890
125,7 Jun 2027 21:43:26.820,7 Jun 2027 21:46:49.335,202.515
126,7 Jun 2027 23:20:03.560,7 Jun 2027 23:26:00.848,357.288
127,8 Jun 2027 00:56:15.375,8 Jun 2027 01:03:01.390,406.014
128,8 Jun 2027 02:32:17.884,8 Jun 2027 02:38:44.697,386.813
129,8 Jun 2027 04:11:15.446,8 Jun 2027 04:18:39.703,444.257
130,8 Jun 2027 05:36:32.880,8 Jun 2027 05:37:45.682,72.802
131,8 Jun 2027 05:47:59.222,8 Jun 2027 05:49:27.692,88.470
132,8 Jun 2027 07:10:38.625,8 Jun 2027 07:11:37.571,58.946
133,8 Jun 2027 07:12:14.256,8 Jun 2027 07:15:17.433,183.177
134,8 Jun 2027 08:45:59.734,8 Jun 2027 08:46:56.639,56.906
135,8 Jun 2027 08:47:30.837,8 Jun 2027 08:52:14.407,283.570
136,8 Jun 2027 10:22:27.799,8 Jun 2027 10:29:58.082,450.282
137,8 Jun 2027 11:59:33.756,8 Jun 2027 12:05:35.648,361.891
138,8 Jun 2027 13:37:27.692,8 Jun 2027 13:41:26.139,238.448
139,8 Jun 2027 15:10:35.516,8 Jun 2027 15:16:58.330,382.814
140,8 Jun 2027 15:17:21.857,8 Jun 2027 15:18:34.363,72.507
141,8 Jun 2027 20:19:11.734,8 Jun 2027 20:21:52.857,161.122
142,8 Jun 2027 21:55:32.439,8 Jun 2027 21:58:56.243,203.804
143,8 Jun 2027 22:01:13.170,8 Jun 2027 22:02:04.978,51.808
144,8 Jun 2027 23:32:06.192,8 Jun 2027 23:38:20.165,373.973
145,9 Jun 2027 01:08:21.810,9 Jun 2027 01:14:57.399,395.589
146,9 Jun 2027 02:44:25.229,9 Jun 2027 02:50:31.738,366.508
147,9 Jun 2027 04:23:29.648,9 Jun 2027 04:30:35.329,425.681
148,9 Jun 2027 05:47:46.878,9 Jun 2027 05:49:54.967,128.089
149,9 Jun 2027 05:59:58.522,9 Jun 2027 06:00:56.938,58.416
150,9 Jun 2027 07:22:14.981,9 Jun 2027 07:23:21.751,66.770
151,9 Jun 2027 07:24:10.460,9 Jun 2027 07:27:31.384,200.924
152,9 Jun 2027 08:57:08.785,9 Jun 2027 08:59:11.180,122.395
153,9 Jun 2027 08:59:17.635,9 Jun 2027 09:04:27.748,310.113
154,9 Jun 2027 09:05:12.599,9 Jun 2027 09:05:37.449,24.849
155,9 Jun 2027 10:34:42.271,9 Jun 2027 10:42:02.283,440.012
156,9 Jun 2027 12:11:24.762,9 Jun 2027 12:16:40.706,315.944
157,9 Jun 2027 12:16:40.960,9 Jun 2027 12:17:40.229,59.270
158,9 Jun 2027 12:17:44.103,9 Jun 2027 12:18:01.732,17.628
159,9 Jun 2027 13:49:27.862,9 Jun 2027 13:53:37.536,249.674
160,9 Jun 2027 15:23:04.897,9 Jun 2027 15:30:28.879,443.982
161,9 Jun 2027 20:31:14.136,9 Jun 2027 20:34:08.091,173.955
162,9 Jun 2027 22:07:44.878,9 Jun 2027 22:11:19.094,214.216
163,9 Jun 2027 22:12:27.911,9 Jun 2027 22:15:28.107,180.195
164,9 Jun 2027 23:44:17.532,9 Jun 2027 23:50:36.263,378.731
165,10 Jun 2027 01:19:49.027,10 Jun 2027 01:20:28.339,39.313
166,10 Jun 2027 01:20:38.515,10 Jun 2027 01:27:26.428,407.913
167,10 Jun 2027 02:56:52.546,10 Jun 2027 02:57:10.451,17.905
168,10 Jun 2027 02:57:18.088,10 Jun 2027 02:57:47.795,29.707
169,10 Jun 2027 02:57:52.671,10 Jun 2027 02:58:46.757,54.086
170,10 Jun 2027 02:58:48.905,10 Jun 2027 03:02:47.573,238.668
171,10 Jun 2027 04:35:34.697,10 Jun 2027 04:42:27.585,412.888
172,10 Jun 2027 05:59:52.294,10 Jun 2027 06:01:45.890,113.596
173,10 Jun 2027 06:12:14.357,10 Jun 2027 06:12:31.350,16.993
174,10 Jun 2027 07:33:44.556,10 Jun 2027 07:35:07.770,83.214
175,10 Jun 2027 07:35:43.868,10 Jun 2027 07:39:44.062,240.194
176,10 Jun 2027 09:08:39.510,10 Jun 2027 09:16:47.106,487.597
177,10 Jun 2027 09:17:07.204,10 Jun 2027 09:18:05.432,58.228
178,10 Jun 2027 10:46:36.423,10 Jun 2027 10:54:02.912,446.490
179,10 Jun 2027 12:23:28.295,10 Jun 2027 12:29:04.621,336.326
180,10 Jun 2027 12:29:13.804,10 Jun 2027 12:30:04.604,50.801
181,10 Jun 2027 14:01:14.715,10 Jun 2027 14:05:36.692,261.978
182,10 Jun 2027 15:37:14.100,10 Jun 2027 15:41:29.306,255.206
183,10 Jun 2027 20:43:20.207,10 Jun 2027 20:47:49.434,269.228
184,10 Jun 2027 22:19:41.324,10 Jun 2027 22:24:14.607,273.283
185,10 Jun 2027 22:24:29.412,10 Jun 2027 22:26:20.181,110.769
186,10 Jun 2027 22:27:05.977,10 Jun 2027 22:27:42.306,36.328
187,10 Jun 2027 23:56:14.907,11 Jun 2027 00:02:49.936,395.029
188,11 Jun 2027 01:31:47.091,11 Jun 2027 01:39:32.536,465.445
189,11 Jun 2027 03:09:28.488,11 Jun 2027 03:09:41.001,12.513
190,11 Jun 2027 03:09:51.513,11 Jun 2027 03:10:52.027,60.514
191,11 Jun 2027 03:10:59.960,11 Jun 2027 03:11:35.008,35.048
192,11 Jun 2027 03:11:37.409,11 Jun 2027 03:15:04.993,207.584
193,11 Jun 2027 04:47:59.407,11 Jun 2027 04:52:59.361,299.954
194,11 Jun 2027 06:11:48.798,11 Jun 2027 06:14:04.070,135.271
195,11 Jun 2027 07:47:47.849,11 Jun 2027 07:51:40.570,232.721
196,11 Jun 2027 09:21:33.518,11 Jun 2027 09:28:56.442,442.925
197,11 Jun 2027 09:28:58.312,11 Jun 2027 09:30:06.948,68.636
198,11 Jun 2027 10:58:57.035,11 Jun 2027 11:06:02.680,425.646
199,11 Jun 2027 12:36:01.319,11 Jun 2027 12:40:30.531,269.212
200,11 Jun 2027 12:40:39.877,11 Jun 2027 12:41:51.918,72.041
201,11 Jun 2027 14:12:45.735,11 Jun 2027 14:17:34.083,288.349
202,11 Jun 2027 15:48:01.983,11 Jun 2027 15:48:10.503,8.520
203,11 Jun 2027 15:49:42.703,11 Jun 2027 15:52:34.878,172.175
204,11 Jun 2027 20:55:40.702,11 Jun 2027 20:58:09.560,148.857
205,11 Jun 2027 20:58:31.874,11 Jun 2027 21:00:32.786,120.911
206,11 Jun 2027 22:31:35.608,11 Jun 2027 22:38:26.956,411.348
207,12 Jun 2027 00:08:18.544,12 Jun 2027 00:14:44.246,385.703
208,12 Jun 2027 01:43:48.708,12 Jun 2027 01:51:17.316,448.608
209,12 Jun 2027 03:22:01.552,12 Jun 2027 03:22:28.172,26.621
210,12 Jun 2027 03:22:39.207,12 Jun 2027 03:28:11.062,331.856
211,12 Jun 2027 05:00:18.064,12 Jun 2027 05:04:51.312,273.248
212,12 Jun 2027 06:23:40.247,12 Jun 2027 06:26:15.263,155.017
213,12 Jun 2027 08:00:02.396,12 Jun 2027 08:03:34.719,212.322
214,12 Jun 2027 09:34:06.426,12 Jun 2027 09:41:01.103,414.677
215,12 Jun 2027 09:41:04.424,12 Jun 2027 09:42:05.870,61.447
216,12 Jun 2027 11:11:11.015,12 Jun 2027 11:17:53.507,402.492
217,12 Jun 2027 12:48:07.004,12 Jun 2027 12:53:06.715,299.710
218,12 Jun 2027 14:24:53.576,12 Jun 2027 14:29:34.433,280.857
219,12 Jun 2027 16:03:05.716,12 Jun 2027 16:04:04.251,58.535
220,12 Jun 2027 21:07:43.536,12 Jun 2027 21:09:59.433,135.896
221,12 Jun 2027 22:43:40.261,12 Jun 2027 22:50:12.423,392.162
222,13 Jun 2027 00:20:22.009,13 Jun 2027 00:26:51.118,389.109
223,13 Jun 2027 01:55:54.734,13 Jun 2027 02:03:29.604,454.870
224,13 Jun 2027 03:34:07.818,13 Jun 2027 03:35:09.256,61.438
225,13 Jun 2027 03:35:15.404,13 Jun 2027 03:40:21.303,305.899
226,13 Jun 2027 05:13:11.298,13 Jun 2027 05:16:45.084,213.786
227,13 Jun 2027 06:35:44.008,13 Jun 2027 06:38:22.703,158.695
228,13 Jun 2027 08:12:13.190,13 Jun 2027 08:15:41.587,208.397
229,13 Jun 2027 09:47:18.189,13 Jun 2027 09:54:05.829,407.639
230,13 Jun 2027 11:23:40.254,13 Jun 2027 11:29:59.862,379.608
231,13 Jun 2027 13:01:10.424,13 Jun 2027 13:05:35.364,264.939
232,13 Jun 2027 14:37:15.161,13 Jun 2027 14:41:29.373,254.211
233,13 Jun 2027 21:19:50.285,13 Jun 2027 21:22:52.591,182.306
234,13 Jun 2027 22:55:44.984,13 Jun 2027 23:01:32.482,347.498
