dataset/area_work/orbit_7/ZorkySat_110701.csv

Acces,Start Time (UTCG),Stop Time (UTCG),Duration (sec)
1,1 Jun 2027 04:18:17.478,1 Jun 2027 04:21:49.516,212.038
2,1 Jun 2027 05:53:27.386,1 Jun 2027 06:00:04.064,396.678
3,1 Jun 2027 07:29:52.621,1 Jun 2027 07:36:00.653,368.032
4,1 Jun 2027 09:07:07.156,1 Jun 2027 09:11:43.995,276.839
5,1 Jun 2027 10:43:21.900,1 Jun 2027 10:48:04.015,282.115
6,2 Jun 2027 04:30:10.377,2 Jun 2027 04:34:12.407,242.030
7,2 Jun 2027 06:05:06.950,2 Jun 2027 06:12:12.407,425.456
8,2 Jun 2027 07:41:24.998,2 Jun 2027 07:47:49.882,384.884
9,2 Jun 2027 09:19:40.866,2 Jun 2027 09:23:32.987,232.121
10,2 Jun 2027 10:55:00.873,2 Jun 2027 10:59:11.889,251.016
11,2 Jun 2027 10:59:33.181,2 Jun 2027 11:00:31.687,58.506
12,3 Jun 2027 03:04:55.630,3 Jun 2027 03:09:30.069,274.438
13,3 Jun 2027 04:40:29.083,3 Jun 2027 04:41:02.367,33.284
14,3 Jun 2027 04:41:54.246,3 Jun 2027 04:46:27.716,273.471
15,3 Jun 2027 06:16:40.100,3 Jun 2027 06:24:14.727,454.627
16,3 Jun 2027 07:53:44.292,3 Jun 2027 08:00:06.906,382.614
17,3 Jun 2027 09:31:43.493,3 Jun 2027 09:35:39.045,235.552
18,3 Jun 2027 11:04:52.817,3 Jun 2027 11:11:07.083,374.266
19,3 Jun 2027 11:11:11.631,3 Jun 2027 11:12:48.756,97.124
20,4 Jun 2027 03:16:31.437,4 Jun 2027 03:17:42.364,70.926
21,4 Jun 2027 03:18:32.193,4 Jun 2027 03:21:43.621,191.428
22,4 Jun 2027 04:51:35.961,4 Jun 2027 04:53:19.039,103.078
23,4 Jun 2027 04:53:38.846,4 Jun 2027 04:58:39.915,301.069
24,4 Jun 2027 04:59:30.439,4 Jun 2027 04:59:51.699,21.259
25,4 Jun 2027 06:28:56.862,4 Jun 2027 06:36:17.376,440.514
26,4 Jun 2027 08:05:46.038,4 Jun 2027 08:12:13.668,387.631
27,4 Jun 2027 09:43:42.941,4 Jun 2027 09:47:42.088,239.147
28,4 Jun 2027 11:17:19.408,4 Jun 2027 11:24:47.799,448.391
29,5 Jun 2027 03:28:15.694,5 Jun 2027 03:29:30.631,74.937
30,5 Jun 2027 03:30:18.219,5 Jun 2027 03:33:54.457,216.238
31,5 Jun 2027 05:03:04.160,5 Jun 2027 05:11:00.739,476.579
32,5 Jun 2027 05:11:23.061,5 Jun 2027 05:12:05.448,42.387
33,5 Jun 2027 06:40:52.673,5 Jun 2027 06:48:18.313,445.640
34,5 Jun 2027 08:17:37.181,5 Jun 2027 08:23:32.822,355.641
35,5 Jun 2027 08:23:38.247,5 Jun 2027 08:24:23.004,44.757
36,5 Jun 2027 09:55:44.492,5 Jun 2027 09:59:52.112,247.620
37,5 Jun 2027 11:29:35.569,5 Jun 2027 11:35:56.327,380.758
38,6 Jun 2027 03:42:01.487,6 Jun 2027 03:45:57.830,236.343
39,6 Jun 2027 05:15:52.450,6 Jun 2027 05:23:11.387,438.937
40,6 Jun 2027 05:23:22.268,6 Jun 2027 05:24:22.366,60.098
41,6 Jun 2027 06:52:59.076,6 Jun 2027 07:00:18.235,439.159
42,6 Jun 2027 08:30:01.260,6 Jun 2027 08:34:51.737,290.476
43,6 Jun 2027 08:34:58.647,6 Jun 2027 08:36:09.104,70.457
44,6 Jun 2027 10:06:58.473,6 Jun 2027 10:11:50.082,291.608
45,6 Jun 2027 11:42:02.310,6 Jun 2027 11:42:31.102,28.792
46,6 Jun 2027 11:43:40.455,6 Jun 2027 11:46:55.611,195.156
47,7 Jun 2027 03:54:23.136,7 Jun 2027 03:57:49.027,205.891
48,7 Jun 2027 05:27:50.891,7 Jun 2027 05:35:19.163,448.273
49,7 Jun 2027 05:35:20.322,7 Jun 2027 05:36:21.406,61.085
50,7 Jun 2027 07:05:24.810,7 Jun 2027 07:12:07.057,402.247
51,7 Jun 2027 08:42:18.704,7 Jun 2027 08:46:42.953,264.250
52,7 Jun 2027 08:46:45.507,7 Jun 2027 08:47:54.422,68.915
53,7 Jun 2027 10:19:12.438,7 Jun 2027 10:23:40.723,268.285
54,7 Jun 2027 11:56:51.968,7 Jun 2027 11:58:29.435,97.466
55,8 Jun 2027 04:06:24.554,8 Jun 2027 04:09:56.389,211.834
56,8 Jun 2027 05:41:19.568,8 Jun 2027 05:47:15.435,355.867
57,8 Jun 2027 05:47:19.054,8 Jun 2027 05:48:17.676,58.622
58,8 Jun 2027 07:17:32.180,8 Jun 2027 07:24:12.514,400.333
59,8 Jun 2027 08:55:15.348,8 Jun 2027 08:59:40.226,264.878
60,8 Jun 2027 10:31:21.654,8 Jun 2027 10:35:43.864,262.211
61,9 Jun 2027 04:18:32.165,9 Jun 2027 04:22:04.019,211.853
62,9 Jun 2027 05:53:42.177,9 Jun 2027 06:00:18.791,396.614
63,9 Jun 2027 07:30:07.673,9 Jun 2027 07:36:14.967,367.294
64,9 Jun 2027 09:07:22.136,9 Jun 2027 09:11:58.908,276.772
65,9 Jun 2027 10:43:36.641,9 Jun 2027 10:48:18.623,281.982
66,10 Jun 2027 04:30:25.116,10 Jun 2027 04:34:27.396,242.281
67,10 Jun 2027 06:05:21.283,10 Jun 2027 06:12:27.245,425.963
68,10 Jun 2027 07:41:39.932,10 Jun 2027 07:48:04.691,384.759
69,10 Jun 2027 09:19:55.390,10 Jun 2027 09:23:48.117,232.727
70,10 Jun 2027 10:55:15.528,10 Jun 2027 10:59:26.865,251.336
71,10 Jun 2027 10:59:47.942,10 Jun 2027 11:00:46.539,58.597
72,11 Jun 2027 03:05:45.334,11 Jun 2027 03:09:45.062,239.728
73,11 Jun 2027 04:40:43.781,11 Jun 2027 04:41:17.418,33.637
74,11 Jun 2027 04:42:08.966,11 Jun 2027 04:46:42.551,273.585
75,11 Jun 2027 06:16:54.607,11 Jun 2027 06:24:29.245,454.638
76,11 Jun 2027 07:53:59.189,11 Jun 2027 08:00:21.802,382.613
77,11 Jun 2027 09:31:58.318,11 Jun 2027 09:35:53.413,235.095
78,11 Jun 2027 11:05:07.330,11 Jun 2027 11:11:21.697,374.367
79,11 Jun 2027 11:11:26.520,11 Jun 2027 11:13:03.331,96.811
80,12 Jun 2027 03:16:46.147,12 Jun 2027 03:17:56.864,70.717
81,12 Jun 2027 03:18:46.890,12 Jun 2027 03:21:58.514,191.624
82,12 Jun 2027 04:51:50.368,12 Jun 2027 04:53:33.615,103.247
83,12 Jun 2027 04:53:53.421,12 Jun 2027 04:58:54.813,301.392
84,12 Jun 2027 04:59:45.012,12 Jun 2027 05:00:06.545,21.533
85,12 Jun 2027 06:29:12.123,12 Jun 2027 06:36:32.163,440.040
86,12 Jun 2027 08:06:00.806,12 Jun 2027 08:12:28.806,388.000
87,12 Jun 2027 09:43:57.870,12 Jun 2027 09:47:56.898,239.028
88,12 Jun 2027 11:17:34.652,12 Jun 2027 11:25:02.394,447.742
89,13 Jun 2027 03:28:30.194,13 Jun 2027 03:29:44.397,74.203
90,13 Jun 2027 03:30:32.806,13 Jun 2027 03:34:09.458,216.652
91,13 Jun 2027 05:03:18.565,13 Jun 2027 05:11:15.626,477.061
92,13 Jun 2027 05:11:37.668,13 Jun 2027 05:12:20.356,42.688
93,13 Jun 2027 06:41:07.383,13 Jun 2027 06:48:32.972,445.589
94,13 Jun 2027 08:17:51.764,13 Jun 2027 08:23:47.305,355.541
95,13 Jun 2027 08:23:52.493,13 Jun 2027 08:24:37.556,45.064
96,13 Jun 2027 09:55:59.427,13 Jun 2027 10:00:06.565,247.138
97,13 Jun 2027 11:29:50.461,13 Jun 2027 11:36:08.317,377.856
