dataset/facility_timing/facility_Facility-Moscow/Moscow-To-KinoSat_110103.csv

Acces,Start Time (UTCG),Stop Time (UTCG),Duration (sec)
1,1 Jun 2027 04:29:36.269,1 Jun 2027 04:34:30.165,293.895
2,1 Jun 2027 06:00:42.363,1 Jun 2027 06:11:30.213,647.851
3,1 Jun 2027 07:34:49.424,1 Jun 2027 07:47:42.532,773.108
4,1 Jun 2027 09:12:02.503,1 Jun 2027 09:23:11.383,668.880
5,1 Jun 2027 19:12:48.819,1 Jun 2027 19:22:17.941,569.122
6,1 Jun 2027 20:47:52.005,1 Jun 2027 21:00:42.036,770.031
7,1 Jun 2027 22:23:54.397,1 Jun 2027 22:35:40.290,705.893
8,2 Jun 2027 00:00:33.087,2 Jun 2027 00:07:45.738,432.651
9,2 Jun 2027 04:40:47.996,2 Jun 2027 04:46:46.212,358.216
10,2 Jun 2027 06:12:20.812,2 Jun 2027 06:23:35.366,674.554
11,2 Jun 2027 07:46:49.343,2 Jun 2027 07:59:43.592,774.249
12,2 Jun 2027 09:24:30.699,2 Jun 2027 09:35:03.064,632.365
13,2 Jun 2027 19:24:36.571,2 Jun 2027 19:34:53.688,617.117
14,2 Jun 2027 20:59:52.150,2 Jun 2027 21:12:45.933,773.782
15,2 Jun 2027 22:35:58.852,2 Jun 2027 22:47:22.360,683.509
16,3 Jun 2027 00:12:44.837,3 Jun 2027 00:19:04.210,379.373
17,3 Jun 2027 04:52:04.930,3 Jun 2027 04:58:58.842,413.912
18,3 Jun 2027 06:24:01.918,3 Jun 2027 06:35:40.002,698.085
19,3 Jun 2027 07:58:52.159,3 Jun 2027 08:11:43.994,771.835
20,3 Jun 2027 09:37:04.247,3 Jun 2027 09:46:52.040,587.794
21,3 Jun 2027 19:36:27.347,3 Jun 2027 19:47:23.741,656.394
22,3 Jun 2027 21:11:52.977,3 Jun 2027 21:24:46.901,773.925
23,3 Jun 2027 22:48:03.816,3 Jun 2027 22:59:01.777,657.961
24,4 Jun 2027 00:24:59.431,4 Jun 2027 00:30:18.036,318.605
25,4 Jun 2027 05:03:25.856,4 Jun 2027 05:11:09.334,463.479
26,4 Jun 2027 06:35:45.663,4 Jun 2027 06:47:44.147,718.484
27,4 Jun 2027 08:10:57.970,4 Jun 2027 08:23:43.659,765.689
28,4 Jun 2027 09:49:44.235,4 Jun 2027 09:58:37.291,533.056
29,4 Jun 2027 19:48:20.407,4 Jun 2027 19:59:48.928,688.521
30,4 Jun 2027 21:23:54.415,4 Jun 2027 21:36:45.030,770.615
31,4 Jun 2027 23:00:09.317,4 Jun 2027 23:10:38.538,629.220
32,5 Jun 2027 00:37:19.085,5 Jun 2027 00:41:25.090,246.005
33,5 Jun 2027 05:14:50.187,5 Jun 2027 05:23:18.346,508.158
34,5 Jun 2027 06:47:32.048,5 Jun 2027 06:59:47.823,735.775
35,5 Jun 2027 08:23:06.906,5 Jun 2027 08:35:42.495,755.589
36,5 Jun 2027 10:02:32.538,5 Jun 2027 10:10:17.063,464.525
37,5 Jun 2027 18:27:23.710,5 Jun 2027 18:30:11.020,167.310
38,5 Jun 2027 20:00:15.259,5 Jun 2027 20:12:09.818,714.558
39,5 Jun 2027 21:35:56.424,5 Jun 2027 21:48:40.385,763.962
40,5 Jun 2027 23:12:15.414,5 Jun 2027 23:22:12.587,597.173
41,6 Jun 2027 00:49:51.285,6 Jun 2027 00:52:17.980,146.694
42,6 Jun 2027 05:26:17.604,6 Jun 2027 05:35:26.249,548.644
43,6 Jun 2027 06:59:21.083,6 Jun 2027 07:11:51.014,749.930
44,6 Jun 2027 08:35:19.136,6 Jun 2027 08:47:40.373,741.237
45,6 Jun 2027 10:15:32.973,6 Jun 2027 10:21:47.644,374.672
46,6 Jun 2027 18:38:17.022,6 Jun 2027 18:43:52.883,335.861
47,6 Jun 2027 20:12:11.561,6 Jun 2027 20:24:26.813,735.252
48,6 Jun 2027 21:47:58.949,6 Jun 2027 22:00:33.024,754.075
49,6 Jun 2027 23:24:22.189,6 Jun 2027 23:33:43.876,561.687
50,7 Jun 2027 04:08:05.998,7 Jun 2027 04:09:39.017,93.019
51,7 Jun 2027 05:37:47.928,7 Jun 2027 05:47:33.285,585.357
52,7 Jun 2027 07:11:12.792,7 Jun 2027 07:23:53.714,760.922
53,7 Jun 2027 08:47:34.864,7 Jun 2027 08:59:37.113,722.250
54,7 Jun 2027 10:28:56.959,7 Jun 2027 10:32:57.743,240.783
55,7 Jun 2027 18:49:42.675,7 Jun 2027 18:56:59.289,436.614
56,7 Jun 2027 20:24:09.065,7 Jun 2027 20:36:40.217,751.153
57,7 Jun 2027 22:00:01.980,7 Jun 2027 22:12:22.976,740.996
58,7 Jun 2027 23:36:29.780,7 Jun 2027 23:45:12.308,522.529
59,8 Jun 2027 04:18:46.595,8 Jun 2027 04:22:22.971,216.376
60,8 Jun 2027 05:49:21.044,8 Jun 2027 05:59:39.600,618.556
61,8 Jun 2027 07:23:07.210,8 Jun 2027 07:35:55.902,768.692
62,8 Jun 2027 08:59:54.370,8 Jun 2027 09:11:32.503,698.133
63,8 Jun 2027 19:01:19.860,8 Jun 2027 19:09:51.172,511.312
64,8 Jun 2027 20:36:07.585,8 Jun 2027 20:48:50.266,762.681
65,8 Jun 2027 22:12:05.486,8 Jun 2027 22:24:10.267,724.781
66,8 Jun 2027 23:48:38.386,8 Jun 2027 23:56:37.723,479.338
67,9 Jun 2027 04:29:50.222,9 Jun 2027 04:34:45.477,295.255
68,9 Jun 2027 06:00:56.873,9 Jun 2027 06:11:45.294,648.420
69,9 Jun 2027 07:35:04.374,9 Jun 2027 07:47:57.547,773.173
70,9 Jun 2027 09:12:18.018,9 Jun 2027 09:23:26.231,668.213
71,9 Jun 2027 19:13:03.485,9 Jun 2027 19:22:33.754,570.269
72,9 Jun 2027 20:48:06.980,9 Jun 2027 21:00:57.132,770.152
73,9 Jun 2027 22:24:09.477,9 Jun 2027 22:35:54.917,705.440
74,10 Jun 2027 00:00:48.327,10 Jun 2027 00:07:59.864,431.537
75,10 Jun 2027 04:41:02.069,10 Jun 2027 04:47:01.445,359.376
76,10 Jun 2027 06:12:35.382,10 Jun 2027 06:23:50.439,675.057
77,10 Jun 2027 07:47:04.355,10 Jun 2027 07:59:58.592,774.237
78,10 Jun 2027 09:24:46.316,10 Jun 2027 09:35:17.869,631.554
79,10 Jun 2027 19:24:51.315,10 Jun 2027 19:35:09.365,618.050
80,10 Jun 2027 21:00:07.142,10 Jun 2027 21:13:00.966,773.824
81,10 Jun 2027 22:36:13.944,10 Jun 2027 22:47:36.932,682.988
82,11 Jun 2027 00:13:00.130,11 Jun 2027 00:19:18.245,378.115
83,11 Jun 2027 04:52:19.087,11 Jun 2027 04:59:14.030,414.943
84,11 Jun 2027 06:24:16.540,11 Jun 2027 06:35:55.067,698.527
85,11 Jun 2027 07:59:07.232,11 Jun 2027 08:11:58.981,771.750
86,11 Jun 2027 09:37:19.984,11 Jun 2027 09:47:06.778,586.794
87,11 Jun 2027 19:36:42.148,11 Jun 2027 19:47:39.306,657.158
88,11 Jun 2027 21:12:07.984,11 Jun 2027 21:25:01.874,773.890
89,11 Jun 2027 22:48:18.921,11 Jun 2027 22:59:16.293,657.371
90,12 Jun 2027 00:25:14.807,12 Jun 2027 00:30:31.950,317.143
91,12 Jun 2027 05:03:40.082,12 Jun 2027 05:11:24.493,464.411
92,12 Jun 2027 06:36:00.340,12 Jun 2027 06:47:59.205,718.865
93,12 Jun 2027 08:11:13.106,12 Jun 2027 08:23:58.631,765.525
94,12 Jun 2027 09:50:00.120,12 Jun 2027 09:58:51.939,531.819
95,12 Jun 2027 19:48:35.254,12 Jun 2027 20:00:04.397,689.143
96,12 Jun 2027 21:24:09.436,12 Jun 2027 21:36:59.943,770.507
97,12 Jun 2027 23:00:24.436,12 Jun 2027 23:10:52.996,628.560
98,13 Jun 2027 00:37:34.625,13 Jun 2027 00:41:38.806,244.181
99,13 Jun 2027 05:15:04.477,13 Jun 2027 05:23:33.483,509.007
100,13 Jun 2027 06:47:46.779,13 Jun 2027 07:00:02.873,736.094
101,13 Jun 2027 08:23:22.109,13 Jun 2027 08:35:57.450,755.341
102,13 Jun 2027 10:02:48.624,13 Jun 2027 10:10:31.571,462.947
103,13 Jun 2027 18:27:36.283,13 Jun 2027 18:30:29.174,172.891
104,13 Jun 2027 20:00:30.143,13 Jun 2027 20:12:25.201,715.058
105,13 Jun 2027 21:36:11.456,13 Jun 2027 21:48:55.241,763.786
106,13 Jun 2027 23:12:30.548,13 Jun 2027 23:22:26.987,596.440
