dataset/facility_timing/facility_Facility-Moscow/Moscow-To-KinoSat_110902.csv

Acces,Start Time (UTCG),Stop Time (UTCG),Duration (sec)
1,1 Jun 2027 00:57:38.213,1 Jun 2027 01:09:50.556,732.343
2,1 Jun 2027 02:33:24.674,1 Jun 2027 02:46:00.509,755.834
3,1 Jun 2027 04:09:47.230,1 Jun 2027 04:19:14.707,567.476
4,1 Jun 2027 08:53:54.287,1 Jun 2027 08:54:48.704,54.416
5,1 Jun 2027 10:23:18.524,1 Jun 2027 10:32:58.402,579.878
6,1 Jun 2027 11:56:40.064,1 Jun 2027 12:09:19.487,759.423
7,1 Jun 2027 13:32:58.322,1 Jun 2027 13:45:03.856,725.534
8,1 Jun 2027 15:14:07.261,1 Jun 2027 15:18:34.217,266.957
9,1 Jun 2027 23:35:13.251,1 Jun 2027 23:42:16.230,422.979
10,2 Jun 2027 01:09:35.546,2 Jun 2027 01:22:04.505,748.959
11,2 Jun 2027 02:45:27.630,2 Jun 2027 02:57:50.881,743.251
12,2 Jun 2027 04:21:54.676,2 Jun 2027 04:30:43.600,528.924
13,2 Jun 2027 09:04:22.725,2 Jun 2027 09:07:44.592,201.868
14,2 Jun 2027 10:34:51.207,2 Jun 2027 10:45:04.833,613.625
15,2 Jun 2027 12:08:34.055,2 Jun 2027 12:21:21.756,767.701
16,2 Jun 2027 13:45:17.229,2 Jun 2027 13:56:59.468,702.239
17,2 Jun 2027 23:46:49.102,2 Jun 2027 23:55:09.913,500.810
18,3 Jun 2027 01:21:33.921,3 Jun 2027 01:34:15.070,761.150
19,3 Jun 2027 02:57:31.061,3 Jun 2027 03:09:38.588,727.527
20,3 Jun 2027 04:34:03.102,3 Jun 2027 04:42:09.514,486.412
21,3 Jun 2027 09:15:24.457,3 Jun 2027 09:20:08.746,284.289
22,3 Jun 2027 10:46:26.617,3 Jun 2027 10:57:10.624,644.007
23,3 Jun 2027 12:20:30.793,3 Jun 2027 12:33:23.491,772.698
24,3 Jun 2027 13:57:40.207,3 Jun 2027 14:08:53.481,673.273
25,3 Jun 2027 23:58:31.913,4 Jun 2027 00:07:53.757,561.844
26,4 Jun 2027 01:33:33.189,4 Jun 2027 01:46:22.425,769.236
27,4 Jun 2027 03:09:34.975,4 Jun 2027 03:21:23.656,708.681
28,4 Jun 2027 04:46:12.795,4 Jun 2027 04:53:32.197,439.402
29,4 Jun 2027 09:26:35.308,4 Jun 2027 09:32:25.444,350.136
30,4 Jun 2027 10:58:04.711,4 Jun 2027 11:09:15.851,671.140
31,4 Jun 2027 12:32:30.334,4 Jun 2027 12:45:24.633,774.299
32,4 Jun 2027 14:10:07.750,4 Jun 2027 14:20:45.472,637.722
33,5 Jun 2027 00:10:19.184,5 Jun 2027 00:20:30.361,611.178
34,5 Jun 2027 01:45:33.238,5 Jun 2027 01:58:26.728,773.490
35,5 Jun 2027 03:21:39.365,5 Jun 2027 03:33:06.087,686.723
36,5 Jun 2027 04:58:24.245,5 Jun 2027 05:04:51.223,386.979
37,5 Jun 2027 09:37:51.624,5 Jun 2027 09:44:38.450,406.826
38,5 Jun 2027 11:09:45.459,5 Jun 2027 11:21:20.560,695.101
39,5 Jun 2027 12:44:32.757,5 Jun 2027 12:57:25.124,772.367
40,5 Jun 2027 14:22:40.530,5 Jun 2027 14:32:34.852,594.323
41,6 Jun 2027 00:22:09.607,6 Jun 2027 00:33:01.129,651.523
42,6 Jun 2027 01:57:33.978,6 Jun 2027 02:10:28.089,774.111
43,6 Jun 2027 03:33:44.256,6 Jun 2027 03:44:45.867,661.612
44,6 Jun 2027 05:10:38.353,6 Jun 2027 05:16:05.780,327.427
45,6 Jun 2027 09:49:12.051,6 Jun 2027 09:56:49.191,457.141
46,6 Jun 2027 11:21:28.849,6 Jun 2027 11:33:24.777,715.929
47,6 Jun 2027 12:56:38.160,6 Jun 2027 13:09:24.898,766.738
48,6 Jun 2027 14:35:19.569,6 Jun 2027 14:44:20.681,541.112
49,7 Jun 2027 00:34:02.396,7 Jun 2027 00:45:26.938,684.543
50,7 Jun 2027 02:09:35.340,7 Jun 2027 02:22:26.600,771.261
51,7 Jun 2027 03:45:49.681,7 Jun 2027 03:56:22.991,633.310
52,7 Jun 2027 05:22:57.072,7 Jun 2027 05:27:13.991,256.919
53,7 Jun 2027 10:00:35.943,7 Jun 2027 10:08:58.383,502.440
54,7 Jun 2027 11:33:14.878,7 Jun 2027 11:45:28.516,733.638
55,7 Jun 2027 13:08:46.674,7 Jun 2027 13:21:23.852,757.178
56,7 Jun 2027 14:48:06.612,7 Jun 2027 14:56:01.327,474.715
57,7 Jun 2027 23:13:22.883,7 Jun 2027 23:15:29.188,126.306
58,8 Jun 2027 00:45:57.032,8 Jun 2027 00:57:48.385,711.353
59,8 Jun 2027 02:21:37.273,8 Jun 2027 02:34:22.330,765.057
60,8 Jun 2027 03:57:55.686,8 Jun 2027 04:07:57.420,601.735
61,8 Jun 2027 05:35:26.445,8 Jun 2027 05:38:09.921,163.476
62,8 Jun 2027 10:12:02.959,8 Jun 2027 10:21:06.428,543.468
63,8 Jun 2027 11:45:03.557,8 Jun 2027 11:57:31.773,748.216
64,8 Jun 2027 13:20:58.450,8 Jun 2027 13:33:21.861,743.411
65,8 Jun 2027 15:01:05.066,8 Jun 2027 15:07:33.491,388.425
66,8 Jun 2027 23:24:04.396,8 Jun 2027 23:29:23.288,318.892
67,9 Jun 2027 00:57:53.156,9 Jun 2027 01:10:05.887,732.731
68,9 Jun 2027 02:33:39.734,9 Jun 2027 02:46:15.336,755.603
69,9 Jun 2027 04:10:02.357,9 Jun 2027 04:19:29.091,566.734
70,9 Jun 2027 08:54:05.217,9 Jun 2027 08:55:07.003,61.786
71,9 Jun 2027 10:23:32.896,9 Jun 2027 10:33:13.570,580.675
72,9 Jun 2027 11:56:54.905,9 Jun 2027 12:09:34.543,759.637
73,9 Jun 2027 13:33:13.694,9 Jun 2027 13:45:18.767,725.074
74,9 Jun 2027 15:14:24.409,9 Jun 2027 15:18:47.812,263.403
75,9 Jun 2027 23:35:27.675,9 Jun 2027 23:42:32.486,424.811
76,10 Jun 2027 01:09:50.511,10 Jun 2027 01:22:19.764,749.253
77,10 Jun 2027 02:45:42.694,10 Jun 2027 02:58:05.652,742.958
78,10 Jun 2027 04:22:09.820,10 Jun 2027 04:30:57.927,528.107
79,10 Jun 2027 09:04:36.233,10 Jun 2027 09:08:00.342,204.108
80,10 Jun 2027 10:35:05.640,10 Jun 2027 10:45:19.983,614.343
81,10 Jun 2027 12:08:48.956,10 Jun 2027 12:21:36.803,767.847
82,10 Jun 2027 13:45:32.684,10 Jun 2027 13:57:14.345,701.661
83,10 Jun 2027 23:47:03.707,10 Jun 2027 23:55:25.922,502.214
84,11 Jun 2027 01:21:48.904,11 Jun 2027 01:34:30.259,761.355
85,11 Jun 2027 02:57:46.132,11 Jun 2027 03:09:53.302,727.170
86,11 Jun 2027 04:34:18.264,11 Jun 2027 04:42:23.777,485.514
87,11 Jun 2027 09:15:38.272,11 Jun 2027 09:20:24.224,285.952
88,11 Jun 2027 10:46:41.109,11 Jun 2027 10:57:25.758,644.649
89,11 Jun 2027 12:20:45.752,11 Jun 2027 12:33:38.522,772.769
90,11 Jun 2027 13:57:55.756,11 Jun 2027 14:09:08.315,672.559
91,11 Jun 2027 23:58:46.627,12 Jun 2027 00:08:09.593,562.966
92,12 Jun 2027 01:33:48.187,12 Jun 2027 01:46:37.547,769.360
93,12 Jun 2027 03:09:50.054,12 Jun 2027 03:21:38.315,708.261
94,12 Jun 2027 04:46:27.982,12 Jun 2027 04:53:46.393,438.411
95,12 Jun 2027 09:26:49.277,12 Jun 2027 09:32:40.804,351.528
96,12 Jun 2027 10:58:19.260,12 Jun 2027 11:09:30.971,671.711
97,12 Jun 2027 12:32:45.354,12 Jun 2027 12:45:39.648,774.294
98,12 Jun 2027 14:10:23.405,12 Jun 2027 14:21:00.252,636.847
99,13 Jun 2027 00:10:33.972,13 Jun 2027 00:20:46.063,612.091
100,13 Jun 2027 01:45:48.248,13 Jun 2027 01:58:41.786,773.537
101,13 Jun 2027 03:21:54.450,13 Jun 2027 03:33:20.691,686.241
102,13 Jun 2027 04:58:39.466,13 Jun 2027 05:05:05.342,385.876
103,13 Jun 2027 09:38:05.697,13 Jun 2027 09:44:53.742,408.046
104,13 Jun 2027 11:10:00.066,13 Jun 2027 11:21:35.666,695.601
105,13 Jun 2027 12:44:47.840,13 Jun 2027 12:57:40.122,772.281
106,13 Jun 2027 14:22:56.308,13 Jun 2027 14:32:49.563,593.255
