dataset/facility_timing/facility_Facility-Moscow/Moscow-To-KinoSat_110503.csv

Acces,Start Time (UTCG),Stop Time (UTCG),Duration (sec)
1,1 Jun 2027 01:04:58.832,1 Jun 2027 01:16:39.398,700.566
2,1 Jun 2027 02:41:38.881,1 Jun 2027 02:48:39.124,420.243
3,1 Jun 2027 07:21:39.107,1 Jun 2027 07:27:53.890,374.783
4,1 Jun 2027 08:53:18.901,1 Jun 2027 09:04:40.260,681.358
5,1 Jun 2027 10:27:53.247,1 Jun 2027 10:40:47.173,773.926
6,1 Jun 2027 12:05:42.567,1 Jun 2027 12:16:03.599,621.032
7,1 Jun 2027 22:05:37.609,1 Jun 2027 22:16:05.345,627.736
8,1 Jun 2027 23:40:55.751,1 Jun 2027 23:53:49.887,774.136
9,2 Jun 2027 01:17:03.332,2 Jun 2027 01:28:20.771,677.439
10,2 Jun 2027 02:53:51.078,2 Jun 2027 02:59:56.614,365.536
11,2 Jun 2027 07:32:57.278,2 Jun 2027 07:40:05.700,428.422
12,2 Jun 2027 09:05:00.699,2 Jun 2027 09:16:44.683,703.984
13,2 Jun 2027 10:39:56.804,2 Jun 2027 10:52:47.319,770.515
14,2 Jun 2027 12:18:17.640,2 Jun 2027 12:27:51.621,573.981
15,2 Jun 2027 22:17:28.963,2 Jun 2027 22:28:34.013,665.051
16,2 Jun 2027 23:52:56.673,3 Jun 2027 00:05:50.068,773.394
17,3 Jun 2027 01:29:08.343,3 Jun 2027 01:39:59.501,651.158
18,3 Jun 2027 03:06:06.443,3 Jun 2027 03:11:09.154,302.711
19,3 Jun 2027 07:44:19.208,3 Jun 2027 07:52:15.626,476.418
20,3 Jun 2027 09:16:45.122,3 Jun 2027 09:28:48.629,723.507
21,3 Jun 2027 10:52:03.380,3 Jun 2027 11:04:46.703,763.323
22,3 Jun 2027 12:30:59.542,3 Jun 2027 12:39:35.545,516.003
23,3 Jun 2027 22:29:22.453,3 Jun 2027 22:40:57.986,695.533
24,4 Jun 2027 00:04:58.189,4 Jun 2027 00:17:47.438,769.249
25,4 Jun 2027 01:41:13.903,4 Jun 2027 01:51:35.574,621.671
26,4 Jun 2027 03:18:27.757,4 Jun 2027 03:22:14.065,226.308
27,4 Jun 2027 07:55:44.422,4 Jun 2027 08:04:24.204,519.781
28,4 Jun 2027 09:28:32.182,4 Jun 2027 09:40:52.103,739.921
29,4 Jun 2027 11:04:13.108,4 Jun 2027 11:16:45.229,752.120
30,4 Jun 2027 12:43:50.505,4 Jun 2027 12:51:13.272,442.766
31,4 Jun 2027 21:08:04.097,4 Jun 2027 21:11:46.842,222.744
32,4 Jun 2027 22:41:17.639,4 Jun 2027 22:53:17.783,720.144
33,5 Jun 2027 00:17:00.258,5 Jun 2027 00:29:42.059,761.802
34,5 Jun 2027 01:53:20.067,5 Jun 2027 02:03:08.938,588.871
35,5 Jun 2027 03:31:06.374,5 Jun 2027 03:33:00.086,113.712
36,5 Jun 2027 08:07:12.648,5 Jun 2027 08:16:31.756,559.108
37,5 Jun 2027 09:40:21.890,5 Jun 2027 09:52:55.095,753.205
38,5 Jun 2027 11:16:26.176,5 Jun 2027 11:28:42.756,736.580
39,5 Jun 2027 12:56:55.371,5 Jun 2027 13:02:40.058,344.688
40,5 Jun 2027 21:19:10.486,5 Jun 2027 21:25:14.662,364.176
41,5 Jun 2027 22:53:14.194,5 Jun 2027 23:05:33.779,739.585
42,6 Jun 2027 00:29:02.842,6 Jun 2027 00:41:33.980,751.138
43,6 Jun 2027 02:05:26.937,6 Jun 2027 02:14:39.534,552.597
44,6 Jun 2027 06:48:41.567,6 Jun 2027 06:51:00.686,139.119
45,6 Jun 2027 08:18:43.728,6 Jun 2027 08:28:38.500,594.772
46,6 Jun 2027 09:52:14.271,6 Jun 2027 10:04:57.588,763.317
47,6 Jun 2027 11:28:42.808,6 Jun 2027 11:40:39.093,716.285
48,6 Jun 2027 13:10:32.083,6 Jun 2027 13:13:38.107,186.024
49,6 Jun 2027 21:30:39.755,6 Jun 2027 21:38:16.533,456.778
50,6 Jun 2027 23:05:11.901,6 Jun 2027 23:17:46.257,754.356
51,7 Jun 2027 00:41:05.921,7 Jun 2027 00:53:23.232,737.311
52,7 Jun 2027 02:17:34.653,7 Jun 2027 02:26:07.260,512.607
53,7 Jun 2027 06:59:33.107,7 Jun 2027 07:03:34.044,240.937
54,7 Jun 2027 08:30:17.564,7 Jun 2027 08:40:44.554,626.990
55,7 Jun 2027 10:04:09.362,7 Jun 2027 10:16:59.564,770.202
56,7 Jun 2027 11:41:03.297,7 Jun 2027 11:52:34.010,690.714
57,7 Jun 2027 21:42:18.777,7 Jun 2027 21:51:05.697,526.920
58,7 Jun 2027 23:17:10.584,7 Jun 2027 23:29:55.434,764.849
59,8 Jun 2027 00:53:09.469,8 Jun 2027 01:05:09.834,720.365
60,8 Jun 2027 02:29:43.429,8 Jun 2027 02:37:31.928,468.500
61,8 Jun 2027 07:10:39.680,8 Jun 2027 07:15:53.976,314.296
62,8 Jun 2027 08:41:54.095,8 Jun 2027 08:52:50.014,655.919
63,8 Jun 2027 10:16:07.212,8 Jun 2027 10:29:00.987,773.774
64,8 Jun 2027 11:53:28.032,8 Jun 2027 12:04:27.167,659.136
65,8 Jun 2027 21:54:03.522,8 Jun 2027 22:03:46.306,582.784
66,8 Jun 2027 23:29:10.110,8 Jun 2027 23:42:01.475,771.365
67,9 Jun 2027 01:05:13.500,9 Jun 2027 01:16:53.806,700.306
68,9 Jun 2027 02:41:53.626,9 Jun 2027 02:48:53.261,419.634
69,9 Jun 2027 07:21:53.192,9 Jun 2027 07:28:08.670,375.479
70,9 Jun 2027 08:53:33.284,9 Jun 2027 09:04:54.935,681.651
71,9 Jun 2027 10:28:07.890,9 Jun 2027 10:41:01.797,773.907
72,9 Jun 2027 12:05:57.573,9 Jun 2027 12:16:18.090,620.517
73,9 Jun 2027 22:05:52.111,9 Jun 2027 22:16:20.335,628.224
74,9 Jun 2027 23:41:10.376,9 Jun 2027 23:54:04.523,774.148
75,10 Jun 2027 01:17:18.005,10 Jun 2027 01:28:35.151,677.146
76,10 Jun 2027 02:54:05.851,10 Jun 2027 03:00:10.701,364.850
77,10 Jun 2027 07:33:11.412,10 Jun 2027 07:40:20.453,429.040
78,10 Jun 2027 09:05:15.112,10 Jun 2027 09:16:59.352,704.240
79,10 Jun 2027 10:40:11.483,10 Jun 2027 10:53:01.933,770.450
80,10 Jun 2027 12:18:32.719,10 Jun 2027 12:28:06.068,573.349
81,10 Jun 2027 22:17:43.493,10 Jun 2027 22:28:48.943,665.450
82,10 Jun 2027 23:53:11.306,11 Jun 2027 00:06:04.670,773.364
83,11 Jun 2027 01:29:23.021,11 Jun 2027 01:40:13.849,650.829
84,11 Jun 2027 03:06:21.260,11 Jun 2027 03:11:23.175,301.914
85,11 Jun 2027 07:44:33.383,11 Jun 2027 07:52:30.360,476.976
86,11 Jun 2027 09:16:59.567,11 Jun 2027 09:29:03.292,723.725
87,11 Jun 2027 10:52:18.095,11 Jun 2027 11:05:01.306,763.211
88,11 Jun 2027 12:31:14.714,11 Jun 2027 12:39:49.931,515.216
89,11 Jun 2027 22:29:37.006,11 Jun 2027 22:41:12.863,695.857
90,12 Jun 2027 00:05:12.827,12 Jun 2027 00:18:02.007,769.180
91,12 Jun 2027 01:41:28.588,12 Jun 2027 01:51:49.891,621.303
92,12 Jun 2027 03:18:42.670,12 Jun 2027 03:22:27.969,225.299
93,12 Jun 2027 07:55:58.635,12 Jun 2027 08:04:38.923,520.288
94,12 Jun 2027 09:28:46.658,12 Jun 2027 09:41:06.760,740.101
95,12 Jun 2027 11:04:27.862,12 Jun 2027 11:16:59.820,751.957
96,12 Jun 2027 12:44:05.810,12 Jun 2027 12:51:27.559,441.749
97,12 Jun 2027 21:08:17.794,12 Jun 2027 21:12:02.812,225.018
98,12 Jun 2027 22:41:32.210,12 Jun 2027 22:53:32.612,720.402
99,13 Jun 2027 00:17:14.901,13 Jun 2027 00:29:56.595,761.694
100,13 Jun 2027 01:53:34.755,13 Jun 2027 02:03:23.223,588.467
101,13 Jun 2027 03:31:21.708,13 Jun 2027 03:33:13.549,111.841
102,13 Jun 2027 08:07:26.895,13 Jun 2027 08:16:46.465,559.570
103,13 Jun 2027 09:40:36.398,13 Jun 2027 09:53:09.745,753.348
104,13 Jun 2027 11:16:40.971,13 Jun 2027 11:28:57.333,736.361
105,13 Jun 2027 12:57:10.902,13 Jun 2027 13:02:54.158,343.256
106,13 Jun 2027 21:19:24.661,13 Jun 2027 21:25:30.116,365.456
107,13 Jun 2027 22:53:28.780,13 Jun 2027 23:05:48.564,739.785
