dataset/facility_timing/facility_Facility-Moscow/Moscow-To-KinoSat_110808.csv

Acces,Start Time (UTCG),Stop Time (UTCG),Duration (sec)
1,1 Jun 2027 00:04:21.518,1 Jun 2027 00:15:46.230,684.712
2,1 Jun 2027 01:39:54.446,1 Jun 2027 01:52:45.677,771.231
3,1 Jun 2027 03:16:08.734,1 Jun 2027 03:26:41.913,633.179
4,1 Jun 2027 04:53:15.993,1 Jun 2027 04:57:32.891,256.897
5,1 Jun 2027 09:30:54.557,1 Jun 2027 09:39:17.715,503.158
6,1 Jun 2027 11:03:33.812,1 Jun 2027 11:15:47.678,733.867
7,1 Jun 2027 12:39:05.871,1 Jun 2027 12:51:42.882,757.012
8,1 Jun 2027 14:18:26.330,1 Jun 2027 14:26:19.995,473.665
9,1 Jun 2027 22:43:41.279,1 Jun 2027 22:45:49.382,128.103
10,2 Jun 2027 00:16:16.136,2 Jun 2027 00:28:07.613,711.477
11,2 Jun 2027 01:51:56.354,2 Jun 2027 02:04:41.365,765.011
12,2 Jun 2027 03:28:14.711,2 Jun 2027 03:38:16.322,601.611
13,2 Jun 2027 05:05:45.264,2 Jun 2027 05:08:28.886,163.622
14,2 Jun 2027 09:42:21.620,2 Jun 2027 09:51:25.703,544.083
15,2 Jun 2027 11:15:22.508,2 Jun 2027 11:27:50.899,748.390
16,2 Jun 2027 12:51:17.663,2 Jun 2027 13:03:40.853,743.190
17,2 Jun 2027 14:31:24.925,2 Jun 2027 14:37:51.986,387.061
18,2 Jun 2027 22:54:23.341,2 Jun 2027 22:59:42.841,319.500
19,3 Jun 2027 00:28:12.242,3 Jun 2027 00:40:25.060,732.818
20,3 Jun 2027 02:03:58.789,3 Jun 2027 02:16:34.335,755.546
21,3 Jun 2027 03:40:21.349,3 Jun 2027 03:49:47.976,566.627
22,3 Jun 2027 08:24:21.258,3 Jun 2027 08:25:28.764,67.506
23,3 Jun 2027 09:53:51.599,3 Jun 2027 10:03:32.796,581.196
24,3 Jun 2027 11:27:13.872,3 Jun 2027 11:39:53.632,759.760
25,3 Jun 2027 13:03:32.918,3 Jun 2027 13:15:37.717,724.800
26,3 Jun 2027 14:44:44.630,3 Jun 2027 14:49:05.912,261.282
27,3 Jun 2027 23:05:46.690,3 Jun 2027 23:12:51.882,425.192
28,4 Jun 2027 00:40:09.576,4 Jun 2027 00:52:38.885,749.309
29,4 Jun 2027 02:16:01.722,4 Jun 2027 02:28:24.618,742.896
30,4 Jun 2027 03:52:28.777,4 Jun 2027 04:01:16.801,528.024
31,4 Jun 2027 08:34:54.250,4 Jun 2027 08:38:20.119,205.868
32,4 Jun 2027 10:05:24.376,4 Jun 2027 10:15:39.163,614.786
33,4 Jun 2027 11:39:07.934,4 Jun 2027 11:51:55.857,767.923
34,4 Jun 2027 13:15:51.920,4 Jun 2027 13:27:33.252,701.332
35,4 Jun 2027 23:17:22.739,4 Jun 2027 23:25:45.216,502.477
36,5 Jun 2027 00:52:07.946,5 Jun 2027 01:04:49.334,761.387
37,5 Jun 2027 02:28:05.133,5 Jun 2027 02:40:12.240,727.107
38,5 Jun 2027 04:04:37.184,5 Jun 2027 04:12:42.645,485.461
39,5 Jun 2027 08:45:56.559,5 Jun 2027 08:50:43.723,287.164
40,5 Jun 2027 10:16:59.872,5 Jun 2027 10:27:44.895,645.023
41,5 Jun 2027 11:51:04.740,5 Jun 2027 12:03:57.541,772.800
42,5 Jun 2027 13:28:15.004,5 Jun 2027 13:39:27.177,672.173
43,5 Jun 2027 23:29:05.657,5 Jun 2027 23:38:28.809,563.152
44,6 Jun 2027 01:04:07.206,6 Jun 2027 01:16:56.579,769.373
45,6 Jun 2027 02:40:09.027,6 Jun 2027 02:51:57.227,708.200
46,6 Jun 2027 04:16:46.861,6 Jun 2027 04:24:05.261,438.399
47,6 Jun 2027 08:57:07.695,6 Jun 2027 09:03:00.161,352.465
48,6 Jun 2027 10:28:38.046,6 Jun 2027 10:39:50.068,672.022
49,6 Jun 2027 12:03:04.349,6 Jun 2027 12:15:58.632,774.283
50,6 Jun 2027 13:40:42.667,6 Jun 2027 13:51:19.065,636.398
51,6 Jun 2027 23:40:52.990,6 Jun 2027 23:51:05.212,612.222
52,7 Jun 2027 01:16:07.243,7 Jun 2027 01:29:00.779,773.537
53,7 Jun 2027 02:52:13.393,7 Jun 2027 03:03:39.581,686.188
54,7 Jun 2027 04:28:58.299,7 Jun 2027 04:35:24.218,385.918
55,7 Jun 2027 09:08:24.199,7 Jun 2027 09:15:13.003,408.805
56,7 Jun 2027 10:40:18.869,7 Jun 2027 10:51:54.725,695.856
57,7 Jun 2027 12:15:06.839,7 Jun 2027 12:27:59.072,772.232
58,7 Jun 2027 13:53:15.587,7 Jun 2027 14:03:08.321,592.733
59,7 Jun 2027 23:52:43.450,8 Jun 2027 00:03:35.810,652.361
60,8 Jun 2027 01:28:07.968,8 Jun 2027 01:41:02.044,774.075
61,8 Jun 2027 03:04:18.261,8 Jun 2027 03:15:19.287,661.026
62,8 Jun 2027 04:41:12.409,8 Jun 2027 04:46:38.696,326.287
63,8 Jun 2027 09:19:44.771,8 Jun 2027 09:27:23.627,458.856
64,8 Jun 2027 10:52:02.330,8 Jun 2027 11:03:58.889,716.559
65,8 Jun 2027 12:27:12.310,8 Jun 2027 12:39:58.791,766.481
66,8 Jun 2027 14:05:54.808,8 Jun 2027 14:14:53.986,539.179
67,9 Jun 2027 00:04:36.260,9 Jun 2027 00:16:01.470,685.210
68,9 Jun 2027 01:40:09.314,9 Jun 2027 01:53:00.462,771.148
69,9 Jun 2027 03:16:23.663,9 Jun 2027 03:26:56.340,632.678
70,9 Jun 2027 04:53:31.163,9 Jun 2027 04:57:46.804,255.640
71,9 Jun 2027 09:31:08.781,9 Jun 2027 09:39:32.725,503.944
72,9 Jun 2027 11:03:48.426,9 Jun 2027 11:16:02.583,734.157
73,9 Jun 2027 12:39:20.892,9 Jun 2027 12:51:57.688,756.796
74,9 Jun 2027 14:18:42.096,9 Jun 2027 14:26:34.403,472.307
75,9 Jun 2027 22:43:53.601,9 Jun 2027 22:46:07.397,133.795
76,10 Jun 2027 00:16:30.906,10 Jun 2027 00:28:22.783,711.877
77,10 Jun 2027 01:52:11.230,10 Jun 2027 02:04:56.106,764.876
78,10 Jun 2027 03:28:29.643,10 Jun 2027 03:38:30.703,601.060
79,10 Jun 2027 05:06:00.715,10 Jun 2027 05:08:42.490,161.775
80,10 Jun 2027 09:42:35.897,10 Jun 2027 09:51:40.693,544.796
81,10 Jun 2027 11:15:37.170,10 Jun 2027 11:28:05.793,748.623
82,10 Jun 2027 12:51:32.739,10 Jun 2027 13:03:55.638,742.899
83,10 Jun 2027 14:31:40.951,10 Jun 2027 14:38:06.184,385.233
84,10 Jun 2027 22:54:37.408,10 Jun 2027 22:59:59.052,321.645
85,11 Jun 2027 00:28:27.032,11 Jun 2027 00:40:40.166,733.133
86,11 Jun 2027 02:04:13.667,11 Jun 2027 02:16:49.029,755.362
87,11 Jun 2027 03:40:36.290,11 Jun 2027 03:50:02.311,566.021
88,11 Jun 2027 08:24:33.273,11 Jun 2027 08:25:45.795,72.521
89,11 Jun 2027 09:54:05.925,11 Jun 2027 10:03:47.768,581.844
90,11 Jun 2027 11:27:28.580,11 Jun 2027 11:40:08.515,759.935
91,11 Jun 2027 13:03:48.057,11 Jun 2027 13:15:52.479,724.422
92,11 Jun 2027 14:45:01.250,11 Jun 2027 14:49:19.567,258.318
93,11 Jun 2027 23:06:01.063,11 Jun 2027 23:13:07.730,426.667
94,12 Jun 2027 00:40:24.384,12 Jun 2027 00:52:53.930,749.546
95,12 Jun 2027 02:16:16.609,12 Jun 2027 02:28:39.266,742.657
96,12 Jun 2027 03:52:43.728,12 Jun 2027 04:01:31.088,527.360
97,12 Jun 2027 08:35:07.885,12 Jun 2027 08:38:35.554,207.669
98,12 Jun 2027 10:05:38.751,12 Jun 2027 10:15:54.120,615.370
99,12 Jun 2027 11:39:22.690,12 Jun 2027 11:52:10.728,768.038
100,12 Jun 2027 13:16:07.128,12 Jun 2027 13:27:47.985,700.857
101,12 Jun 2027 23:17:37.258,12 Jun 2027 23:26:00.866,503.608
102,13 Jun 2027 00:52:22.768,13 Jun 2027 01:05:04.321,761.553
103,13 Jun 2027 02:28:20.026,13 Jun 2027 02:40:26.843,726.817
104,13 Jun 2027 04:04:52.148,13 Jun 2027 04:12:56.882,484.734
105,13 Jun 2027 08:46:10.432,13 Jun 2027 08:50:58.947,288.516
106,13 Jun 2027 10:17:14.295,13 Jun 2027 10:27:59.841,645.546
107,13 Jun 2027 11:51:19.544,13 Jun 2027 12:04:12.401,772.857
108,13 Jun 2027 13:28:30.288,13 Jun 2027 13:39:41.875,671.587
109,13 Jun 2027 23:29:20.264,13 Jun 2027 23:38:44.320,564.056
