dataset/facility_timing/facility_Facility-Moscow/Moscow-To-KinoSat_110810.csv

Acces,Start Time (UTCG),Stop Time (UTCG),Duration (sec)
1,1 Jun 2027 01:20:43.572,1 Jun 2027 01:33:37.742,774.170
2,1 Jun 2027 02:56:51.349,1 Jun 2027 03:08:08.183,676.835
3,1 Jun 2027 04:33:39.518,1 Jun 2027 04:39:43.343,363.825
4,1 Jun 2027 09:12:44.690,1 Jun 2027 09:19:53.424,428.734
5,1 Jun 2027 10:44:48.306,1 Jun 2027 10:56:32.509,704.203
6,1 Jun 2027 12:19:44.724,1 Jun 2027 12:32:35.190,770.466
7,1 Jun 2027 13:58:06.027,1 Jun 2027 14:07:39.429,573.403
8,1 Jun 2027 23:57:16.545,2 Jun 2027 00:08:22.399,665.854
9,2 Jun 2027 01:32:44.549,2 Jun 2027 01:45:37.894,773.345
10,2 Jun 2027 03:08:56.418,2 Jun 2027 03:19:46.866,650.449
11,2 Jun 2027 04:45:55.091,2 Jun 2027 04:50:55.680,300.589
12,2 Jun 2027 09:24:06.634,2 Jun 2027 09:32:03.402,476.768
13,2 Jun 2027 10:56:32.782,2 Jun 2027 11:08:36.494,723.712
14,2 Jun 2027 12:31:51.377,2 Jun 2027 12:44:34.602,763.225
15,2 Jun 2027 14:10:48.087,2 Jun 2027 14:19:23.325,515.237
16,3 Jun 2027 00:09:10.117,3 Jun 2027 00:20:46.322,696.205
17,3 Jun 2027 01:44:46.118,3 Jun 2027 01:57:35.233,769.116
18,3 Jun 2027 03:21:02.040,3 Jun 2027 03:31:22.886,620.846
19,3 Jun 2027 04:58:16.786,3 Jun 2027 05:02:00.210,223.423
20,3 Jun 2027 09:35:31.872,3 Jun 2027 09:44:12.031,520.159
21,3 Jun 2027 11:08:19.899,3 Jun 2027 11:20:40.006,740.107
22,3 Jun 2027 12:44:01.192,3 Jun 2027 12:56:33.153,751.961
23,3 Jun 2027 14:23:39.259,3 Jun 2027 14:31:00.979,441.720
24,3 Jun 2027 22:47:49.866,3 Jun 2027 22:51:37.454,227.588
25,4 Jun 2027 00:21:05.377,4 Jun 2027 00:33:06.074,720.697
26,4 Jun 2027 01:56:48.240,4 Jun 2027 02:09:29.820,761.580
27,4 Jun 2027 03:33:08.268,4 Jun 2027 03:42:56.190,587.922
28,4 Jun 2027 05:10:56.894,4 Jun 2027 05:12:44.738,107.845
29,4 Jun 2027 09:47:00.130,4 Jun 2027 09:56:19.631,559.501
30,4 Jun 2027 11:20:09.669,4 Jun 2027 11:32:43.034,753.365
31,4 Jun 2027 12:56:14.353,4 Jun 2027 13:08:30.701,736.348
32,4 Jun 2027 14:36:44.449,4 Jun 2027 14:42:27.588,343.139
33,4 Jun 2027 22:58:57.291,4 Jun 2027 23:05:04.267,366.976
34,5 Jun 2027 00:33:02.000,5 Jun 2027 00:45:22.028,740.028
35,5 Jun 2027 02:08:50.877,5 Jun 2027 02:21:21.703,750.826
36,5 Jun 2027 03:45:15.209,5 Jun 2027 03:54:26.716,551.508
37,5 Jun 2027 08:28:28.834,5 Jun 2027 08:30:48.560,139.726
38,5 Jun 2027 09:58:31.249,5 Jun 2027 10:08:26.417,595.168
39,5 Jun 2027 11:32:02.121,5 Jun 2027 11:44:45.565,763.444
40,5 Jun 2027 13:08:31.085,5 Jun 2027 13:20:27.055,715.971
41,5 Jun 2027 14:50:22.112,5 Jun 2027 14:53:24.829,182.718
42,5 Jun 2027 23:10:26.928,5 Jun 2027 23:18:05.790,458.862
43,6 Jun 2027 00:44:59.772,6 Jun 2027 00:57:34.463,754.690
44,6 Jun 2027 02:20:54.010,6 Jun 2027 02:33:10.911,736.901
45,6 Jun 2027 03:57:23.003,6 Jun 2027 04:05:54.362,511.359
46,6 Jun 2027 08:39:20.426,6 Jun 2027 08:43:21.933,241.507
47,6 Jun 2027 10:10:05.130,6 Jun 2027 10:20:32.516,627.386
48,6 Jun 2027 11:43:57.281,6 Jun 2027 11:56:47.569,770.288
49,6 Jun 2027 13:20:51.689,6 Jun 2027 13:32:21.983,690.295
50,6 Jun 2027 23:22:06.172,6 Jun 2027 23:30:54.759,528.587
51,7 Jun 2027 00:56:58.517,7 Jun 2027 01:09:43.602,765.085
52,7 Jun 2027 02:32:57.612,7 Jun 2027 02:44:57.470,719.858
53,7 Jun 2027 04:09:31.874,7 Jun 2027 04:17:18.935,467.061
54,7 Jun 2027 08:50:27.021,7 Jun 2027 08:55:41.910,314.889
55,7 Jun 2027 10:21:41.712,7 Jun 2027 10:32:38.017,656.305
56,7 Jun 2027 11:55:55.209,7 Jun 2027 12:08:49.023,773.814
57,7 Jun 2027 13:33:16.550,7 Jun 2027 13:44:15.143,658.593
58,7 Jun 2027 23:33:51.074,7 Jun 2027 23:43:35.235,584.161
59,8 Jun 2027 01:08:58.101,8 Jun 2027 01:21:49.604,771.503
60,8 Jun 2027 02:45:01.698,8 Jun 2027 02:56:41.392,699.693
61,8 Jun 2027 04:21:42.186,8 Jun 2027 04:28:40.149,417.963
62,8 Jun 2027 09:01:40.557,8 Jun 2027 09:07:56.650,376.093
63,8 Jun 2027 10:33:20.957,8 Jun 2027 10:44:42.977,682.019
64,8 Jun 2027 12:07:55.970,8 Jun 2027 12:20:49.860,773.890
65,8 Jun 2027 13:45:46.235,8 Jun 2027 13:56:06.056,619.821
66,8 Jun 2027 23:45:39.785,8 Jun 2027 23:56:09.162,629.377
67,9 Jun 2027 01:20:58.424,9 Jun 2027 01:33:52.608,774.184
68,9 Jun 2027 02:57:06.261,9 Jun 2027 03:08:22.679,676.418
69,9 Jun 2027 04:33:54.556,9 Jun 2027 04:39:57.438,362.882
70,9 Jun 2027 09:12:58.809,9 Jun 2027 09:20:08.478,429.669
71,9 Jun 2027 10:45:02.849,9 Jun 2027 10:56:47.433,704.584
72,9 Jun 2027 12:19:59.649,9 Jun 2027 12:32:50.017,770.368
73,9 Jun 2027 13:58:21.544,9 Jun 2027 14:07:54.007,572.463
74,9 Jun 2027 23:57:31.273,10 Jun 2027 00:08:37.684,666.411
75,10 Jun 2027 01:32:59.407,10 Jun 2027 01:45:52.715,773.308
76,10 Jun 2027 03:09:11.336,10 Jun 2027 03:20:01.321,649.985
77,10 Jun 2027 04:46:10.191,10 Jun 2027 04:51:09.675,299.484
78,10 Jun 2027 09:24:20.816,10 Jun 2027 09:32:18.423,477.607
79,10 Jun 2027 10:56:47.369,10 Jun 2027 11:08:51.407,724.039
80,10 Jun 2027 12:32:06.356,10 Jun 2027 12:44:49.422,763.065
81,10 Jun 2027 14:11:03.746,10 Jun 2027 14:19:37.811,514.066
82,11 Jun 2027 00:09:24.871,11 Jun 2027 00:21:01.532,696.661
83,11 Jun 2027 01:45:00.986,11 Jun 2027 01:57:50.003,769.017
84,11 Jun 2027 03:21:16.964,11 Jun 2027 03:31:37.294,620.329
85,11 Jun 2027 04:58:32.024,11 Jun 2027 05:02:14.042,222.019
86,11 Jun 2027 09:35:46.114,11 Jun 2027 09:44:27.032,520.918
87,11 Jun 2027 11:08:34.531,11 Jun 2027 11:20:54.905,740.374
88,11 Jun 2027 12:44:16.232,11 Jun 2027 12:56:47.949,751.717
89,11 Jun 2027 14:23:55.113,11 Jun 2027 14:31:15.316,440.204
90,11 Jun 2027 22:48:03.448,11 Jun 2027 22:51:54.182,230.734
91,12 Jun 2027 00:21:20.155,12 Jun 2027 00:33:21.216,721.061
92,12 Jun 2027 01:57:03.116,12 Jun 2027 02:09:44.541,761.424
93,12 Jun 2027 03:33:23.200,12 Jun 2027 03:43:10.552,587.351
94,12 Jun 2027 05:11:12.769,12 Jun 2027 05:12:57.903,105.134
95,12 Jun 2027 09:47:14.423,12 Jun 2027 09:56:34.613,560.190
96,12 Jun 2027 11:20:24.347,12 Jun 2027 11:32:57.923,753.575
97,12 Jun 2027 12:56:29.453,12 Jun 2027 13:08:45.476,736.023
98,12 Jun 2027 14:37:00.641,12 Jun 2027 14:42:41.634,340.993
99,12 Jun 2027 22:59:11.517,12 Jun 2027 23:05:20.293,368.776
100,13 Jun 2027 00:33:16.797,13 Jun 2027 00:45:37.107,740.309
101,13 Jun 2027 02:09:05.759,13 Jun 2027 02:21:36.378,750.619
102,13 Jun 2027 03:45:30.151,13 Jun 2027 03:54:41.032,550.882
103,13 Jun 2027 08:28:42.076,13 Jun 2027 08:31:04.370,142.294
104,13 Jun 2027 09:58:45.593,13 Jun 2027 10:08:41.383,595.791
105,13 Jun 2027 11:32:16.847,13 Jun 2027 11:45:00.443,763.596
106,13 Jun 2027 13:08:46.250,13 Jun 2027 13:20:41.804,715.554
107,13 Jun 2027 14:50:39.468,13 Jun 2027 14:53:37.765,178.297
108,13 Jun 2027 23:10:41.371,13 Jun 2027 23:18:21.545,460.174
