dataset/facility_timing/facility_Facility-Moscow/Moscow-To-KinoSat_112003.csv

Acces,Start Time (UTCG),Stop Time (UTCG),Duration (sec)
1,1 Jun 2027 04:54:10.066,1 Jun 2027 05:04:29.072,619.006
2,1 Jun 2027 06:29:27.384,1 Jun 2027 06:42:21.420,774.036
3,1 Jun 2027 08:05:35.677,1 Jun 2027 08:16:57.749,682.073
4,1 Jun 2027 09:42:25.092,1 Jun 2027 09:48:37.147,372.054
5,1 Jun 2027 14:21:46.472,1 Jun 2027 14:28:29.324,402.852
6,1 Jun 2027 15:53:39.327,1 Jun 2027 16:05:14.200,694.874
7,1 Jun 2027 17:28:27.607,1 Jun 2027 17:41:20.135,772.527
8,1 Jun 2027 19:06:36.917,1 Jun 2027 19:16:31.097,594.181
9,2 Jun 2027 05:06:01.431,2 Jun 2027 05:16:59.707,658.276
10,2 Jun 2027 06:41:28.779,2 Jun 2027 06:54:22.776,773.996
11,2 Jun 2027 08:17:41.303,2 Jun 2027 08:28:37.251,655.948
12,2 Jun 2027 09:54:41.369,2 Jun 2027 09:59:49.797,308.428
13,2 Jun 2027 14:33:06.501,2 Jun 2027 14:40:41.118,454.617
14,2 Jun 2027 16:05:23.015,2 Jun 2027 16:17:19.025,716.010
15,2 Jun 2027 17:40:33.617,2 Jun 2027 17:53:20.418,766.801
16,2 Jun 2027 19:19:16.920,2 Jun 2027 19:28:17.324,540.404
17,3 Jun 2027 05:17:55.083,3 Jun 2027 05:29:25.421,690.338
18,3 Jun 2027 06:53:30.793,3 Jun 2027 07:06:21.238,770.445
19,3 Jun 2027 08:29:47.503,3 Jun 2027 08:40:14.007,626.504
20,3 Jun 2027 10:07:03.753,3 Jun 2027 10:10:54.590,230.837
21,3 Jun 2027 14:44:30.199,3 Jun 2027 14:52:51.220,501.021
22,3 Jun 2027 16:17:09.410,3 Jun 2027 16:29:23.350,733.940
23,3 Jun 2027 17:52:42.802,3 Jun 2027 18:05:19.868,757.067
24,3 Jun 2027 19:32:05.094,3 Jun 2027 19:39:58.258,473.164
25,4 Jun 2027 03:56:49.918,4 Jun 2027 03:59:55.665,185.747
26,4 Jun 2027 05:29:50.528,4 Jun 2027 05:41:46.785,716.257
27,4 Jun 2027 07:05:33.388,4 Jun 2027 07:18:16.871,763.483
28,4 Jun 2027 08:41:54.340,4 Jun 2027 08:51:47.965,593.625
29,4 Jun 2027 10:19:43.863,4 Jun 2027 10:21:39.990,116.127
30,4 Jun 2027 14:55:57.174,4 Jun 2027 15:05:00.072,542.899
31,4 Jun 2027 16:28:58.527,4 Jun 2027 16:41:27.176,748.650
32,4 Jun 2027 18:04:55.316,4 Jun 2027 18:17:18.360,743.044
33,4 Jun 2027 19:45:04.975,4 Jun 2027 19:51:30.482,385.507
34,5 Jun 2027 04:07:48.225,5 Jun 2027 04:13:33.764,345.539
35,5 Jun 2027 05:41:47.428,5 Jun 2027 05:54:04.207,736.779
36,5 Jun 2027 07:17:36.517,5 Jun 2027 07:30:09.728,753.211
37,5 Jun 2027 08:54:01.913,5 Jun 2027 09:03:19.065,557.152
38,5 Jun 2027 15:07:27.191,5 Jun 2027 15:17:07.955,580.764
39,5 Jun 2027 16:40:50.370,5 Jun 2027 16:53:30.492,760.122
40,5 Jun 2027 18:17:11.382,5 Jun 2027 18:29:15.714,724.332
41,5 Jun 2027 19:58:26.640,5 Jun 2027 20:02:44.039,257.398
42,6 Jun 2027 04:19:15.552,6 Jun 2027 04:26:39.673,444.121
43,6 Jun 2027 05:53:45.527,6 Jun 2027 06:06:17.993,752.466
44,6 Jun 2027 07:29:40.154,6 Jun 2027 07:41:59.838,739.684
45,6 Jun 2027 09:06:10.374,6 Jun 2027 09:14:47.176,516.802
46,6 Jun 2027 13:48:33.821,6 Jun 2027 13:51:50.148,196.328
47,6 Jun 2027 15:19:00.114,6 Jun 2027 15:29:15.054,614.940
48,6 Jun 2027 16:52:44.985,6 Jun 2027 17:05:33.284,768.298
49,6 Jun 2027 18:29:31.274,6 Jun 2027 18:41:11.717,700.443
50,7 Jun 2027 04:30:53.874,7 Jun 2027 04:39:31.532,517.659
51,7 Jun 2027 06:05:44.640,7 Jun 2027 06:18:28.369,763.729
52,7 Jun 2027 07:41:44.293,7 Jun 2027 07:53:47.223,722.930
53,7 Jun 2027 09:18:19.960,7 Jun 2027 09:26:12.116,472.156
54,7 Jun 2027 13:59:34.075,7 Jun 2027 14:04:16.452,282.377
55,7 Jun 2027 15:30:35.852,7 Jun 2027 15:41:21.481,645.629
56,7 Jun 2027 17:04:42.409,7 Jun 2027 17:17:35.514,773.105
57,7 Jun 2027 18:41:55.349,7 Jun 2027 18:53:06.062,670.713
58,8 Jun 2027 04:42:38.430,8 Jun 2027 04:52:14.254,575.824
59,8 Jun 2027 06:17:44.635,8 Jun 2027 06:30:35.516,770.880
60,8 Jun 2027 07:53:48.933,8 Jun 2027 08:05:31.904,702.971
61,8 Jun 2027 09:30:31.050,8 Jun 2027 09:37:33.568,422.518
62,8 Jun 2027 14:10:44.337,8 Jun 2027 14:16:34.469,350.132
63,8 Jun 2027 15:42:14.353,8 Jun 2027 15:53:27.313,672.959
64,8 Jun 2027 17:16:42.707,8 Jun 2027 17:29:37.142,774.435
65,8 Jun 2027 18:54:24.116,8 Jun 2027 19:04:58.320,634.205
66,9 Jun 2027 04:54:27.087,9 Jun 2027 05:04:50.057,622.970
67,9 Jun 2027 06:29:45.402,9 Jun 2027 06:42:39.578,774.176
68,9 Jun 2027 08:05:54.070,9 Jun 2027 08:17:13.874,679.804
69,9 Jun 2027 09:42:44.290,9 Jun 2027 09:48:50.935,366.645
70,9 Jun 2027 14:22:00.424,9 Jun 2027 14:28:48.487,408.064
71,9 Jun 2027 15:53:55.584,9 Jun 2027 16:05:32.600,697.016
72,9 Jun 2027 17:28:45.950,9 Jun 2027 17:41:38.098,772.149
73,9 Jun 2027 19:06:58.294,9 Jun 2027 19:16:47.856,589.562
74,10 Jun 2027 05:06:18.687,10 Jun 2027 05:17:20.204,661.517
75,10 Jun 2027 06:41:46.853,10 Jun 2027 06:54:40.665,773.812
76,10 Jun 2027 08:17:59.744,10 Jun 2027 08:28:53.123,653.379
77,10 Jun 2027 09:55:00.955,10 Jun 2027 10:00:03.031,302.075
78,10 Jun 2027 14:33:20.831,10 Jun 2027 14:41:00.087,459.257
79,10 Jun 2027 16:05:39.531,10 Jun 2027 16:17:37.373,717.842
80,10 Jun 2027 17:40:52.250,10 Jun 2027 17:53:38.305,766.055
81,10 Jun 2027 19:19:38.978,10 Jun 2027 19:28:33.665,534.688
82,11 Jun 2027 05:18:12.519,11 Jun 2027 05:29:45.492,692.974
83,11 Jun 2027 06:53:48.918,11 Jun 2027 07:06:38.862,769.944
84,11 Jun 2027 08:30:05.998,11 Jun 2027 08:40:29.623,623.625
85,11 Jun 2027 10:07:24.171,11 Jun 2027 10:11:06.830,222.659
86,11 Jun 2027 14:44:44.856,11 Jun 2027 14:53:10.045,505.188
87,11 Jun 2027 16:17:26.179,11 Jun 2027 16:29:41.648,735.468
88,11 Jun 2027 17:53:01.740,11 Jun 2027 18:05:37.668,755.928
89,11 Jun 2027 19:32:28.055,11 Jun 2027 19:40:13.971,465.917
90,12 Jun 2027 03:56:59.249,12 Jun 2027 04:00:25.710,206.462
91,12 Jun 2027 05:30:08.107,12 Jun 2027 05:42:06.474,718.367
92,12 Jun 2027 07:05:51.563,12 Jun 2027 07:18:34.233,762.670
93,12 Jun 2027 08:42:12.893,12 Jun 2027 08:52:03.323,590.430
94,12 Jun 2027 10:20:08.177,12 Jun 2027 10:21:48.189,100.012
95,12 Jun 2027 14:56:12.128,12 Jun 2027 15:05:18.786,546.658
96,12 Jun 2027 16:29:15.548,12 Jun 2027 16:41:45.421,749.873
97,12 Jun 2027 18:05:14.581,12 Jun 2027 18:17:36.057,741.477
98,12 Jun 2027 19:45:29.367,12 Jun 2027 19:51:45.045,375.678
99,13 Jun 2027 04:08:02.427,13 Jun 2027 04:13:58.631,356.204
100,13 Jun 2027 05:42:05.120,13 Jun 2027 05:54:23.549,738.429
101,13 Jun 2027 07:17:54.733,13 Jun 2027 07:30:26.833,752.100
102,13 Jun 2027 08:54:20.535,13 Jun 2027 09:03:34.146,553.611
103,13 Jun 2027 13:38:17.293,13 Jun 2027 13:39:14.223,56.930
104,13 Jun 2027 15:07:42.429,13 Jun 2027 15:17:26.590,584.161
105,13 Jun 2027 16:41:07.657,13 Jun 2027 16:53:48.688,761.031
106,13 Jun 2027 18:17:30.991,13 Jun 2027 18:29:33.293,722.302
107,13 Jun 2027 19:58:54.436,13 Jun 2027 20:02:55.490,241.054
