dataset/facility_timing/facility_Facility-Moscow/Moscow-To-KinoSat_111803.csv

Acces,Start Time (UTCG),Stop Time (UTCG),Duration (sec)
1,1 Jun 2027 03:26:53.621,1 Jun 2027 03:34:18.927,445.306
2,1 Jun 2027 05:01:23.734,1 Jun 2027 05:13:56.376,752.642
3,1 Jun 2027 06:37:18.245,1 Jun 2027 06:49:37.709,739.464
4,1 Jun 2027 08:13:48.227,1 Jun 2027 08:22:24.748,516.522
5,1 Jun 2027 12:56:08.464,1 Jun 2027 12:59:30.828,202.364
6,1 Jun 2027 14:26:37.243,1 Jun 2027 14:36:53.652,616.409
7,1 Jun 2027 16:00:22.923,1 Jun 2027 16:13:11.464,768.541
8,1 Jun 2027 17:37:10.064,1 Jun 2027 17:48:49.406,699.341
9,2 Jun 2027 03:38:31.994,2 Jun 2027 03:47:10.484,518.490
10,2 Jun 2027 05:13:22.783,2 Jun 2027 05:26:06.606,763.823
11,2 Jun 2027 06:49:22.297,2 Jun 2027 07:01:25.009,722.712
12,2 Jun 2027 08:25:57.690,2 Jun 2027 08:33:49.672,471.982
13,2 Jun 2027 13:07:09.675,2 Jun 2027 13:11:56.150,286.475
14,2 Jun 2027 14:38:13.078,2 Jun 2027 14:48:59.939,646.862
15,2 Jun 2027 16:12:20.384,2 Jun 2027 16:25:13.581,773.197
16,2 Jun 2027 17:49:34.195,2 Jun 2027 18:00:43.600,669.405
17,3 Jun 2027 03:50:16.545,3 Jun 2027 03:59:52.953,576.408
18,3 Jun 2027 05:25:22.705,3 Jun 2027 05:38:13.622,770.916
19,3 Jun 2027 07:01:26.846,3 Jun 2027 07:13:09.610,702.765
20,3 Jun 2027 08:38:08.642,3 Jun 2027 08:45:11.133,422.490
21,3 Jun 2027 13:18:20.388,3 Jun 2027 13:24:13.690,353.302
22,3 Jun 2027 14:49:51.651,3 Jun 2027 15:01:05.646,673.996
23,3 Jun 2027 16:24:20.709,3 Jun 2027 16:37:15.096,774.387
24,3 Jun 2027 18:02:03.024,3 Jun 2027 18:12:35.691,632.667
25,4 Jun 2027 04:02:05.166,4 Jun 2027 04:12:28.550,623.384
26,4 Jun 2027 05:37:23.393,4 Jun 2027 05:50:17.564,774.171
27,4 Jun 2027 07:13:31.889,4 Jun 2027 07:24:51.510,679.621
28,4 Jun 2027 08:50:21.715,4 Jun 2027 08:56:28.551,366.837
29,4 Jun 2027 13:29:36.755,4 Jun 2027 13:36:27.400,410.645
30,4 Jun 2027 15:01:32.948,4 Jun 2027 15:13:10.818,697.870
31,4 Jun 2027 16:36:23.975,4 Jun 2027 16:49:15.945,771.970
32,4 Jun 2027 18:14:37.283,4 Jun 2027 18:24:25.043,587.761
33,5 Jun 2027 04:13:56.718,5 Jun 2027 04:24:58.519,661.801
34,5 Jun 2027 05:49:24.763,5 Jun 2027 06:02:18.537,773.773
35,5 Jun 2027 07:25:37.464,5 Jun 2027 07:36:30.704,653.240
36,5 Jun 2027 09:02:38.168,5 Jun 2027 09:07:40.746,302.578
37,5 Jun 2027 13:40:57.360,5 Jun 2027 13:48:38.763,461.403
38,5 Jun 2027 15:13:16.942,5 Jun 2027 15:25:15.477,718.535
39,5 Jun 2027 16:48:30.293,5 Jun 2027 17:01:16.044,765.751
40,5 Jun 2027 18:27:18.075,5 Jun 2027 18:36:10.625,532.550
41,6 Jun 2027 04:25:50.491,6 Jun 2027 04:37:23.650,693.159
42,6 Jun 2027 06:01:26.751,6 Jun 2027 06:14:16.637,769.886
43,6 Jun 2027 07:37:43.616,6 Jun 2027 07:48:07.162,623.547
44,6 Jun 2027 09:15:01.053,6 Jun 2027 09:18:44.774,223.722
45,6 Jun 2027 13:52:21.540,6 Jun 2027 14:00:48.533,506.993
46,6 Jun 2027 15:25:03.632,6 Jun 2027 15:37:19.640,736.008
47,6 Jun 2027 17:00:39.792,6 Jun 2027 17:13:15.290,755.498
48,6 Jun 2027 18:40:07.336,6 Jun 2027 18:47:50.627,463.291
49,7 Jun 2027 03:04:36.994,7 Jun 2027 03:08:04.460,207.466
50,7 Jun 2027 04:37:46.012,7 Jun 2027 04:49:44.486,718.474
51,7 Jun 2027 06:13:29.310,7 Jun 2027 06:26:11.917,762.606
52,7 Jun 2027 07:49:50.401,7 Jun 2027 07:59:40.834,590.433
53,7 Jun 2027 09:27:43.956,7 Jun 2027 09:29:27.143,103.186
54,7 Jun 2027 14:03:48.930,7 Jun 2027 14:12:57.110,548.180
55,7 Jun 2027 15:36:53.031,7 Jun 2027 15:49:23.305,750.273
56,7 Jun 2027 17:12:52.644,7 Jun 2027 17:25:13.565,740.921
57,7 Jun 2027 18:53:08.993,7 Jun 2027 18:59:21.230,372.237
58,8 Jun 2027 03:15:40.354,8 Jun 2027 03:21:36.949,356.596
59,8 Jun 2027 04:49:42.953,8 Jun 2027 05:02:01.431,738.478
60,8 Jun 2027 06:25:32.393,8 Jun 2027 06:38:04.438,752.045
61,8 Jun 2027 08:01:57.927,8 Jun 2027 08:11:11.644,553.717
62,8 Jun 2027 12:45:46.904,8 Jun 2027 12:46:59.430,72.526
63,8 Jun 2027 14:15:19.324,8 Jun 2027 14:25:04.767,585.443
64,8 Jun 2027 15:48:45.161,8 Jun 2027 16:01:26.467,761.305
65,8 Jun 2027 17:25:09.059,8 Jun 2027 17:37:10.682,721.623
66,8 Jun 2027 19:06:35.102,8 Jun 2027 19:10:30.506,235.405
67,9 Jun 2027 03:27:09.043,9 Jun 2027 03:34:40.962,451.919
68,9 Jun 2027 05:01:41.078,9 Jun 2027 05:14:14.770,753.693
69,9 Jun 2027 06:37:35.987,9 Jun 2027 06:49:54.226,738.240
70,9 Jun 2027 08:14:06.353,9 Jun 2027 08:22:39.482,513.129
71,9 Jun 2027 12:56:20.399,9 Jun 2027 12:59:50.980,210.581
72,9 Jun 2027 14:26:52.587,9 Jun 2027 14:37:11.657,619.071
73,9 Jun 2027 16:00:40.043,9 Jun 2027 16:13:29.102,769.058
74,9 Jun 2027 17:37:29.321,9 Jun 2027 17:49:06.412,697.091
75,10 Jun 2027 03:38:48.027,10 Jun 2027 03:47:31.660,523.633
76,10 Jun 2027 05:13:40.194,10 Jun 2027 05:26:24.729,764.535
77,10 Jun 2027 06:49:40.075,10 Jun 2027 07:01:41.302,721.227
78,10 Jun 2027 08:26:15.911,10 Jun 2027 08:34:04.146,468.235
79,10 Jun 2027 13:07:22.730,10 Jun 2027 13:12:15.324,292.594
80,10 Jun 2027 14:38:28.645,10 Jun 2027 14:49:17.889,649.245
81,10 Jun 2027 16:12:37.737,10 Jun 2027 16:25:31.171,773.434
82,10 Jun 2027 17:49:53.815,10 Jun 2027 18:01:00.453,666.638
83,11 Jun 2027 03:50:32.961,11 Jun 2027 04:00:13.513,580.552
84,11 Jun 2027 05:25:40.179,11 Jun 2027 05:38:31.491,771.312
85,11 Jun 2027 07:01:44.660,11 Jun 2027 07:13:25.684,701.024
86,11 Jun 2027 08:38:26.996,11 Jun 2027 08:45:25.315,418.318
87,11 Jun 2027 13:18:34.013,11 Jun 2027 13:24:32.439,358.425
88,11 Jun 2027 14:50:07.447,11 Jun 2027 15:01:23.549,676.102
89,11 Jun 2027 16:24:38.300,11 Jun 2027 16:37:32.627,774.327
90,11 Jun 2027 18:02:23.058,11 Jun 2027 18:12:52.343,629.285
91,12 Jun 2027 04:02:21.850,12 Jun 2027 04:12:48.616,626.766
92,12 Jun 2027 05:37:40.925,12 Jun 2027 05:50:35.187,774.261
93,12 Jun 2027 07:13:49.741,12 Jun 2027 07:25:07.371,677.630
94,12 Jun 2027 08:50:40.272,12 Jun 2027 08:56:42.369,362.097
95,12 Jun 2027 13:29:50.776,12 Jun 2027 13:36:45.900,415.124
96,12 Jun 2027 15:01:48.963,12 Jun 2027 15:13:28.670,699.707
97,12 Jun 2027 16:36:41.813,12 Jun 2027 16:49:33.413,771.599
98,12 Jun 2027 18:14:57.805,12 Jun 2027 18:24:41.426,583.621
99,13 Jun 2027 04:14:13.598,13 Jun 2027 04:25:18.165,664.567
100,13 Jun 2027 05:49:42.344,13 Jun 2027 06:02:35.926,773.582
101,13 Jun 2027 07:25:55.357,13 Jun 2027 07:36:46.341,650.984
102,13 Jun 2027 09:02:57.073,13 Jun 2027 09:07:54.072,296.999
103,13 Jun 2027 13:41:11.704,13 Jun 2027 13:48:57.104,465.400
104,13 Jun 2027 15:13:33.179,13 Jun 2027 15:25:33.281,720.101
105,13 Jun 2027 16:48:48.390,13 Jun 2027 17:01:33.439,765.049
106,13 Jun 2027 18:27:39.209,13 Jun 2027 18:36:26.624,527.414
