dataset/facility_timing/facility_Facility-Moscow/Moscow-To-KinoSat_112002.csv

Acces,Start Time (UTCG),Stop Time (UTCG),Duration (sec)
1,1 Jun 2027 05:03:37.235,1 Jun 2027 05:14:27.935,650.700
2,1 Jun 2027 06:39:02.639,1 Jun 2027 06:51:56.946,774.307
3,1 Jun 2027 08:15:14.290,1 Jun 2027 08:26:15.978,661.688
4,1 Jun 2027 09:52:11.816,1 Jun 2027 09:57:34.429,322.614
5,1 Jun 2027 14:30:48.757,1 Jun 2027 14:38:13.017,444.260
6,1 Jun 2027 16:03:00.413,1 Jun 2027 16:14:52.261,711.849
7,1 Jun 2027 17:38:06.314,1 Jun 2027 17:50:54.636,768.322
8,1 Jun 2027 19:16:42.153,1 Jun 2027 19:25:54.787,552.634
9,2 Jun 2027 05:15:30.456,2 Jun 2027 05:26:54.626,684.170
10,2 Jun 2027 06:51:04.534,2 Jun 2027 07:03:56.005,771.471
11,2 Jun 2027 08:27:20.364,2 Jun 2027 08:37:53.310,632.946
12,2 Jun 2027 10:04:32.505,2 Jun 2027 10:08:41.270,248.765
13,2 Jun 2027 14:42:11.730,2 Jun 2027 14:50:23.421,491.691
14,2 Jun 2027 16:14:46.245,2 Jun 2027 16:26:56.689,730.444
15,2 Jun 2027 17:50:14.814,2 Jun 2027 18:02:54.273,759.458
16,2 Jun 2027 19:29:28.404,2 Jun 2027 19:37:37.032,488.627
17,3 Jun 2027 03:54:50.019,3 Jun 2027 03:56:55.948,125.929
18,3 Jun 2027 05:27:25.558,3 Jun 2027 05:39:16.863,711.305
19,3 Jun 2027 07:03:07.005,3 Jun 2027 07:15:52.225,765.220
20,3 Jun 2027 08:39:27.064,3 Jun 2027 08:49:27.859,600.795
21,3 Jun 2027 10:17:06.315,3 Jun 2027 10:19:33.312,146.997
22,3 Jun 2027 14:53:38.041,3 Jun 2027 15:02:32.507,534.466
23,3 Jun 2027 16:26:34.790,3 Jun 2027 16:39:00.625,745.835
24,3 Jun 2027 18:02:26.618,3 Jun 2027 18:14:52.974,746.356
25,3 Jun 2027 19:42:25.368,3 Jun 2027 19:49:11.535,406.167
26,4 Jun 2027 04:05:31.667,4 Jun 2027 04:10:51.382,319.715
27,4 Jun 2027 05:39:22.178,4 Jun 2027 05:51:35.080,732.902
28,4 Jun 2027 07:15:10.029,4 Jun 2027 07:27:45.657,755.628
29,4 Jun 2027 08:51:34.471,4 Jun 2027 09:00:59.564,565.093
30,4 Jun 2027 15:05:07.438,4 Jun 2027 15:14:40.579,573.141
31,4 Jun 2027 16:38:26.059,4 Jun 2027 16:51:04.052,757.993
32,4 Jun 2027 18:14:41.921,4 Jun 2027 18:26:50.583,728.662
33,4 Jun 2027 19:55:40.739,4 Jun 2027 20:00:30.721,289.982
34,5 Jun 2027 04:16:55.428,5 Jun 2027 04:24:01.506,426.077
35,5 Jun 2027 05:51:20.038,5 Jun 2027 06:03:49.603,749.565
36,5 Jun 2027 07:27:13.564,5 Jun 2027 07:39:36.343,742.778
37,5 Jun 2027 09:03:42.730,5 Jun 2027 09:12:28.311,525.581
38,5 Jun 2027 13:46:22.942,5 Jun 2027 13:49:16.654,173.711
39,5 Jun 2027 15:16:39.758,5 Jun 2027 15:26:47.831,608.073
40,5 Jun 2027 16:50:20.094,5 Jun 2027 17:03:06.953,766.859
41,5 Jun 2027 18:27:00.983,5 Jun 2027 18:38:46.887,705.904
42,6 Jun 2027 04:28:31.999,6 Jun 2027 04:36:55.747,503.748
43,6 Jun 2027 06:03:18.956,6 Jun 2027 06:16:00.679,761.723
44,6 Jun 2027 07:39:17.596,6 Jun 2027 07:51:24.297,726.701
45,6 Jun 2027 09:15:52.058,6 Jun 2027 09:23:53.938,481.880
46,6 Jun 2027 13:57:19.725,6 Jun 2027 14:01:46.082,266.357
47,6 Jun 2027 15:28:14.911,6 Jun 2027 15:38:54.392,639.481
48,6 Jun 2027 17:02:16.925,6 Jun 2027 17:15:09.305,772.380
49,6 Jun 2027 18:39:24.147,6 Jun 2027 18:50:41.613,677.465
50,7 Jun 2027 04:40:15.479,7 Jun 2027 04:49:40.145,564.667
51,7 Jun 2027 06:15:18.778,7 Jun 2027 06:28:08.486,769.709
52,7 Jun 2027 07:51:22.130,7 Jun 2027 08:03:09.543,707.413
53,7 Jun 2027 09:28:02.795,7 Jun 2027 09:35:16.156,433.361
54,7 Jun 2027 14:08:28.407,7 Jun 2027 14:14:05.310,336.902
55,7 Jun 2027 15:39:52.842,7 Jun 2027 15:51:00.345,667.503
56,7 Jun 2027 17:14:16.610,7 Jun 2027 17:27:11.065,774.455
57,7 Jun 2027 18:51:51.882,7 Jun 2027 19:02:34.353,642.471
58,8 Jun 2027 04:52:03.394,8 Jun 2027 05:02:17.274,613.880
59,8 Jun 2027 06:27:19.393,8 Jun 2027 06:40:13.186,773.793
60,8 Jun 2027 08:03:27.165,8 Jun 2027 08:14:52.085,684.919
61,8 Jun 2027 09:40:15.505,8 Jun 2027 09:46:34.444,378.938
62,8 Jun 2027 14:19:43.443,8 Jun 2027 14:26:19.992,396.549
63,8 Jun 2027 15:51:33.499,8 Jun 2027 16:03:05.744,692.245
64,8 Jun 2027 17:26:19.231,8 Jun 2027 17:39:12.165,772.934
65,8 Jun 2027 19:04:24.853,8 Jun 2027 19:14:24.526,599.673
66,9 Jun 2027 05:03:54.448,9 Jun 2027 05:14:48.523,654.075
67,9 Jun 2027 06:39:20.701,9 Jun 2027 06:52:14.892,774.191
68,9 Jun 2027 08:15:32.722,9 Jun 2027 08:26:31.904,659.182
69,9 Jun 2027 09:52:31.299,9 Jun 2027 09:57:47.802,316.503
70,9 Jun 2027 14:31:03.014,9 Jun 2027 14:38:32.015,449.002
71,9 Jun 2027 16:03:16.874,9 Jun 2027 16:15:10.619,713.744
72,9 Jun 2027 17:38:24.886,9 Jun 2027 17:51:12.541,767.655
73,9 Jun 2027 19:17:04.052,9 Jun 2027 19:26:11.233,547.180
74,10 Jun 2027 05:15:47.859,10 Jun 2027 05:27:14.783,686.924
75,10 Jun 2027 06:51:22.650,10 Jun 2027 07:04:13.684,771.034
76,10 Jun 2027 08:27:38.847,10 Jun 2027 08:38:08.981,630.134
77,10 Jun 2027 10:04:52.675,10 Jun 2027 10:08:53.792,241.116
78,10 Jun 2027 14:42:26.321,10 Jun 2027 14:50:42.275,495.954
79,10 Jun 2027 16:15:02.962,10 Jun 2027 16:27:14.999,732.037
80,10 Jun 2027 17:50:33.692,10 Jun 2027 18:03:12.093,758.400
81,10 Jun 2027 19:29:51.149,10 Jun 2027 19:37:52.898,481.749
82,11 Jun 2027 03:54:55.057,11 Jun 2027 03:57:30.349,155.292
83,11 Jun 2027 05:27:43.111,11 Jun 2027 05:39:36.630,713.519
84,11 Jun 2027 07:03:25.172,11 Jun 2027 07:16:09.642,764.470
85,11 Jun 2027 08:39:45.604,11 Jun 2027 08:49:43.267,597.664
86,11 Jun 2027 10:17:28.865,11 Jun 2027 10:19:43.301,134.436
87,11 Jun 2027 14:53:52.934,11 Jun 2027 15:02:51.246,538.312
88,11 Jun 2027 16:26:51.762,11 Jun 2027 16:39:18.884,747.122
89,11 Jun 2027 18:02:45.810,11 Jun 2027 18:15:10.696,744.886
90,11 Jun 2027 19:42:49.386,11 Jun 2027 19:49:26.411,397.025
91,12 Jun 2027 04:05:45.386,12 Jun 2027 04:11:16.797,331.411
92,12 Jun 2027 05:39:39.853,12 Jun 2027 05:51:54.489,734.636
93,12 Jun 2027 07:15:28.239,12 Jun 2027 07:28:02.820,754.580
94,12 Jun 2027 08:51:53.080,12 Jun 2027 09:01:14.707,561.627
95,12 Jun 2027 15:05:22.613,12 Jun 2027 15:14:59.228,576.615
96,12 Jun 2027 16:38:43.288,12 Jun 2027 16:51:22.259,758.972
97,12 Jun 2027 18:15:01.452,12 Jun 2027 18:27:08.188,726.736
98,12 Jun 2027 19:56:07.411,12 Jun 2027 20:00:43.235,275.824
99,13 Jun 2027 04:17:10.797,13 Jun 2027 04:24:24.978,434.180
100,13 Jun 2027 05:51:37.819,13 Jun 2027 06:04:08.686,750.867
101,13 Jun 2027 07:27:31.815,13 Jun 2027 07:39:53.247,741.432
102,13 Jun 2027 09:04:01.423,13 Jun 2027 09:12:43.174,521.751
103,13 Jun 2027 13:46:33.906,13 Jun 2027 13:49:38.285,184.378
104,13 Jun 2027 15:16:55.206,13 Jun 2027 15:27:06.406,611.200
105,13 Jun 2027 16:50:37.583,13 Jun 2027 17:03:25.107,767.524
106,13 Jun 2027 18:27:20.885,13 Jun 2027 18:39:04.354,703.469
