dataset/facility_timing/facility_Facility-Moscow/Moscow-To-KinoSat_110602.csv

Acces,Start Time (UTCG),Stop Time (UTCG),Duration (sec)
1,1 Jun 2027 01:10:03.948,1 Jun 2027 01:22:28.471,744.524
2,1 Jun 2027 02:46:30.351,1 Jun 2027 02:55:23.157,532.807
3,1 Jun 2027 07:29:03.545,1 Jun 2027 07:32:19.958,196.413
4,1 Jun 2027 08:59:29.768,1 Jun 2027 09:09:41.228,611.460
5,1 Jun 2027 10:33:11.057,1 Jun 2027 10:45:58.259,767.203
6,1 Jun 2027 12:09:52.273,1 Jun 2027 12:21:36.338,704.065
7,1 Jun 2027 22:11:27.824,1 Jun 2027 22:19:42.288,494.464
8,1 Jun 2027 23:46:10.724,1 Jun 2027 23:58:50.913,760.188
9,2 Jun 2027 01:22:07.271,2 Jun 2027 01:34:16.382,729.111
10,2 Jun 2027 02:58:38.577,2 Jun 2027 03:06:49.360,490.783
11,2 Jun 2027 07:40:04.618,2 Jun 2027 07:44:44.589,279.971
12,2 Jun 2027 09:11:04.973,2 Jun 2027 09:21:46.982,642.010
13,2 Jun 2027 10:45:07.537,2 Jun 2027 10:57:59.966,772.429
14,2 Jun 2027 12:22:14.854,2 Jun 2027 12:33:30.417,675.563
15,2 Jun 2027 22:23:10.070,2 Jun 2027 22:32:26.793,556.722
16,2 Jun 2027 23:58:09.853,3 Jun 2027 00:10:58.485,768.631
17,3 Jun 2027 01:34:11.073,3 Jun 2027 01:46:01.655,710.583
18,3 Jun 2027 03:10:48.027,3 Jun 2027 03:18:12.388,444.361
19,3 Jun 2027 07:51:15.121,3 Jun 2027 07:57:01.441,346.320
20,3 Jun 2027 09:22:42.852,3 Jun 2027 09:33:52.171,669.319
21,3 Jun 2027 10:57:06.811,3 Jun 2027 11:10:01.092,774.281
22,3 Jun 2027 12:34:41.947,3 Jun 2027 12:45:22.520,640.572
23,3 Jun 2027 22:34:56.940,3 Jun 2027 22:45:03.897,606.957
24,4 Jun 2027 00:10:09.771,4 Jun 2027 00:23:03.004,773.233
25,4 Jun 2027 01:46:15.343,4 Jun 2027 01:57:44.300,688.957
26,4 Jun 2027 03:22:59.161,4 Jun 2027 03:29:31.835,392.674
27,4 Jun 2027 08:02:31.174,4 Jun 2027 08:09:14.500,403.326
28,4 Jun 2027 09:34:23.378,4 Jun 2027 09:45:56.842,693.463
29,4 Jun 2027 11:09:08.955,4 Jun 2027 11:22:01.572,772.617
30,4 Jun 2027 12:47:14.207,4 Jun 2027 12:57:12.069,597.863
31,4 Jun 2027 22:46:47.050,4 Jun 2027 22:57:35.074,648.024
32,5 Jun 2027 00:22:10.385,5 Jun 2027 00:35:04.575,774.190
33,5 Jun 2027 01:58:20.111,5 Jun 2027 02:09:24.308,664.197
34,5 Jun 2027 03:35:12.808,5 Jun 2027 03:40:46.947,334.139
35,5 Jun 2027 08:13:51.370,5 Jun 2027 08:21:25.252,453.882
36,5 Jun 2027 09:46:06.540,5 Jun 2027 09:58:01.020,714.480
37,5 Jun 2027 11:21:14.065,5 Jun 2027 11:34:01.344,767.279
38,5 Jun 2027 12:59:52.624,5 Jun 2027 13:08:58.158,545.535
39,5 Jun 2027 22:58:39.583,5 Jun 2027 23:10:01.230,681.648
40,6 Jun 2027 00:34:11.628,6 Jun 2027 00:47:03.291,771.664
41,6 Jun 2027 02:10:25.408,6 Jun 2027 02:21:01.663,636.255
42,6 Jun 2027 03:47:30.720,6 Jun 2027 03:51:56.057,265.337
43,6 Jun 2027 08:25:15.045,6 Jun 2027 08:33:34.439,499.394
44,6 Jun 2027 09:57:52.329,6 Jun 2027 10:10:04.727,732.398
45,6 Jun 2027 11:33:22.261,6 Jun 2027 11:46:00.300,758.040
46,6 Jun 2027 13:12:38.855,6 Jun 2027 13:20:39.240,480.385
47,6 Jun 2027 21:38:18.395,6 Jun 2027 21:39:43.406,85.010
48,6 Jun 2027 23:10:34.000,6 Jun 2027 23:22:22.992,708.992
49,7 Jun 2027 00:46:13.441,7 Jun 2027 00:58:59.233,765.792
50,7 Jun 2027 02:22:31.275,7 Jun 2027 02:32:36.340,605.065
51,7 Jun 2027 03:59:58.026,7 Jun 2027 04:02:54.140,176.114
52,7 Jun 2027 08:36:41.843,7 Jun 2027 08:45:42.462,540.619
53,7 Jun 2027 10:09:40.761,7 Jun 2027 10:22:07.951,747.190
54,7 Jun 2027 11:45:33.701,7 Jun 2027 11:57:58.333,744.631
55,7 Jun 2027 13:25:36.098,7 Jun 2027 13:32:12.216,396.118
56,7 Jun 2027 21:48:45.834,7 Jun 2027 21:53:51.720,305.886
57,7 Jun 2027 23:22:29.934,7 Jun 2027 23:34:40.782,730.848
58,8 Jun 2027 00:58:15.788,8 Jun 2027 01:10:52.452,756.664
59,8 Jun 2027 02:34:37.795,8 Jun 2027 02:44:08.276,570.481
60,8 Jun 2027 07:18:54.257,8 Jun 2027 07:19:33.921,39.664
61,8 Jun 2027 08:48:11.560,8 Jun 2027 08:57:49.578,578.018
62,8 Jun 2027 10:21:31.852,8 Jun 2027 10:34:10.698,758.846
63,8 Jun 2027 11:57:48.583,8 Jun 2027 12:09:55.272,726.689
64,8 Jun 2027 13:38:52.902,8 Jun 2027 13:43:28.664,275.762
65,8 Jun 2027 22:00:07.141,8 Jun 2027 22:07:03.024,415.883
66,8 Jun 2027 23:34:27.118,8 Jun 2027 23:46:54.921,747.803
67,9 Jun 2027 01:10:18.633,9 Jun 2027 01:22:42.984,744.351
68,9 Jun 2027 02:46:45.082,9 Jun 2027 02:55:37.400,532.318
69,9 Jun 2027 07:29:17.311,9 Jun 2027 07:32:35.037,197.726
70,9 Jun 2027 08:59:44.077,9 Jun 2027 09:09:55.957,611.880
71,9 Jun 2027 10:33:25.636,9 Jun 2027 10:46:12.929,767.293
72,9 Jun 2027 12:10:07.177,9 Jun 2027 12:21:50.909,703.732
73,9 Jun 2027 22:11:42.219,9 Jun 2027 22:19:57.542,495.323
74,9 Jun 2027 23:46:25.355,9 Jun 2027 23:59:05.671,760.317
75,10 Jun 2027 01:22:21.957,10 Jun 2027 01:34:30.859,728.902
76,10 Jun 2027 02:58:53.319,10 Jun 2027 03:07:03.568,490.248
77,10 Jun 2027 07:40:18.565,10 Jun 2027 07:44:59.508,280.943
78,10 Jun 2027 09:11:19.315,10 Jun 2027 09:22:01.702,642.387
79,10 Jun 2027 10:45:22.154,10 Jun 2027 10:58:14.629,772.475
80,10 Jun 2027 12:22:29.815,10 Jun 2027 12:33:44.967,675.153
81,10 Jun 2027 22:23:24.534,10 Jun 2027 22:32:41.941,557.407
82,10 Jun 2027 23:58:24.493,11 Jun 2027 00:11:13.203,768.710
83,11 Jun 2027 01:34:25.761,11 Jun 2027 01:46:16.099,710.338
84,11 Jun 2027 03:11:02.784,11 Jun 2027 03:18:26.555,443.771
85,11 Jun 2027 07:51:29.158,11 Jun 2027 07:57:16.291,347.133
86,11 Jun 2027 09:22:57.228,11 Jun 2027 09:34:06.883,669.655
87,11 Jun 2027 10:57:21.463,11 Jun 2027 11:10:15.744,774.281
88,11 Jun 2027 12:34:56.969,11 Jun 2027 12:45:37.039,640.069
89,11 Jun 2027 22:35:11.450,11 Jun 2027 22:45:18.963,607.513
90,12 Jun 2027 00:10:24.418,12 Jun 2027 00:23:17.684,773.266
91,12 Jun 2027 01:46:30.037,12 Jun 2027 01:57:58.710,688.673
92,12 Jun 2027 03:23:13.938,12 Jun 2027 03:29:45.957,392.019
93,12 Jun 2027 08:02:45.272,12 Jun 2027 08:09:29.312,404.040
94,12 Jun 2027 09:34:37.787,12 Jun 2027 09:46:11.546,693.758
95,12 Jun 2027 11:09:23.644,12 Jun 2027 11:22:16.214,772.571
96,12 Jun 2027 12:47:29.301,12 Jun 2027 12:57:26.548,597.247
97,12 Jun 2027 22:47:01.594,12 Jun 2027 22:57:50.072,648.478
98,13 Jun 2027 00:22:25.040,13 Jun 2027 00:35:19.219,774.179
99,13 Jun 2027 01:58:34.810,13 Jun 2027 02:09:38.686,663.877
100,13 Jun 2027 03:35:27.618,13 Jun 2027 03:41:01.013,333.395
101,13 Jun 2027 08:14:05.516,13 Jun 2027 08:21:40.037,454.520
102,13 Jun 2027 09:46:20.983,13 Jun 2027 09:58:15.717,714.734
103,13 Jun 2027 11:21:28.792,13 Jun 2027 11:34:15.976,767.183
104,13 Jun 2027 13:00:07.806,13 Jun 2027 13:09:12.582,544.775
105,13 Jun 2027 22:58:54.152,13 Jun 2027 23:10:16.170,682.018
