dataset/facility_timing/facility_Facility-Moscow/Moscow-To-KinoSat_110201.csv

Acces,Start Time (UTCG),Stop Time (UTCG),Duration (sec)
1,1 Jun 2027 00:02:27.762,1 Jun 2027 00:12:01.641,573.879
2,1 Jun 2027 06:16:05.161,1 Jun 2027 06:25:39.225,574.064
3,1 Jun 2027 07:49:23.170,1 Jun 2027 08:02:00.917,757.747
4,1 Jun 2027 09:25:37.370,1 Jun 2027 09:37:46.234,728.864
5,1 Jun 2027 11:06:33.703,1 Jun 2027 11:11:25.457,291.754
6,1 Jun 2027 19:28:00.453,1 Jun 2027 19:34:47.468,407.016
7,1 Jun 2027 21:02:17.804,1 Jun 2027 21:14:44.191,746.387
8,1 Jun 2027 22:38:08.888,1 Jun 2027 22:50:34.556,745.668
9,2 Jun 2027 00:14:35.022,2 Jun 2027 00:23:31.036,536.014
10,2 Jun 2027 04:57:15.466,2 Jun 2027 05:00:21.478,186.012
11,2 Jun 2027 06:27:37.383,2 Jun 2027 06:37:45.724,608.340
12,2 Jun 2027 08:01:16.694,2 Jun 2027 08:14:03.244,766.550
13,2 Jun 2027 09:37:55.593,2 Jun 2027 09:49:42.059,706.466
14,2 Jun 2027 19:39:34.631,2 Jun 2027 19:47:43.265,488.634
15,2 Jun 2027 21:14:15.983,2 Jun 2027 21:26:55.292,759.309
16,2 Jun 2027 22:50:12.203,2 Jun 2027 23:02:22.708,730.505
17,3 Jun 2027 00:26:43.222,3 Jun 2027 00:34:57.478,494.256
18,3 Jun 2027 05:08:15.005,3 Jun 2027 05:12:47.515,272.510
19,3 Jun 2027 06:39:12.345,3 Jun 2027 06:49:51.572,639.227
20,3 Jun 2027 08:13:12.946,3 Jun 2027 08:26:05.031,772.085
21,3 Jun 2027 09:50:17.830,3 Jun 2027 10:01:36.333,678.504
22,3 Jun 2027 19:51:16.422,3 Jun 2027 20:00:28.534,552.113
23,3 Jun 2027 21:26:15.069,3 Jun 2027 21:39:03.165,768.096
24,3 Jun 2027 23:02:16.000,3 Jun 2027 23:14:08.214,712.214
25,4 Jun 2027 00:38:52.616,4 Jun 2027 00:46:20.756,448.140
26,4 Jun 2027 05:19:24.783,4 Jun 2027 05:25:04.975,340.192
27,4 Jun 2027 06:50:49.985,4 Jun 2027 07:01:56.849,666.864
28,4 Jun 2027 08:25:11.984,4 Jun 2027 08:38:06.249,774.265
29,4 Jun 2027 10:02:44.520,4 Jun 2027 10:13:28.676,644.156
30,4 Jun 2027 20:03:02.998,4 Jun 2027 20:13:06.235,603.237
31,4 Jun 2027 21:38:14.958,4 Jun 2027 21:51:07.966,773.008
32,4 Jun 2027 23:14:20.275,4 Jun 2027 23:25:51.090,690.815
33,5 Jun 2027 00:51:03.665,5 Jun 2027 00:57:40.484,396.819
34,5 Jun 2027 05:30:40.357,5 Jun 2027 05:37:18.386,398.028
35,5 Jun 2027 07:02:30.279,5 Jun 2027 07:14:01.604,691.325
36,5 Jun 2027 08:37:13.889,5 Jun 2027 08:50:06.827,772.939
37,5 Jun 2027 10:15:16.315,5 Jun 2027 10:25:18.522,602.207
38,5 Jun 2027 20:14:52.906,5 Jun 2027 20:25:37.902,644.996
39,5 Jun 2027 21:50:15.551,5 Jun 2027 22:03:09.802,774.250
40,5 Jun 2027 23:26:25.044,5 Jun 2027 23:37:31.322,666.278
41,6 Jun 2027 01:03:17.148,6 Jun 2027 01:08:55.943,338.795
42,6 Jun 2027 05:42:00.176,6 Jun 2027 05:49:29.381,449.205
43,6 Jun 2027 07:14:13.213,6 Jun 2027 07:26:05.867,712.654
44,6 Jun 2027 08:49:18.751,6 Jun 2027 09:02:06.696,767.945
45,6 Jun 2027 10:27:54.155,6 Jun 2027 10:37:05.020,550.865
46,6 Jun 2027 20:26:45.294,6 Jun 2027 20:38:04.494,679.200
47,6 Jun 2027 22:02:16.778,6 Jun 2027 22:15:08.783,772.005
48,6 Jun 2027 23:38:30.341,6 Jun 2027 23:49:08.901,638.560
49,7 Jun 2027 01:15:34.741,7 Jun 2027 01:20:05.547,270.806
50,7 Jun 2027 05:53:23.526,7 Jun 2027 06:01:38.744,495.219
51,7 Jun 2027 07:25:58.781,7 Jun 2027 07:38:09.652,730.871
52,7 Jun 2027 09:01:26.697,7 Jun 2027 09:14:05.769,759.072
53,7 Jun 2027 10:40:39.621,7 Jun 2027 10:48:46.690,487.068
54,7 Jun 2027 19:06:59.764,7 Jun 2027 19:07:09.294,9.529
55,7 Jun 2027 20:38:39.605,7 Jun 2027 20:50:26.637,707.032
56,7 Jun 2027 22:14:18.582,7 Jun 2027 22:27:04.969,766.388
57,7 Jun 2027 23:50:36.205,8 Jun 2027 00:00:43.800,607.595
58,8 Jun 2027 01:28:01.123,8 Jun 2027 01:31:04.716,183.593
59,8 Jun 2027 06:04:50.044,8 Jun 2027 06:13:46.912,536.869
60,8 Jun 2027 07:37:46.992,8 Jun 2027 07:50:12.957,745.965
61,8 Jun 2027 09:13:37.871,8 Jun 2027 09:26:03.922,746.051
62,8 Jun 2027 10:53:35.694,8 Jun 2027 11:00:20.653,404.959
63,8 Jun 2027 19:16:55.086,8 Jun 2027 19:21:50.074,294.987
64,8 Jun 2027 20:50:35.459,8 Jun 2027 21:02:44.773,729.314
65,8 Jun 2027 22:26:20.925,8 Jun 2027 22:38:58.431,757.506
66,9 Jun 2027 00:02:42.719,9 Jun 2027 00:12:15.956,573.237
67,9 Jun 2027 06:16:19.501,9 Jun 2027 06:25:54.152,574.651
68,9 Jun 2027 07:49:37.865,9 Jun 2027 08:02:15.784,757.919
69,9 Jun 2027 09:25:52.471,9 Jun 2027 09:38:01.007,728.536
70,9 Jun 2027 11:06:50.017,9 Jun 2027 11:11:39.392,289.375
71,9 Jun 2027 19:28:14.718,9 Jun 2027 19:35:03.380,408.663
72,9 Jun 2027 21:02:32.584,9 Jun 2027 21:14:59.236,746.652
73,9 Jun 2027 22:38:23.769,9 Jun 2027 22:50:49.199,745.429
74,10 Jun 2027 00:14:49.994,10 Jun 2027 00:23:45.301,535.306
75,10 Jun 2027 04:57:29.167,10 Jun 2027 05:00:36.816,187.649
76,10 Jun 2027 06:27:51.769,10 Jun 2027 06:38:00.638,608.868
77,10 Jun 2027 08:01:31.433,10 Jun 2027 08:14:18.099,766.666
78,10 Jun 2027 09:38:10.758,10 Jun 2027 09:49:56.806,706.047
79,10 Jun 2027 19:39:49.068,10 Jun 2027 19:47:58.948,489.880
80,10 Jun 2027 21:14:30.776,10 Jun 2027 21:27:10.284,759.507
81,10 Jun 2027 22:50:27.094,10 Jun 2027 23:02:37.302,730.208
82,11 Jun 2027 00:26:58.210,11 Jun 2027 00:35:11.694,493.485
83,11 Jun 2027 05:08:28.947,11 Jun 2027 05:13:02.653,273.706
84,11 Jun 2027 06:39:26.771,11 Jun 2027 06:50:06.477,639.705
85,11 Jun 2027 08:13:27.728,11 Jun 2027 08:26:19.881,772.153
86,11 Jun 2027 09:50:33.062,11 Jun 2027 10:01:51.055,677.993
87,11 Jun 2027 19:51:30.967,11 Jun 2027 20:00:44.069,553.102
88,11 Jun 2027 21:26:29.883,11 Jun 2027 21:39:18.098,768.215
89,11 Jun 2027 23:02:30.899,11 Jun 2027 23:14:22.765,711.866
90,12 Jun 2027 00:39:07.634,12 Jun 2027 00:46:34.909,447.275
91,12 Jun 2027 05:19:38.834,12 Jun 2027 05:25:20.028,341.193
92,12 Jun 2027 06:51:04.457,12 Jun 2027 07:02:11.752,667.294
93,12 Jun 2027 08:25:26.817,12 Jun 2027 08:38:21.090,774.273
94,12 Jun 2027 10:02:59.837,12 Jun 2027 10:13:43.361,643.524
95,12 Jun 2027 20:03:17.614,12 Jun 2027 20:13:21.654,604.039
96,12 Jun 2027 21:38:29.787,12 Jun 2027 21:51:22.847,773.060
97,12 Jun 2027 23:14:35.184,12 Jun 2027 23:26:05.596,690.412
98,13 Jun 2027 00:51:18.719,13 Jun 2027 00:57:54.570,395.851
99,13 Jun 2027 05:30:54.483,13 Jun 2027 05:37:33.395,398.911
100,13 Jun 2027 07:02:44.796,13 Jun 2027 07:14:16.500,691.704
101,13 Jun 2027 08:37:28.771,13 Jun 2027 08:50:21.658,772.887
102,13 Jun 2027 10:15:31.725,13 Jun 2027 10:25:33.160,601.435
103,13 Jun 2027 20:15:07.574,13 Jun 2027 20:25:53.227,645.653
104,13 Jun 2027 21:50:30.393,13 Jun 2027 22:03:24.634,774.240
105,13 Jun 2027 23:26:39.962,13 Jun 2027 23:37:45.783,665.821
