dataset/facility_timing/facility_Facility-Moscow/Moscow-To-KinoSat_111805.csv

Acces,Start Time (UTCG),Stop Time (UTCG),Duration (sec)
1,1 Jun 2027 03:08:46.721,1 Jun 2027 03:13:15.174,268.453
2,1 Jun 2027 04:42:18.881,1 Jun 2027 04:54:24.632,725.751
3,1 Jun 2027 06:18:04.335,1 Jun 2027 06:30:43.762,759.426
4,1 Jun 2027 07:54:26.907,1 Jun 2027 08:04:05.412,578.505
5,1 Jun 2027 14:08:12.763,1 Jun 2027 14:17:33.782,561.020
6,1 Jun 2027 15:41:24.142,1 Jun 2027 15:53:58.465,754.323
7,1 Jun 2027 17:17:31.766,1 Jun 2027 17:29:46.799,735.032
8,1 Jun 2027 18:58:07.880,1 Jun 2027 19:03:41.936,334.057
9,2 Jun 2027 03:20:02.233,2 Jun 2027 03:26:34.437,392.204
10,2 Jun 2027 04:54:16.238,2 Jun 2027 05:06:40.334,744.096
11,2 Jun 2027 06:30:07.599,2 Jun 2027 06:42:35.365,747.766
12,2 Jun 2027 08:06:34.715,2 Jun 2027 08:15:35.242,540.528
13,2 Jun 2027 12:49:44.251,2 Jun 2027 12:51:58.303,134.052
14,2 Jun 2027 14:19:44.123,2 Jun 2027 14:29:41.175,597.052
15,2 Jun 2027 15:53:17.189,2 Jun 2027 16:06:01.451,764.262
16,2 Jun 2027 17:29:49.437,2 Jun 2027 17:41:43.483,714.045
17,2 Jun 2027 19:11:52.347,2 Jun 2027 19:14:33.941,161.594
18,3 Jun 2027 03:31:35.167,3 Jun 2027 03:39:33.190,478.023
19,3 Jun 2027 05:06:14.719,3 Jun 2027 05:18:52.523,757.804
20,3 Jun 2027 06:42:11.358,3 Jun 2027 06:54:24.244,732.886
21,3 Jun 2027 08:18:43.497,3 Jun 2027 08:27:02.041,498.544
22,3 Jun 2027 13:00:33.799,3 Jun 2027 13:04:34.333,240.534
23,3 Jun 2027 14:31:18.328,3 Jun 2027 14:41:47.839,629.511
24,3 Jun 2027 16:05:13.007,3 Jun 2027 16:18:03.904,770.896
25,3 Jun 2027 17:42:11.071,3 Jun 2027 17:53:38.696,687.625
26,4 Jun 2027 03:43:16.460,4 Jun 2027 03:52:20.592,544.132
27,4 Jun 2027 05:18:14.141,4 Jun 2027 05:31:01.392,767.251
28,4 Jun 2027 06:54:15.614,4 Jun 2027 07:06:10.415,714.802
29,4 Jun 2027 08:30:53.516,4 Jun 2027 08:38:25.571,452.056
30,4 Jun 2027 13:11:39.787,4 Jun 2027 13:16:55.583,315.796
31,4 Jun 2027 14:42:55.312,4 Jun 2027 14:53:53.876,658.563
32,4 Jun 2027 16:17:11.653,4 Jun 2027 16:30:05.780,774.127
33,4 Jun 2027 17:54:37.082,4 Jun 2027 18:05:32.077,654.995
34,5 Jun 2027 03:55:02.889,5 Jun 2027 04:05:00.010,597.120
35,5 Jun 2027 05:30:14.398,5 Jun 2027 05:43:07.118,772.720
36,5 Jun 2027 07:06:20.365,5 Jun 2027 07:17:53.897,693.532
37,5 Jun 2027 08:43:05.250,5 Jun 2027 08:49:45.442,400.192
38,5 Jun 2027 13:22:53.119,5 Jun 2027 13:29:11.257,378.138
39,5 Jun 2027 14:54:35.019,5 Jun 2027 15:05:59.352,684.333
40,5 Jun 2027 16:29:13.196,5 Jun 2027 16:42:07.021,773.825
41,5 Jun 2027 18:07:08.065,5 Jun 2027 18:17:23.117,615.052
42,6 Jun 2027 04:06:52.835,6 Jun 2027 04:17:33.143,640.308
43,6 Jun 2027 05:42:15.374,6 Jun 2027 05:55:09.813,774.440
44,6 Jun 2027 07:18:25.628,6 Jun 2027 07:29:34.674,669.046
45,6 Jun 2027 08:55:19.520,6 Jun 2027 09:01:00.888,341.368
46,6 Jun 2027 13:34:11.367,6 Jun 2027 13:41:23.865,432.498
47,6 Jun 2027 15:06:17.444,6 Jun 2027 15:18:04.306,706.862
48,6 Jun 2027 16:41:17.720,6 Jun 2027 16:54:07.567,769.847
49,6 Jun 2027 18:19:44.876,6 Jun 2027 18:29:11.057,566.181
50,7 Jun 2027 04:18:45.380,7 Jun 2027 04:30:01.019,675.639
51,7 Jun 2027 05:54:17.011,7 Jun 2027 06:07:09.578,772.567
52,7 Jun 2027 07:30:31.434,7 Jun 2027 07:41:12.731,641.297
53,7 Jun 2027 09:07:38.073,7 Jun 2027 09:12:10.250,272.177
54,7 Jun 2027 13:45:33.519,7 Jun 2027 13:53:34.493,480.974
55,7 Jun 2027 15:18:02.561,7 Jun 2027 15:30:08.760,726.199
56,7 Jun 2027 16:53:25.341,7 Jun 2027 17:06:07.328,761.987
57,7 Jun 2027 18:32:28.892,7 Jun 2027 18:40:54.604,505.712
58,8 Jun 2027 04:30:39.927,8 Jun 2027 04:42:24.307,704.380
59,8 Jun 2027 06:06:19.235,8 Jun 2027 06:19:06.498,767.263
60,8 Jun 2027 07:42:37.839,8 Jun 2027 07:52:48.036,610.197
61,8 Jun 2027 09:20:05.917,8 Jun 2027 09:23:08.619,182.703
62,8 Jun 2027 13:56:59.067,8 Jun 2027 14:05:43.728,524.661
63,8 Jun 2027 15:29:50.375,8 Jun 2027 15:42:12.717,742.342
64,8 Jun 2027 17:05:36.211,8 Jun 2027 17:18:06.188,749.977
65,8 Jun 2027 18:45:22.630,8 Jun 2027 18:52:31.360,428.729
66,9 Jun 2027 03:08:59.436,9 Jun 2027 03:13:40.317,280.881
67,9 Jun 2027 04:42:36.077,9 Jun 2027 04:54:43.480,727.403
68,9 Jun 2027 06:18:22.019,9 Jun 2027 06:31:00.624,758.605
69,9 Jun 2027 07:54:44.918,9 Jun 2027 08:04:20.526,575.609
70,9 Jun 2027 14:08:27.728,9 Jun 2027 14:17:51.891,564.163
71,9 Jun 2027 15:41:40.906,9 Jun 2027 15:54:16.176,755.269
72,9 Jun 2027 17:17:50.514,9 Jun 2027 17:30:03.999,733.484
73,9 Jun 2027 18:58:31.915,9 Jun 2027 19:03:55.613,323.698
74,10 Jun 2027 03:20:17.080,10 Jun 2027 03:26:57.189,400.109
75,10 Jun 2027 04:54:33.528,10 Jun 2027 05:06:58.891,745.363
76,10 Jun 2027 06:30:25.318,10 Jun 2027 06:42:52.006,746.688
77,10 Jun 2027 08:06:52.791,10 Jun 2027 08:15:50.121,537.329
78,10 Jun 2027 12:49:54.398,10 Jun 2027 12:52:20.178,145.780
79,10 Jun 2027 14:19:59.329,10 Jun 2027 14:29:59.214,599.885
80,10 Jun 2027 15:53:34.181,10 Jun 2027 16:06:19.116,764.936
81,10 Jun 2027 17:30:08.498,10 Jun 2027 17:42:00.571,712.073
82,10 Jun 2027 19:12:23.719,10 Jun 2027 19:14:40.543,136.825
83,11 Jun 2027 03:31:50.881,11 Jun 2027 03:39:54.824,483.943
84,11 Jun 2027 05:06:32.088,11 Jun 2027 05:19:10.799,758.711
85,11 Jun 2027 06:42:29.113,11 Jun 2027 06:54:40.664,731.551
86,11 Jun 2027 08:19:01.655,11 Jun 2027 08:27:16.669,495.015
87,11 Jun 2027 13:00:46.331,11 Jun 2027 13:04:53.949,247.618
88,11 Jun 2027 14:31:33.766,11 Jun 2027 14:42:05.820,632.054
89,11 Jun 2027 16:05:30.226,11 Jun 2027 16:18:21.518,771.292
90,11 Jun 2027 17:42:30.468,11 Jun 2027 17:53:55.644,685.176
91,12 Jun 2027 03:43:32.669,12 Jun 2027 03:52:41.489,548.820
92,12 Jun 2027 05:18:31.578,12 Jun 2027 05:31:19.410,767.832
93,12 Jun 2027 06:54:33.405,12 Jun 2027 07:06:26.617,713.212
94,12 Jun 2027 08:31:11.787,12 Jun 2027 08:38:39.926,448.139
95,12 Jun 2027 13:11:53.116,12 Jun 2027 13:17:14.541,321.425
96,12 Jun 2027 14:43:10.977,12 Jun 2027 14:54:11.807,660.830
97,12 Jun 2027 16:17:29.105,12 Jun 2027 16:30:23.342,774.237
98,12 Jun 2027 17:54:56.866,12 Jun 2027 18:05:48.851,651.985
99,13 Jun 2027 03:55:19.425,13 Jun 2027 04:05:20.348,600.922
100,13 Jun 2027 05:30:31.889,13 Jun 2027 05:43:24.885,772.996
101,13 Jun 2027 07:06:38.194,13 Jun 2027 07:18:09.880,691.686
102,13 Jun 2027 08:43:23.673,13 Jun 2027 08:49:59.480,395.807
103,13 Jun 2027 13:23:06.926,13 Jun 2027 13:29:29.883,382.957
104,13 Jun 2027 14:54:50.907,13 Jun 2027 15:06:17.235,686.328
105,13 Jun 2027 16:29:30.886,13 Jun 2027 16:42:24.525,773.639
106,13 Jun 2027 18:07:28.290,13 Jun 2027 18:17:39.665,611.375
