dataset/facility_timing/facility_Facility-Moscow/Moscow-To-KinoSat_111408.csv

Acces,Start Time (UTCG),Stop Time (UTCG),Duration (sec)
1,1 Jun 2027 02:52:45.561,1 Jun 2027 03:04:29.006,703.444
2,1 Jun 2027 04:28:24.136,1 Jun 2027 04:41:11.592,767.457
3,1 Jun 2027 06:04:41.951,1 Jun 2027 06:14:53.694,611.743
4,1 Jun 2027 07:42:06.265,1 Jun 2027 07:45:18.032,191.767
5,1 Jun 2027 12:19:03.079,1 Jun 2027 12:27:49.873,526.794
6,1 Jun 2027 13:51:55.116,1 Jun 2027 14:04:17.931,742.815
7,1 Jun 2027 15:27:41.267,1 Jun 2027 15:40:10.727,749.460
8,1 Jun 2027 17:07:28.688,1 Jun 2027 17:14:34.469,425.782
9,2 Jun 2027 01:31:07.608,2 Jun 2027 01:35:42.385,274.777
10,2 Jun 2027 03:04:41.464,2 Jun 2027 03:16:48.035,726.571
11,2 Jun 2027 04:40:26.676,2 Jun 2027 04:53:05.643,758.967
12,2 Jun 2027 06:16:48.719,2 Jun 2027 06:26:26.272,577.552
13,2 Jun 2027 12:30:31.853,2 Jun 2027 12:39:57.697,565.844
14,2 Jun 2027 14:03:45.578,2 Jun 2027 14:16:21.147,755.569
15,2 Jun 2027 15:39:55.413,2 Jun 2027 15:52:08.307,732.894
16,2 Jun 2027 17:20:38.200,2 Jun 2027 17:25:58.025,319.826
17,3 Jun 2027 01:42:24.084,3 Jun 2027 01:48:59.980,395.895
18,3 Jun 2027 03:16:38.670,3 Jun 2027 03:29:03.320,744.650
19,3 Jun 2027 04:52:29.730,3 Jun 2027 05:04:56.978,747.248
20,3 Jun 2027 06:28:56.251,3 Jun 2027 06:37:55.999,539.748
21,3 Jun 2027 11:11:54.227,3 Jun 2027 11:14:30.186,155.959
22,3 Jun 2027 12:42:03.524,3 Jun 2027 12:52:04.707,601.183
23,3 Jun 2027 14:15:38.759,3 Jun 2027 14:28:23.850,765.091
24,3 Jun 2027 15:52:13.218,3 Jun 2027 16:04:04.648,711.430
25,3 Jun 2027 17:34:32.420,3 Jun 2027 17:36:40.045,127.625
26,4 Jun 2027 01:53:57.268,4 Jun 2027 02:01:57.808,480.540
27,4 Jun 2027 03:28:36.985,4 Jun 2027 03:41:15.121,758.136
28,4 Jun 2027 05:04:33.273,4 Jun 2027 05:16:45.613,732.340
29,4 Jun 2027 06:41:04.734,4 Jun 2027 06:49:22.738,498.004
30,4 Jun 2027 11:22:48.429,4 Jun 2027 11:27:01.515,253.086
31,4 Jun 2027 12:53:37.990,4 Jun 2027 13:04:11.022,633.033
32,4 Jun 2027 14:27:34.687,4 Jun 2027 14:40:26.022,771.335
33,4 Jun 2027 16:04:34.989,4 Jun 2027 16:15:59.489,684.500
34,5 Jun 2027 02:05:38.601,5 Jun 2027 02:14:44.523,545.922
35,5 Jun 2027 03:40:36.230,5 Jun 2027 03:53:23.643,767.413
36,5 Jun 2027 05:16:37.306,5 Jun 2027 05:28:31.569,714.263
37,5 Jun 2027 06:53:14.424,5 Jun 2027 07:00:46.263,451.839
38,5 Jun 2027 11:33:56.008,5 Jun 2027 11:39:21.124,325.116
39,5 Jun 2027 13:05:15.194,5 Jun 2027 13:16:16.735,661.541
40,5 Jun 2027 14:39:33.426,5 Jun 2027 14:52:27.620,774.193
41,5 Jun 2027 16:17:01.166,5 Jun 2027 16:27:52.468,651.303
42,6 Jun 2027 02:17:24.975,6 Jun 2027 02:27:23.378,598.403
43,6 Jun 2027 03:52:36.296,6 Jun 2027 04:05:29.047,772.751
44,6 Jun 2027 05:28:41.827,6 Jun 2027 05:40:14.863,693.036
45,6 Jun 2027 07:05:25.780,6 Jun 2027 07:12:06.197,400.417
46,6 Jun 2027 11:45:10.240,6 Jun 2027 11:51:35.835,385.596
47,6 Jun 2027 13:16:55.085,6 Jun 2027 13:28:21.901,686.816
48,6 Jun 2027 14:51:35.044,6 Jun 2027 15:04:28.582,773.538
49,6 Jun 2027 16:29:32.345,6 Jun 2027 16:39:43.058,610.712
50,7 Jun 2027 02:29:14.815,7 Jun 2027 02:39:56.025,641.210
51,7 Jun 2027 04:04:37.080,7 Jun 2027 04:17:31.449,774.369
52,7 Jun 2027 05:40:46.848,7 Jun 2027 05:51:55.481,668.632
53,7 Jun 2027 07:17:39.590,7 Jun 2027 07:23:21.811,342.221
54,7 Jun 2027 11:56:29.099,7 Jun 2027 12:03:47.759,438.659
55,7 Jun 2027 13:28:37.658,7 Jun 2027 13:40:26.554,708.896
56,7 Jun 2027 15:03:39.632,7 Jun 2027 15:16:28.846,769.214
57,7 Jun 2027 16:42:09.417,7 Jun 2027 16:51:30.469,561.052
58,8 Jun 2027 02:41:07.221,8 Jun 2027 02:52:23.473,676.252
59,8 Jun 2027 04:16:38.515,8 Jun 2027 04:29:30.947,772.432
60,8 Jun 2027 05:52:52.403,8 Jun 2027 06:03:33.410,641.007
61,8 Jun 2027 07:29:57.516,8 Jun 2027 07:34:31.531,274.015
62,8 Jun 2027 12:07:51.703,8 Jun 2027 12:15:57.852,486.148
63,8 Jun 2027 13:40:22.901,8 Jun 2027 13:52:30.718,727.817
64,8 Jun 2027 15:15:47.306,8 Jun 2027 15:28:28.318,761.012
65,8 Jun 2027 16:54:53.817,8 Jun 2027 17:03:13.353,499.536
66,9 Jun 2027 02:53:01.607,9 Jun 2027 03:04:46.377,704.769
67,9 Jun 2027 04:28:40.534,9 Jun 2027 04:41:27.626,767.093
68,9 Jun 2027 06:04:58.544,9 Jun 2027 06:15:08.618,610.074
69,9 Jun 2027 07:42:24.212,9 Jun 2027 07:45:30.797,186.584
70,9 Jun 2027 12:19:17.603,9 Jun 2027 12:28:06.626,529.023
71,9 Jun 2027 13:52:10.817,9 Jun 2027 14:04:34.400,743.583
72,9 Jun 2027 15:27:58.209,9 Jun 2027 15:40:26.892,748.683
73,9 Jun 2027 17:07:48.198,9 Jun 2027 17:14:49.163,420.965
74,10 Jun 2027 01:31:20.926,10 Jun 2027 01:36:03.519,282.593
75,10 Jun 2027 03:04:57.581,10 Jun 2027 03:17:05.202,727.621
76,10 Jun 2027 04:40:43.097,10 Jun 2027 04:53:21.537,758.440
77,10 Jun 2027 06:17:05.341,10 Jun 2027 06:26:41.051,575.710
78,10 Jun 2027 12:30:46.544,10 Jun 2027 12:40:14.397,567.854
79,10 Jun 2027 14:04:01.422,10 Jun 2027 14:16:37.586,756.164
80,10 Jun 2027 15:40:12.542,10 Jun 2027 15:52:24.405,731.864
81,10 Jun 2027 17:20:58.906,10 Jun 2027 17:26:11.684,312.778
82,11 Jun 2027 01:42:38.719,11 Jun 2027 01:49:19.629,400.910
83,11 Jun 2027 03:16:54.846,11 Jun 2027 03:29:20.299,745.453
84,11 Jun 2027 04:52:46.173,11 Jun 2027 05:05:12.729,746.556
85,11 Jun 2027 06:29:12.911,11 Jun 2027 06:38:10.629,537.717
86,11 Jun 2027 11:12:06.208,11 Jun 2027 11:14:48.908,162.700
87,11 Jun 2027 12:42:18.363,11 Jun 2027 12:52:21.362,603.000
88,11 Jun 2027 14:15:54.747,11 Jun 2027 14:28:40.260,765.513
89,11 Jun 2027 15:52:30.549,11 Jun 2027 16:04:20.673,710.124
90,11 Jun 2027 17:34:59.984,11 Jun 2027 17:36:47.012,107.028
91,12 Jun 2027 01:54:12.446,12 Jun 2027 02:02:16.751,484.305
92,12 Jun 2027 03:28:53.210,12 Jun 2027 03:41:31.923,758.713
93,12 Jun 2027 05:04:49.738,12 Jun 2027 05:17:01.224,731.486
94,12 Jun 2027 06:41:21.444,12 Jun 2027 06:49:37.211,495.768
95,12 Jun 2027 11:23:01.611,12 Jun 2027 11:27:19.121,257.510
96,12 Jun 2027 12:53:52.976,12 Jun 2027 13:04:27.639,634.662
97,12 Jun 2027 14:27:50.823,12 Jun 2027 14:40:42.400,771.576
98,12 Jun 2027 16:04:52.541,12 Jun 2027 16:16:15.421,682.880
99,13 Jun 2027 02:05:54.095,13 Jun 2027 02:15:02.998,548.904
100,13 Jun 2027 03:40:52.496,13 Jun 2027 03:53:40.276,767.780
101,13 Jun 2027 05:16:53.792,13 Jun 2027 05:28:47.041,713.248
102,13 Jun 2027 06:53:31.198,13 Jun 2027 07:01:00.565,449.367
103,13 Jun 2027 11:34:09.657,13 Jun 2027 11:39:38.350,328.693
104,13 Jun 2027 13:05:30.325,13 Jun 2027 13:16:33.316,662.991
105,13 Jun 2027 14:39:49.712,13 Jun 2027 14:52:43.959,774.247
106,13 Jun 2027 16:17:18.967,13 Jun 2027 16:28:08.283,649.316
