dataset/facility_timing/facility_Facility-Moscow/Moscow-To-KinoSat_111503.csv

Acces,Start Time (UTCG),Stop Time (UTCG),Duration (sec)
1,1 Jun 2027 02:02:46.833,1 Jun 2027 02:08:47.049,360.216
2,1 Jun 2027 03:36:50.202,1 Jun 2027 03:49:09.215,739.013
3,1 Jun 2027 05:12:39.470,1 Jun 2027 05:25:11.094,751.624
4,1 Jun 2027 06:49:04.622,1 Jun 2027 06:58:17.544,552.922
5,1 Jun 2027 11:32:39.271,1 Jun 2027 11:34:19.191,99.920
6,1 Jun 2027 13:02:24.174,1 Jun 2027 13:12:12.892,588.718
7,1 Jun 2027 14:35:51.699,1 Jun 2027 14:48:33.742,762.043
8,1 Jun 2027 16:12:17.290,1 Jun 2027 16:24:17.065,719.775
9,1 Jun 2027 17:53:50.903,1 Jun 2027 17:57:30.310,219.407
10,2 Jun 2027 02:14:15.869,2 Jun 2027 02:21:50.200,454.331
11,2 Jun 2027 03:48:48.205,2 Jun 2027 04:01:22.254,754.048
12,2 Jun 2027 05:24:42.911,2 Jun 2027 05:37:00.687,737.776
13,2 Jun 2027 07:01:12.840,2 Jun 2027 07:09:45.309,512.469
14,2 Jun 2027 11:43:21.083,2 Jun 2027 11:47:02.407,221.324
15,2 Jun 2027 13:13:57.649,2 Jun 2027 13:24:19.515,621.866
16,2 Jun 2027 14:47:46.683,2 Jun 2027 15:00:36.168,769.485
17,2 Jun 2027 16:24:37.666,2 Jun 2027 16:36:12.534,694.868
18,3 Jun 2027 02:25:54.948,3 Jun 2027 02:34:40.305,525.356
19,3 Jun 2027 04:00:47.204,3 Jun 2027 04:13:31.938,764.734
20,3 Jun 2027 05:36:46.836,3 Jun 2027 05:48:47.588,720.752
21,3 Jun 2027 07:13:22.170,3 Jun 2027 07:21:09.940,467.770
22,3 Jun 2027 11:54:24.973,3 Jun 2027 11:59:25.159,300.186
23,3 Jun 2027 13:25:33.890,3 Jun 2027 13:36:25.509,651.618
24,3 Jun 2027 14:59:44.457,3 Jun 2027 15:12:38.035,773.578
25,3 Jun 2027 16:37:02.282,3 Jun 2027 16:48:06.282,664.000
26,4 Jun 2027 02:37:39.879,4 Jun 2027 02:47:21.689,581.810
27,4 Jun 2027 04:12:47.058,4 Jun 2027 04:25:38.439,771.382
28,4 Jun 2027 05:48:51.258,4 Jun 2027 06:00:31.814,700.557
29,4 Jun 2027 07:25:33.005,4 Jun 2027 07:32:31.115,418.111
30,4 Jun 2027 12:05:37.050,4 Jun 2027 12:11:41.443,364.393
31,4 Jun 2027 13:37:12.839,4 Jun 2027 13:48:30.934,678.096
32,4 Jun 2027 15:11:45.088,4 Jun 2027 15:24:39.286,774.198
33,4 Jun 2027 16:49:31.671,4 Jun 2027 16:59:57.850,626.178
34,5 Jun 2027 02:49:28.718,5 Jun 2027 02:59:56.395,627.677
35,5 Jun 2027 04:24:47.663,5 Jun 2027 04:37:41.908,774.244
36,5 Jun 2027 06:00:56.168,5 Jun 2027 06:12:13.368,677.200
37,5 Jun 2027 07:37:45.986,5 Jun 2027 07:43:48.244,362.258
38,5 Jun 2027 12:16:54.326,5 Jun 2027 12:23:54.350,420.024
39,5 Jun 2027 13:48:54.482,5 Jun 2027 14:00:35.836,701.354
40,5 Jun 2027 15:23:48.660,5 Jun 2027 15:36:39.867,771.207
41,5 Jun 2027 17:02:06.604,5 Jun 2027 17:11:46.562,579.959
42,6 Jun 2027 03:01:20.384,6 Jun 2027 03:12:25.600,665.216
43,6 Jun 2027 04:36:48.943,6 Jun 2027 04:49:42.430,773.488
44,6 Jun 2027 06:13:01.606,6 Jun 2027 06:23:52.225,650.620
45,6 Jun 2027 07:50:02.405,6 Jun 2027 07:55:00.120,297.715
46,6 Jun 2027 12:28:15.621,6 Jun 2027 12:36:05.129,469.508
47,6 Jun 2027 14:00:38.804,6 Jun 2027 14:12:40.234,721.430
48,6 Jun 2027 15:35:55.278,6 Jun 2027 15:48:39.685,764.407
49,6 Jun 2027 17:14:48.268,6 Jun 2027 17:23:31.305,523.037
50,7 Jun 2027 03:13:14.205,7 Jun 2027 03:24:50.051,695.846
51,7 Jun 2027 04:48:50.822,7 Jun 2027 05:01:40.104,769.282
52,7 Jun 2027 06:25:07.613,7 Jun 2027 06:35:28.372,620.759
53,7 Jun 2027 08:02:25.463,7 Jun 2027 08:06:03.646,218.182
54,7 Jun 2027 12:39:40.365,7 Jun 2027 12:48:14.426,514.061
55,7 Jun 2027 14:12:25.803,7 Jun 2027 14:24:44.151,738.348
56,7 Jun 2027 15:48:05.079,7 Jun 2027 16:00:38.645,753.566
57,7 Jun 2027 17:27:38.763,7 Jun 2027 17:35:10.100,451.338
58,8 Jun 2027 01:51:53.856,8 Jun 2027 01:55:40.111,226.255
59,8 Jun 2027 03:25:09.734,8 Jun 2027 03:37:10.286,720.552
60,8 Jun 2027 05:00:53.267,8 Jun 2027 05:13:34.986,761.719
61,8 Jun 2027 06:37:14.251,8 Jun 2027 06:47:01.751,587.500
62,8 Jun 2027 08:15:10.327,8 Jun 2027 08:16:43.742,93.415
63,8 Jun 2027 12:51:08.238,8 Jun 2027 13:00:22.613,554.375
64,8 Jun 2027 14:24:15.492,8 Jun 2027 14:36:47.573,752.082
65,8 Jun 2027 16:00:18.242,8 Jun 2027 16:12:36.612,738.370
66,8 Jun 2027 17:40:42.558,8 Jun 2027 17:46:38.597,356.038
67,9 Jun 2027 02:03:01.188,9 Jun 2027 02:09:07.893,366.705
68,9 Jun 2027 03:37:06.642,9 Jun 2027 03:49:26.674,740.032
69,9 Jun 2027 05:12:56.230,9 Jun 2027 05:25:27.130,750.899
70,9 Jun 2027 06:49:21.629,9 Jun 2027 06:58:32.295,550.666
71,9 Jun 2027 11:32:49.119,9 Jun 2027 11:34:40.368,111.248
72,9 Jun 2027 13:02:39.058,9 Jun 2027 13:12:29.922,590.864
73,9 Jun 2027 14:36:07.897,9 Jun 2027 14:48:50.492,762.595
74,9 Jun 2027 16:12:34.987,9 Jun 2027 16:24:33.394,718.407
75,9 Jun 2027 17:54:14.864,9 Jun 2027 17:57:41.706,206.842
76,10 Jun 2027 02:14:31.023,10 Jun 2027 02:22:10.059,459.036
77,10 Jun 2027 03:49:04.709,10 Jun 2027 04:01:39.501,754.792
78,10 Jun 2027 05:24:59.701,10 Jun 2027 05:37:16.560,736.859
79,10 Jun 2027 07:01:29.900,10 Jun 2027 07:09:59.890,509.991
80,10 Jun 2027 11:43:33.816,10 Jun 2027 11:47:20.784,226.968
81,10 Jun 2027 13:14:12.700,10 Jun 2027 13:24:36.498,623.798
82,10 Jun 2027 14:48:03.045,10 Jun 2027 15:00:52.877,769.832
83,10 Jun 2027 16:24:55.612,10 Jun 2027 16:36:28.766,693.154
84,11 Jun 2027 02:26:10.530,11 Jun 2027 02:34:59.563,529.033
85,11 Jun 2027 04:01:03.759,11 Jun 2027 04:13:48.992,765.233
86,11 Jun 2027 05:37:03.652,11 Jun 2027 05:49:03.302,719.650
87,11 Jun 2027 07:13:39.301,11 Jun 2027 07:21:24.327,465.026
88,11 Jun 2027 11:54:38.398,11 Jun 2027 11:59:42.941,304.543
89,11 Jun 2027 13:25:49.108,11 Jun 2027 13:36:42.452,653.344
90,11 Jun 2027 15:00:00.989,11 Jun 2027 15:12:54.706,773.717
91,11 Jun 2027 16:37:20.500,11 Jun 2027 16:48:22.392,661.892
92,12 Jun 2027 02:37:55.726,12 Jun 2027 02:47:40.505,584.779
93,12 Jun 2027 04:13:03.656,12 Jun 2027 04:25:55.312,771.656
94,12 Jun 2027 05:49:08.099,12 Jun 2027 06:00:47.369,699.270
95,12 Jun 2027 07:25:50.232,12 Jun 2027 07:32:45.288,415.056
96,12 Jun 2027 12:05:50.863,12 Jun 2027 12:11:58.946,368.083
97,12 Jun 2027 13:37:28.221,12 Jun 2027 13:48:47.840,679.619
98,12 Jun 2027 15:12:01.795,12 Jun 2027 15:24:55.914,774.119
99,12 Jun 2027 16:49:50.199,12 Jun 2027 17:00:13.803,623.604
100,13 Jun 2027 02:49:44.752,13 Jun 2027 03:00:14.856,630.104
101,13 Jun 2027 04:25:04.300,13 Jun 2027 04:37:58.597,774.297
102,13 Jun 2027 06:01:13.035,13 Jun 2027 06:12:28.763,675.728
103,13 Jun 2027 07:38:03.360,13 Jun 2027 07:44:02.157,358.797
104,13 Jun 2027 12:17:08.417,13 Jun 2027 12:24:11.684,423.267
105,13 Jun 2027 13:49:10.027,13 Jun 2027 14:00:52.703,702.676
106,13 Jun 2027 15:24:05.543,13 Jun 2027 15:36:56.448,770.904
107,13 Jun 2027 17:02:25.501,13 Jun 2027 17:12:02.307,576.806
