dataset/facility_timing/facility_Facility-Moscow/Moscow-To-KinoSat_111509.csv

Acces,Start Time (UTCG),Stop Time (UTCG),Duration (sec)
1,1 Jun 2027 02:39:55.026,1 Jun 2027 02:49:45.614,590.588
2,1 Jun 2027 04:15:04.482,1 Jun 2027 04:27:56.639,772.157
3,1 Jun 2027 05:51:09.461,1 Jun 2027 06:02:46.125,696.664
4,1 Jun 2027 07:27:52.501,1 Jun 2027 07:34:41.235,408.734
5,1 Jun 2027 12:07:46.596,1 Jun 2027 12:14:01.253,374.657
6,1 Jun 2027 13:39:26.788,1 Jun 2027 13:50:49.191,682.402
7,1 Jun 2027 15:14:02.868,1 Jun 2027 15:26:56.809,773.941
8,1 Jun 2027 16:51:54.748,1 Jun 2027 17:02:13.476,618.728
9,2 Jun 2027 02:51:44.424,2 Jun 2027 03:02:19.281,634.857
10,2 Jun 2027 04:27:05.208,2 Jun 2027 04:39:59.578,774.371
11,2 Jun 2027 06:03:14.462,2 Jun 2027 06:14:27.205,672.744
12,2 Jun 2027 07:40:05.972,2 Jun 2027 07:45:57.549,351.577
13,2 Jun 2027 12:19:04.634,2 Jun 2027 12:26:13.721,429.087
14,2 Jun 2027 13:51:08.902,2 Jun 2027 14:02:54.004,705.102
15,2 Jun 2027 15:26:06.967,2 Jun 2027 15:38:57.264,770.297
16,2 Jun 2027 17:04:30.760,2 Jun 2027 17:14:01.591,570.831
17,3 Jun 2027 03:03:36.513,3 Jun 2027 03:14:47.603,671.090
18,3 Jun 2027 04:39:06.600,3 Jun 2027 04:51:59.593,772.993
19,3 Jun 2027 06:15:19.997,3 Jun 2027 06:26:05.589,645.592
20,3 Jun 2027 07:52:23.239,3 Jun 2027 07:57:08.270,285.032
21,3 Jun 2027 12:30:26.568,3 Jun 2027 12:38:24.207,477.639
22,3 Jun 2027 14:02:53.694,3 Jun 2027 14:14:58.321,724.627
23,3 Jun 2027 15:38:14.135,3 Jun 2027 15:50:56.940,762.805
24,3 Jun 2027 17:17:13.785,3 Jun 2027 17:25:45.472,511.687
25,4 Jun 2027 03:15:30.664,4 Jun 2027 03:27:11.280,700.617
26,4 Jun 2027 04:51:08.581,4 Jun 2027 05:03:56.773,768.191
27,4 Jun 2027 06:27:26.114,4 Jun 2027 06:37:41.250,615.137
28,4 Jun 2027 08:04:48.217,4 Jun 2027 08:08:09.580,201.362
29,4 Jun 2027 12:41:51.876,4 Jun 2027 12:50:33.290,521.415
30,4 Jun 2027 14:14:41.165,4 Jun 2027 14:27:02.153,740.988
31,4 Jun 2027 15:50:24.512,4 Jun 2027 16:02:55.737,751.225
32,4 Jun 2027 17:30:06.178,4 Jun 2027 17:37:22.889,436.711
33,5 Jun 2027 01:53:58.721,5 Jun 2027 01:58:16.387,257.666
34,5 Jun 2027 03:27:26.459,5 Jun 2027 03:39:30.807,724.348
35,5 Jun 2027 05:03:11.123,5 Jun 2027 05:15:51.167,760.045
36,5 Jun 2027 06:39:32.876,5 Jun 2027 06:49:14.137,581.261
37,5 Jun 2027 08:17:48.306,5 Jun 2027 08:18:34.182,45.876
38,5 Jun 2027 12:53:20.274,5 Jun 2027 13:02:41.307,561.033
39,5 Jun 2027 14:26:31.328,5 Jun 2027 14:39:05.490,754.161
40,5 Jun 2027 16:02:38.287,5 Jun 2027 16:14:53.512,735.226
41,5 Jun 2027 17:43:13.217,5 Jun 2027 17:48:48.676,335.459
42,6 Jun 2027 02:05:12.194,6 Jun 2027 02:11:37.468,385.274
43,6 Jun 2027 03:39:23.587,6 Jun 2027 03:51:46.550,742.963
44,6 Jun 2027 05:15:14.180,6 Jun 2027 05:27:42.833,748.653
45,6 Jun 2027 06:51:40.396,6 Jun 2027 07:00:44.173,543.777
46,6 Jun 2027 11:34:49.994,6 Jun 2027 11:37:07.980,137.986
47,6 Jun 2027 13:04:51.593,6 Jun 2027 13:14:48.486,596.893
48,6 Jun 2027 14:38:24.212,6 Jun 2027 14:51:08.314,764.102
49,6 Jun 2027 16:14:55.694,6 Jun 2027 16:26:50.067,714.372
50,6 Jun 2027 17:56:56.281,6 Jun 2027 17:59:41.602,165.321
51,7 Jun 2027 02:16:44.225,7 Jun 2027 02:24:36.912,472.688
52,7 Jun 2027 03:51:21.845,7 Jun 2027 04:03:58.780,756.936
53,7 Jun 2027 05:27:17.732,7 Jun 2027 05:39:31.790,734.058
54,7 Jun 2027 07:03:48.851,7 Jun 2027 07:12:11.225,502.374
55,7 Jun 2027 11:45:40.655,7 Jun 2027 11:49:42.710,242.055
56,7 Jun 2027 13:16:25.727,7 Jun 2027 13:26:54.950,629.223
57,7 Jun 2027 14:50:19.847,7 Jun 2027 15:03:10.611,770.764
58,7 Jun 2027 16:27:17.036,7 Jun 2027 16:38:45.161,688.125
59,8 Jun 2027 02:28:24.931,8 Jun 2027 02:37:24.698,539.767
60,8 Jun 2027 04:03:21.049,8 Jun 2027 04:16:07.697,766.648
61,8 Jun 2027 05:39:21.774,8 Jun 2027 05:51:18.059,716.285
62,8 Jun 2027 07:15:58.490,8 Jun 2027 07:23:35.076,456.586
63,8 Jun 2027 11:56:46.982,8 Jun 2027 12:02:03.419,316.438
64,8 Jun 2027 13:28:02.615,8 Jun 2027 13:39:00.797,658.182
65,8 Jun 2027 15:02:18.289,8 Jun 2027 15:15:12.336,774.046
66,8 Jun 2027 16:39:42.723,8 Jun 2027 16:50:38.440,655.717
67,9 Jun 2027 02:40:10.912,9 Jun 2027 02:50:04.370,593.458
68,9 Jun 2027 04:15:21.086,9 Jun 2027 04:28:13.478,772.392
69,9 Jun 2027 05:51:26.309,9 Jun 2027 06:03:01.658,695.349
70,9 Jun 2027 07:28:09.752,9 Jun 2027 07:34:55.369,405.617
71,9 Jun 2027 12:08:00.465,9 Jun 2027 12:14:18.724,378.259
72,9 Jun 2027 13:39:42.201,9 Jun 2027 13:51:06.096,683.895
73,9 Jun 2027 15:14:19.609,9 Jun 2027 15:27:13.431,773.822
74,9 Jun 2027 16:52:13.340,9 Jun 2027 17:02:29.400,616.060
75,10 Jun 2027 02:52:00.489,10 Jun 2027 03:02:37.690,637.200
76,10 Jun 2027 04:27:21.854,10 Jun 2027 04:40:16.240,774.385
77,10 Jun 2027 06:03:31.337,10 Jun 2027 06:14:42.575,671.238
78,10 Jun 2027 07:40:23.384,10 Jun 2027 07:46:11.411,348.027
79,10 Jun 2027 12:19:18.770,10 Jun 2027 12:26:31.036,432.265
80,10 Jun 2027 13:51:24.479,10 Jun 2027 14:03:10.872,706.393
81,10 Jun 2027 15:26:23.890,10 Jun 2027 15:39:13.839,769.949
82,10 Jun 2027 17:04:49.730,10 Jun 2027 17:14:17.295,567.565
83,11 Jun 2027 03:03:52.711,11 Jun 2027 03:15:05.717,673.006
84,11 Jun 2027 04:39:23.280,11 Jun 2027 04:52:16.082,772.802
85,11 Jun 2027 06:15:36.901,11 Jun 2027 06:26:20.799,643.898
86,11 Jun 2027 07:52:40.938,11 Jun 2027 07:57:21.738,280.800
87,11 Jun 2027 12:30:40.926,11 Jun 2027 12:38:41.414,480.488
88,11 Jun 2027 14:03:09.433,11 Jun 2027 14:15:15.156,725.723
89,11 Jun 2027 15:38:31.248,11 Jun 2027 15:51:13.461,762.213
90,11 Jun 2027 17:17:33.243,11 Jun 2027 17:26:00.856,507.613
91,12 Jun 2027 03:15:46.966,12 Jun 2027 03:27:29.135,702.169
92,12 Jun 2027 04:51:25.292,12 Jun 2027 05:04:13.092,767.799
93,12 Jun 2027 06:27:43.049,12 Jun 2027 06:37:56.297,613.248
94,12 Jun 2027 08:05:06.609,12 Jun 2027 08:08:22.255,195.646
95,12 Jun 2027 12:42:06.432,12 Jun 2027 12:50:50.418,523.985
96,12 Jun 2027 14:14:57.066,12 Jun 2027 14:27:18.954,741.888
97,12 Jun 2027 15:50:41.824,12 Jun 2027 16:03:12.201,750.377
98,12 Jun 2027 17:30:26.333,12 Jun 2027 17:37:37.754,431.421
99,13 Jun 2027 01:54:11.602,13 Jun 2027 01:58:38.846,267.244
100,13 Jun 2027 03:27:42.845,13 Jun 2027 03:39:48.426,725.581
101,13 Jun 2027 05:03:27.863,13 Jun 2027 05:16:07.323,759.461
102,13 Jun 2027 06:39:49.847,13 Jun 2027 06:49:29.018,579.171
103,13 Jun 2027 12:53:35.015,13 Jun 2027 13:02:58.372,563.357
104,13 Jun 2027 14:26:47.393,13 Jun 2027 14:39:22.256,754.864
105,13 Jun 2027 16:02:55.810,13 Jun 2027 16:15:09.900,734.090
106,13 Jun 2027 17:43:34.608,13 Jun 2027 17:49:02.488,327.880
