dataset/facility_timing/facility_Facility-Moscow/Moscow-To-KinoSat_110706.csv

Acces,Start Time (UTCG),Stop Time (UTCG),Duration (sec)
1,1 Jun 2027 00:27:23.620,1 Jun 2027 00:40:09.939,766.319
2,1 Jun 2027 02:03:23.386,1 Jun 2027 02:15:20.343,716.958
3,1 Jun 2027 03:39:58.455,1 Jun 2027 03:47:38.382,459.927
4,1 Jun 2027 08:20:44.353,1 Jun 2027 08:26:09.890,325.537
5,1 Jun 2027 09:52:03.430,1 Jun 2027 10:03:04.082,660.652
6,1 Jun 2027 11:26:20.331,1 Jun 2027 11:39:14.386,774.056
7,1 Jun 2027 13:03:46.105,1 Jun 2027 13:14:39.001,652.896
8,1 Jun 2027 23:04:14.365,1 Jun 2027 23:14:06.087,591.722
9,2 Jun 2027 00:39:23.305,2 Jun 2027 00:52:15.455,772.150
10,2 Jun 2027 02:15:27.523,2 Jun 2027 02:27:03.850,696.327
11,2 Jun 2027 03:52:09.001,2 Jun 2027 03:58:59.046,410.045
12,2 Jun 2027 08:31:58.772,2 Jun 2027 08:38:24.012,385.240
13,2 Jun 2027 10:03:43.090,2 Jun 2027 10:15:08.935,685.845
14,2 Jun 2027 11:38:21.533,2 Jun 2027 11:51:15.099,773.567
15,2 Jun 2027 13:16:16.593,2 Jun 2027 13:26:29.478,612.885
16,2 Jun 2027 23:16:03.539,2 Jun 2027 23:26:39.090,635.551
17,3 Jun 2027 00:51:23.714,3 Jun 2027 01:04:17.986,774.271
18,3 Jun 2027 02:27:32.139,3 Jun 2027 02:38:44.723,672.584
19,3 Jun 2027 04:04:21.728,3 Jun 2027 04:10:15.676,353.947
20,3 Jun 2027 08:43:17.684,3 Jun 2027 08:50:35.444,437.761
21,3 Jun 2027 10:15:25.390,3 Jun 2027 10:27:13.288,707.897
22,3 Jun 2027 11:50:25.668,3 Jun 2027 12:03:15.128,769.460
23,3 Jun 2027 13:28:52.865,3 Jun 2027 13:38:16.851,563.986
24,3 Jun 2027 23:27:55.366,3 Jun 2027 23:39:06.827,671.461
25,4 Jun 2027 01:03:24.777,4 Jun 2027 01:16:17.633,772.856
26,4 Jun 2027 02:39:37.272,4 Jun 2027 02:50:22.950,645.677
27,4 Jun 2027 04:16:37.989,4 Jun 2027 04:21:27.007,289.018
28,4 Jun 2027 08:54:40.255,4 Jun 2027 09:02:45.117,484.862
29,4 Jun 2027 10:27:10.321,4 Jun 2027 10:39:17.163,726.841
30,4 Jun 2027 12:02:32.847,4 Jun 2027 12:15:14.375,761.527
31,4 Jun 2027 13:41:36.298,4 Jun 2027 13:49:59.826,503.528
32,4 Jun 2027 23:39:49.231,4 Jun 2027 23:51:29.979,700.749
33,5 Jun 2027 01:15:26.418,5 Jun 2027 01:28:14.483,768.065
34,5 Jun 2027 02:51:42.966,5 Jun 2027 03:01:58.504,615.538
35,5 Jun 2027 04:29:01.231,5 Jun 2027 04:32:29.690,208.459
36,5 Jun 2027 09:06:06.049,5 Jun 2027 09:14:53.507,527.458
37,5 Jun 2027 10:38:57.891,5 Jun 2027 10:51:20.567,742.675
38,5 Jun 2027 12:14:43.212,5 Jun 2027 12:27:12.738,749.526
39,5 Jun 2027 13:54:29.411,5 Jun 2027 14:01:35.995,426.584
40,5 Jun 2027 22:18:17.987,5 Jun 2027 22:22:35.474,257.487
41,5 Jun 2027 23:51:44.718,6 Jun 2027 00:03:49.031,724.313
42,6 Jun 2027 01:27:28.611,6 Jun 2027 01:40:08.588,759.976
43,6 Jun 2027 03:03:49.280,6 Jun 2027 03:13:31.338,582.058
44,6 Jun 2027 04:41:50.138,6 Jun 2027 04:43:05.142,75.004
45,6 Jun 2027 09:17:34.822,6 Jun 2027 09:27:00.921,566.098
46,6 Jun 2027 10:50:48.116,6 Jun 2027 11:03:23.485,755.370
47,6 Jun 2027 12:26:56.957,6 Jun 2027 12:39:10.072,733.114
48,6 Jun 2027 14:07:38.074,6 Jun 2027 14:12:59.606,321.532
49,6 Jun 2027 22:29:31.216,6 Jun 2027 22:35:55.895,384.679
50,7 Jun 2027 00:03:41.533,7 Jun 2027 00:16:04.349,742.816
51,7 Jun 2027 01:39:31.306,7 Jun 2027 01:51:59.999,748.693
52,7 Jun 2027 03:15:56.320,7 Jun 2027 03:25:01.387,545.067
53,7 Jun 2027 07:58:54.374,7 Jun 2027 08:01:36.786,162.412
54,7 Jun 2027 09:29:06.433,7 Jun 2027 09:39:07.546,601.114
55,7 Jun 2027 11:02:41.025,7 Jun 2027 11:15:25.904,764.879
56,7 Jun 2027 12:39:14.316,7 Jun 2027 12:51:06.174,711.858
57,7 Jun 2027 14:21:29.766,7 Jun 2027 14:23:43.326,133.560
58,7 Jun 2027 22:41:02.922,7 Jun 2027 22:48:54.783,471.861
59,8 Jun 2027 00:15:39.459,8 Jun 2027 00:28:16.189,756.730
60,8 Jun 2027 01:51:34.497,8 Jun 2027 02:03:48.743,734.246
61,8 Jun 2027 03:28:04.245,8 Jun 2027 03:36:28.535,504.289
62,8 Jun 2027 08:09:50.188,8 Jun 2027 08:14:06.188,256.001
63,8 Jun 2027 09:40:40.784,8 Jun 2027 09:51:13.508,632.724
64,8 Jun 2027 11:14:36.647,8 Jun 2027 11:27:27.792,771.144
65,8 Jun 2027 12:51:35.607,8 Jun 2027 13:03:00.801,685.194
66,8 Jun 2027 22:52:43.294,8 Jun 2027 23:01:42.085,538.791
67,9 Jun 2027 00:27:38.332,9 Jun 2027 00:40:24.758,766.426
68,9 Jun 2027 02:03:38.155,9 Jun 2027 02:15:34.846,716.690
69,9 Jun 2027 03:40:13.294,9 Jun 2027 03:47:52.574,459.281
70,9 Jun 2027 08:20:58.343,9 Jun 2027 08:26:24.872,326.530
71,9 Jun 2027 09:52:17.828,9 Jun 2027 10:03:18.883,661.055
72,9 Jun 2027 11:26:35.046,9 Jun 2027 11:39:29.119,774.073
73,9 Jun 2027 13:04:01.234,9 Jun 2027 13:14:53.588,652.354
74,9 Jun 2027 23:04:28.919,9 Jun 2027 23:14:21.317,592.398
75,10 Jun 2027 00:39:38.026,10 Jun 2027 00:52:30.225,772.199
76,10 Jun 2027 02:15:42.298,10 Jun 2027 02:27:18.313,696.016
77,10 Jun 2027 03:52:23.858,10 Jun 2027 03:59:13.193,409.335
78,10 Jun 2027 08:32:12.840,10 Jun 2027 08:38:38.938,386.098
79,10 Jun 2027 10:03:57.528,10 Jun 2027 10:15:23.727,686.199
80,10 Jun 2027 11:38:36.289,10 Jun 2027 11:51:29.822,773.534
81,10 Jun 2027 13:16:31.804,10 Jun 2027 13:26:44.025,612.221
82,10 Jun 2027 23:16:18.134,10 Jun 2027 23:26:54.240,636.105
83,11 Jun 2027 00:51:38.444,11 Jun 2027 01:04:32.718,774.275
84,11 Jun 2027 02:27:46.918,11 Jun 2027 02:38:59.151,672.233
85,11 Jun 2027 04:04:36.619,11 Jun 2027 04:10:29.759,353.140
86,11 Jun 2027 08:43:31.814,11 Jun 2027 08:50:50.337,438.523
87,11 Jun 2027 10:15:39.867,11 Jun 2027 10:27:28.071,708.204
88,11 Jun 2027 11:50:40.469,11 Jun 2027 12:03:29.837,769.368
89,11 Jun 2027 13:29:08.166,11 Jun 2027 13:38:31.340,563.174
90,11 Jun 2027 23:28:09.992,11 Jun 2027 23:39:21.904,671.912
91,12 Jun 2027 01:03:39.513,12 Jun 2027 01:16:32.324,772.811
92,12 Jun 2027 02:39:52.056,12 Jun 2027 02:50:37.340,645.284
93,12 Jun 2027 04:16:52.936,12 Jun 2027 04:21:41.009,288.073
94,12 Jun 2027 08:54:54.436,12 Jun 2027 09:02:59.984,485.548
95,12 Jun 2027 10:27:24.835,12 Jun 2027 10:39:31.938,727.103
96,12 Jun 2027 12:02:47.692,12 Jun 2027 12:15:29.069,761.377
97,12 Jun 2027 13:41:51.721,12 Jun 2027 13:50:14.232,502.511
98,12 Jun 2027 23:40:03.881,12 Jun 2027 23:51:44.995,701.113
99,13 Jun 2027 01:15:41.161,13 Jun 2027 01:28:29.134,767.973
100,13 Jun 2027 02:51:57.756,13 Jun 2027 03:02:12.857,615.101
101,13 Jun 2027 04:29:16.309,13 Jun 2027 04:32:43.537,207.228
102,13 Jun 2027 09:06:20.276,13 Jun 2027 09:15:08.356,528.080
103,13 Jun 2027 10:39:12.444,13 Jun 2027 10:51:35.333,742.889
104,13 Jun 2027 12:14:58.105,13 Jun 2027 12:27:27.417,749.312
105,13 Jun 2027 13:54:45.009,13 Jun 2027 14:01:50.265,425.256
106,13 Jun 2027 22:18:31.824,13 Jun 2027 22:22:51.590,259.766
107,13 Jun 2027 23:51:59.388,14 Jun 2027 00:00:01.000,481.612
