dataset/facility_timing/facility_Facility-Moscow/Moscow-To-KinoSat_111909.csv

Acces,Start Time (UTCG),Stop Time (UTCG),Duration (sec)
1,1 Jun 2027 04:01:07.191,1 Jun 2027 04:09:25.971,498.780
2,1 Jun 2027 05:35:52.685,1 Jun 2027 05:48:33.662,760.978
3,1 Jun 2027 07:11:50.883,1 Jun 2027 07:23:58.856,727.973
4,1 Jun 2027 08:48:24.789,1 Jun 2027 08:56:30.151,485.362
5,1 Jun 2027 13:29:56.570,1 Jun 2027 13:34:18.721,262.150
6,1 Jun 2027 15:00:50.004,1 Jun 2027 15:11:27.727,637.722
7,1 Jun 2027 16:34:50.659,1 Jun 2027 16:47:42.792,772.133
8,1 Jun 2027 18:11:56.154,1 Jun 2027 18:23:15.513,679.360
9,2 Jun 2027 04:12:50.245,2 Jun 2027 04:22:10.904,560.659
10,2 Jun 2027 05:47:52.406,2 Jun 2027 06:00:41.656,769.250
11,2 Jun 2027 07:23:55.335,2 Jun 2027 07:35:44.278,708.943
12,2 Jun 2027 09:00:35.336,2 Jun 2027 09:07:52.652,437.316
13,2 Jun 2027 13:41:04.853,2 Jun 2027 13:46:38.199,333.347
14,2 Jun 2027 15:12:27.755,2 Jun 2027 15:23:33.668,665.913
15,2 Jun 2027 16:46:50.130,2 Jun 2027 16:59:44.549,774.418
16,2 Jun 2027 18:24:23.529,2 Jun 2027 18:35:08.355,644.826
17,3 Jun 2027 04:24:37.856,3 Jun 2027 04:34:48.442,610.586
18,3 Jun 2027 05:59:52.929,3 Jun 2027 06:12:46.537,773.608
19,3 Jun 2027 07:36:00.288,3 Jun 2027 07:47:26.999,686.711
20,3 Jun 2027 09:12:47.792,3 Jun 2027 09:19:11.290,383.497
21,3 Jun 2027 13:52:19.617,3 Jun 2027 13:58:52.994,393.377
22,3 Jun 2027 15:24:08.226,3 Jun 2027 15:35:39.053,690.827
23,3 Jun 2027 16:58:52.528,3 Jun 2027 17:11:45.653,773.125
24,3 Jun 2027 18:36:56.089,3 Jun 2027 18:46:58.674,602.585
25,4 Jun 2027 04:36:28.676,4 Jun 2027 04:47:20.033,651.357
26,4 Jun 2027 06:11:54.149,4 Jun 2027 06:24:48.423,774.274
27,4 Jun 2027 07:48:05.758,4 Jun 2027 07:59:07.005,661.247
28,4 Jun 2027 09:25:03.195,4 Jun 2027 09:30:25.129,321.934
29,4 Jun 2027 14:03:38.966,4 Jun 2027 14:11:05.078,446.112
30,4 Jun 2027 15:35:51.415,4 Jun 2027 15:47:43.918,712.503
31,4 Jun 2027 17:10:57.948,4 Jun 2027 17:23:46.038,768.090
32,4 Jun 2027 18:49:34.793,4 Jun 2027 18:58:45.602,550.809
33,5 Jun 2027 04:48:21.898,5 Jun 2027 04:59:46.580,684.682
34,5 Jun 2027 06:23:56.013,5 Jun 2027 06:36:47.393,771.380
35,5 Jun 2027 08:00:11.790,5 Jun 2027 08:10:44.277,632.487
36,5 Jun 2027 09:37:23.842,5 Jun 2027 09:41:31.939,248.097
37,5 Jun 2027 14:15:02.071,5 Jun 2027 14:23:15.360,493.288
38,5 Jun 2027 15:47:37.307,5 Jun 2027 15:59:48.283,730.976
39,5 Jun 2027 17:23:06.504,5 Jun 2027 17:35:45.607,759.104
40,5 Jun 2027 19:02:21.250,5 Jun 2027 19:10:27.626,486.376
41,6 Jun 2027 03:27:39.145,6 Jun 2027 03:29:50.692,131.548
42,6 Jun 2027 05:00:16.991,6 Jun 2027 05:12:08.688,711.697
43,6 Jun 2027 06:35:58.450,6 Jun 2027 06:48:43.529,765.079
44,6 Jun 2027 08:12:18.446,6 Jun 2027 08:22:18.772,600.325
45,6 Jun 2027 09:49:57.653,6 Jun 2027 09:52:23.910,146.258
46,6 Jun 2027 14:26:28.493,6 Jun 2027 14:35:24.343,535.850
47,6 Jun 2027 15:59:25.908,6 Jun 2027 16:11:52.158,746.250
48,6 Jun 2027 17:35:18.360,6 Jun 2027 17:47:44.238,745.878
49,6 Jun 2027 19:15:18.542,6 Jun 2027 19:22:01.785,403.243
50,7 Jun 2027 03:38:22.515,7 Jun 2027 03:43:44.236,321.722
51,7 Jun 2027 05:12:13.595,7 Jun 2027 05:24:26.785,733.190
52,7 Jun 2027 06:48:01.439,7 Jun 2027 07:00:36.884,755.445
53,7 Jun 2027 08:24:25.808,7 Jun 2027 08:33:50.429,564.621
54,7 Jun 2027 14:37:57.983,7 Jun 2027 14:47:32.326,574.343
55,7 Jun 2027 16:11:17.228,7 Jun 2027 16:23:55.526,758.298
56,7 Jun 2027 17:47:33.718,7 Jun 2027 17:59:41.772,728.054
57,7 Jun 2027 19:28:34.640,7 Jun 2027 19:33:20.225,285.585
58,8 Jun 2027 03:49:46.537,8 Jun 2027 03:56:53.940,427.403
59,8 Jun 2027 05:24:11.433,8 Jun 2027 05:36:41.203,749.770
60,8 Jun 2027 07:00:04.938,8 Jun 2027 07:12:27.497,742.559
61,8 Jun 2027 08:36:34.019,8 Jun 2027 08:45:19.135,525.116
62,8 Jun 2027 13:19:11.702,8 Jun 2027 13:22:09.858,178.156
63,8 Jun 2027 14:49:30.385,8 Jun 2027 14:59:39.499,609.114
64,8 Jun 2027 16:23:11.311,8 Jun 2027 16:35:58.367,767.056
65,8 Jun 2027 17:59:52.839,8 Jun 2027 18:11:37.997,705.157
66,9 Jun 2027 04:01:23.207,9 Jun 2027 04:09:47.928,504.721
67,9 Jun 2027 05:36:10.325,9 Jun 2027 05:48:52.179,761.854
68,9 Jun 2027 07:12:08.931,9 Jun 2027 07:24:15.384,726.453
69,9 Jun 2027 08:48:43.296,9 Jun 2027 08:56:44.728,481.431
70,9 Jun 2027 13:30:09.268,9 Jun 2027 13:34:38.509,269.241
71,9 Jun 2027 15:01:05.610,9 Jun 2027 15:11:45.988,640.378
72,9 Jun 2027 16:35:08.186,9 Jun 2027 16:48:00.661,772.475
73,9 Jun 2027 18:12:16.067,9 Jun 2027 18:23:32.634,676.567
74,10 Jun 2027 04:13:06.728,10 Jun 2027 04:22:32.136,565.408
75,10 Jun 2027 05:48:10.118,10 Jun 2027 06:00:59.895,769.777
76,10 Jun 2027 07:24:13.425,10 Jun 2027 07:36:00.569,707.144
77,10 Jun 2027 09:00:53.978,10 Jun 2027 09:08:06.921,432.943
78,10 Jun 2027 13:41:18.278,10 Jun 2027 13:46:57.413,339.134
79,10 Jun 2027 15:12:43.604,10 Jun 2027 15:23:51.873,668.268
80,10 Jun 2027 16:47:07.911,10 Jun 2027 17:00:02.360,774.448
81,10 Jun 2027 18:24:43.874,10 Jun 2027 18:35:25.273,641.399
82,11 Jun 2027 04:24:54.660,11 Jun 2027 04:35:09.110,614.450
83,11 Jun 2027 06:00:10.702,11 Jun 2027 06:13:04.509,773.807
84,11 Jun 2027 07:36:18.417,11 Jun 2027 07:47:43.053,684.637
85,11 Jun 2027 09:13:06.628,11 Jun 2027 09:19:25.194,378.567
86,11 Jun 2027 13:52:33.514,11 Jun 2027 13:59:11.897,398.383
87,11 Jun 2027 15:24:24.317,11 Jun 2027 15:35:57.207,692.890
88,11 Jun 2027 16:59:10.570,11 Jun 2027 17:12:03.399,772.829
89,11 Jun 2027 18:37:16.933,11 Jun 2027 18:47:15.331,598.398
90,12 Jun 2027 04:36:45.709,12 Jun 2027 04:47:40.230,654.521
91,12 Jun 2027 06:12:11.976,12 Jun 2027 06:25:06.136,774.160
92,12 Jun 2027 07:48:23.930,12 Jun 2027 07:59:22.822,658.892
93,12 Jun 2027 09:25:22.351,12 Jun 2027 09:30:38.552,316.201
94,12 Jun 2027 14:03:53.227,12 Jun 2027 14:11:23.778,450.551
95,12 Jun 2027 15:36:07.743,12 Jun 2027 15:48:02.020,714.277
96,12 Jun 2027 17:11:16.262,12 Jun 2027 17:24:03.713,767.451
97,12 Jun 2027 18:49:56.246,12 Jun 2027 18:59:01.894,545.648
98,13 Jun 2027 04:48:39.108,13 Jun 2027 05:00:06.367,687.260
99,13 Jun 2027 06:24:13.890,13 Jun 2027 06:37:04.855,770.966
100,13 Jun 2027 08:00:30.009,13 Jun 2027 08:10:59.854,629.845
101,13 Jun 2027 09:37:43.640,13 Jun 2027 09:41:44.565,240.925
102,13 Jun 2027 14:15:16.644,13 Jun 2027 14:23:33.927,497.282
103,13 Jun 2027 15:47:53.875,13 Jun 2027 16:00:06.341,732.465
104,13 Jun 2027 17:23:25.102,13 Jun 2027 17:36:03.202,758.100
105,13 Jun 2027 19:02:43.504,13 Jun 2027 19:10:43.366,479.862
