dataset/facility_timing/facility_Facility-Moscow/Moscow-To-KinoSat_110305.csv

Acces,Start Time (UTCG),Stop Time (UTCG),Duration (sec)
1,1 Jun 2027 00:55:22.167,1 Jun 2027 01:04:17.076,534.909
2,1 Jun 2027 05:37:59.769,1 Jun 2027 05:41:10.038,190.269
3,1 Jun 2027 07:08:23.457,1 Jun 2027 07:18:33.011,609.554
4,1 Jun 2027 08:42:03.518,1 Jun 2027 08:54:50.322,766.804
5,1 Jun 2027 10:18:43.289,1 Jun 2027 10:30:28.836,705.547
6,1 Jun 2027 20:20:21.078,1 Jun 2027 20:28:31.783,490.705
7,1 Jun 2027 21:55:02.960,1 Jun 2027 22:07:42.586,759.626
8,1 Jun 2027 23:30:59.282,1 Jun 2027 23:43:09.292,730.010
9,2 Jun 2027 01:07:30.360,2 Jun 2027 01:15:43.439,493.078
10,2 Jun 2027 05:48:59.962,2 Jun 2027 05:53:35.469,275.508
11,2 Jun 2027 07:19:58.506,2 Jun 2027 07:30:38.813,640.307
12,2 Jun 2027 08:53:59.849,2 Jun 2027 09:06:52.070,772.220
13,2 Jun 2027 10:31:05.643,2 Jun 2027 10:42:23.030,677.386
14,2 Jun 2027 20:32:03.027,2 Jun 2027 20:41:16.768,553.741
15,2 Jun 2027 22:07:02.055,2 Jun 2027 22:19:50.339,768.284
16,2 Jun 2027 23:43:03.065,2 Jun 2027 23:54:54.713,711.648
17,3 Jun 2027 01:19:39.761,3 Jun 2027 01:27:06.633,446.871
18,3 Jun 2027 06:00:10.040,3 Jun 2027 06:05:52.661,342.621
19,3 Jun 2027 07:31:36.236,3 Jun 2027 07:42:44.047,667.811
20,3 Jun 2027 09:05:58.971,3 Jun 2027 09:18:53.244,774.272
21,3 Jun 2027 10:43:32.477,3 Jun 2027 10:54:15.274,642.797
22,3 Jun 2027 20:43:49.699,3 Jun 2027 20:53:54.243,604.544
23,3 Jun 2027 22:19:01.947,3 Jun 2027 22:31:55.032,773.085
24,3 Jun 2027 23:55:07.330,4 Jun 2027 00:06:37.503,690.173
25,4 Jun 2027 01:31:50.823,4 Jun 2027 01:38:26.265,395.443
26,4 Jun 2027 06:11:25.811,4 Jun 2027 06:18:05.918,400.107
27,4 Jun 2027 07:43:16.616,4 Jun 2027 07:54:48.760,692.144
28,4 Jun 2027 09:18:00.958,4 Jun 2027 09:30:53.778,772.820
29,4 Jun 2027 10:56:04.435,4 Jun 2027 11:06:05.001,600.565
30,4 Jun 2027 20:55:39.671,4 Jun 2027 21:06:25.723,646.052
31,4 Jun 2027 22:31:02.536,4 Jun 2027 22:43:56.765,774.228
32,5 Jun 2027 00:07:12.087,5 Jun 2027 00:18:17.652,665.564
33,5 Jun 2027 01:44:04.338,5 Jun 2027 01:49:41.618,337.280
34,5 Jun 2027 06:22:45.779,5 Jun 2027 06:30:16.804,451.025
35,5 Jun 2027 07:54:59.631,5 Jun 2027 08:06:52.982,713.351
36,5 Jun 2027 09:30:05.905,5 Jun 2027 09:42:53.600,767.695
37,5 Jun 2027 11:08:42.477,5 Jun 2027 11:17:51.341,548.864
38,5 Jun 2027 21:07:32.101,5 Jun 2027 21:18:52.152,680.051
39,5 Jun 2027 22:43:03.760,5 Jun 2027 22:55:55.647,771.888
40,6 Jun 2027 00:19:17.373,6 Jun 2027 00:29:55.150,637.776
41,6 Jun 2027 01:56:22.010,6 Jun 2027 02:00:51.072,269.062
42,6 Jun 2027 06:34:09.254,6 Jun 2027 06:42:26.084,496.830
43,6 Jun 2027 08:06:45.278,6 Jun 2027 08:18:56.724,731.446
44,6 Jun 2027 09:42:13.937,6 Jun 2027 09:54:52.622,758.686
45,6 Jun 2027 11:21:28.214,6 Jun 2027 11:29:32.787,484.573
46,6 Jun 2027 19:47:26.855,6 Jun 2027 19:48:17.285,50.430
47,6 Jun 2027 21:19:26.440,6 Jun 2027 21:31:14.149,707.708
48,6 Jun 2027 22:55:05.561,6 Jun 2027 23:07:51.741,766.180
49,7 Jun 2027 00:31:23.227,7 Jun 2027 00:41:29.971,606.745
50,7 Jun 2027 02:08:48.644,7 Jun 2027 02:11:49.925,181.281
51,7 Jun 2027 06:45:35.881,7 Jun 2027 06:54:34.184,538.303
52,7 Jun 2027 08:18:33.567,7 Jun 2027 08:30:59.994,746.428
53,7 Jun 2027 09:54:25.201,7 Jun 2027 10:06:50.726,745.525
54,7 Jun 2027 11:34:24.702,7 Jun 2027 11:41:06.381,401.679
55,7 Jun 2027 19:57:40.669,7 Jun 2027 20:02:39.428,298.758
56,7 Jun 2027 21:31:22.313,7 Jun 2027 21:43:32.154,729.840
57,7 Jun 2027 23:07:07.892,7 Jun 2027 23:19:45.111,757.219
58,8 Jun 2027 00:43:29.730,8 Jun 2027 00:53:02.050,572.320
59,8 Jun 2027 06:57:05.436,8 Jun 2027 07:06:41.365,575.929
60,8 Jun 2027 08:30:24.515,8 Jun 2027 08:43:02.781,758.266
61,8 Jun 2027 10:06:39.895,8 Jun 2027 10:18:47.746,727.851
62,8 Jun 2027 11:47:39.903,8 Jun 2027 11:52:24.290,284.387
63,8 Jun 2027 20:09:00.881,8 Jun 2027 20:15:52.016,411.135
64,8 Jun 2027 21:43:19.449,8 Jun 2027 21:55:46.495,747.045
65,8 Jun 2027 23:19:10.727,8 Jun 2027 23:31:35.791,745.065
66,9 Jun 2027 00:55:36.997,9 Jun 2027 01:04:31.320,534.323
67,9 Jun 2027 05:38:13.546,9 Jun 2027 05:41:25.178,191.631
68,9 Jun 2027 07:08:37.797,9 Jun 2027 07:18:47.799,610.003
69,9 Jun 2027 08:42:18.158,9 Jun 2027 08:55:05.056,766.899
70,9 Jun 2027 10:18:58.284,9 Jun 2027 10:30:43.478,705.194
71,9 Jun 2027 20:20:35.475,9 Jun 2027 20:28:47.206,491.731
72,9 Jun 2027 21:55:17.648,9 Jun 2027 22:07:57.429,759.781
73,9 Jun 2027 23:31:14.041,9 Jun 2027 23:43:23.811,729.770
74,10 Jun 2027 01:07:45.205,10 Jun 2027 01:15:57.640,492.435
75,10 Jun 2027 05:49:13.931,10 Jun 2027 05:53:50.441,276.510
76,10 Jun 2027 07:20:12.884,10 Jun 2027 07:30:53.592,640.708
77,10 Jun 2027 08:54:14.526,10 Jun 2027 09:07:06.803,772.277
78,10 Jun 2027 10:31:20.699,10 Jun 2027 10:42:37.649,676.951
79,10 Jun 2027 20:32:17.508,10 Jun 2027 20:41:32.064,554.556
80,10 Jun 2027 22:07:16.756,10 Jun 2027 22:20:05.137,768.381
81,10 Jun 2027 23:43:17.836,10 Jun 2027 23:55:09.193,711.357
82,11 Jun 2027 01:19:54.627,11 Jun 2027 01:27:20.779,446.153
83,11 Jun 2027 06:00:24.100,11 Jun 2027 06:06:07.564,343.464
84,11 Jun 2027 07:31:50.651,11 Jun 2027 07:42:58.822,668.171
85,11 Jun 2027 09:06:13.689,11 Jun 2027 09:19:07.966,774.277
86,11 Jun 2027 10:43:47.600,11 Jun 2027 10:54:29.863,642.263
87,11 Jun 2027 20:44:04.239,11 Jun 2027 20:54:09.443,605.204
88,11 Jun 2027 22:19:16.660,11 Jun 2027 22:32:09.786,773.126
89,11 Jun 2027 23:55:22.106,12 Jun 2027 00:06:51.945,689.839
90,12 Jun 2027 01:32:05.717,12 Jun 2027 01:38:40.361,394.645
91,12 Jun 2027 06:11:39.933,12 Jun 2027 06:18:20.784,400.851
92,12 Jun 2027 07:43:31.067,12 Jun 2027 07:55:03.530,692.462
93,12 Jun 2027 09:18:15.717,12 Jun 2027 09:31:08.491,772.774
94,12 Jun 2027 10:56:19.637,12 Jun 2027 11:06:19.551,599.915
95,12 Jun 2027 20:55:54.252,12 Jun 2027 21:06:40.844,646.593
96,12 Jun 2027 22:31:17.259,12 Jun 2027 22:44:11.478,774.218
97,13 Jun 2027 00:07:26.871,13 Jun 2027 00:18:32.057,665.185
98,13 Jun 2027 01:44:19.276,13 Jun 2027 01:49:55.643,336.367
99,13 Jun 2027 06:22:59.952,13 Jun 2027 06:30:31.647,451.695
100,13 Jun 2027 07:55:14.119,13 Jun 2027 08:07:07.746,713.627
101,13 Jun 2027 09:30:20.706,13 Jun 2027 09:43:08.302,767.596
102,13 Jun 2027 11:08:57.775,13 Jun 2027 11:18:05.832,548.057
103,13 Jun 2027 21:07:46.714,13 Jun 2027 21:19:07.206,680.492
104,13 Jun 2027 22:43:18.491,13 Jun 2027 22:56:10.320,771.829
