dataset/facility_timing/facility_Facility-Moscow/Moscow-To-KinoSat_110909.csv

Acces,Start Time (UTCG),Stop Time (UTCG),Duration (sec)
1,1 Jun 2027 00:00:01.000,1 Jun 2027 00:00:11.664,10.664
2,1 Jun 2027 01:26:17.031,1 Jun 2027 01:39:01.839,764.809
3,1 Jun 2027 03:02:16.045,1 Jun 2027 03:14:16.524,720.479
4,1 Jun 2027 04:38:50.251,1 Jun 2027 04:46:38.716,468.465
5,1 Jun 2027 09:19:47.833,1 Jun 2027 09:24:59.392,311.559
6,1 Jun 2027 10:51:01.179,1 Jun 2027 11:01:56.240,655.061
7,1 Jun 2027 12:25:13.773,1 Jun 2027 12:38:07.512,773.739
8,1 Jun 2027 14:02:33.967,1 Jun 2027 14:13:34.102,660.135
9,2 Jun 2027 00:03:09.950,2 Jun 2027 00:12:52.438,582.488
10,2 Jun 2027 01:38:16.618,2 Jun 2027 01:51:07.977,771.359
11,2 Jun 2027 03:14:20.150,2 Jun 2027 03:26:00.551,700.402
12,2 Jun 2027 04:51:00.563,2 Jun 2027 04:58:00.030,419.467
13,2 Jun 2027 09:31:01.073,2 Jun 2027 09:37:14.386,373.314
14,2 Jun 2027 11:02:40.320,2 Jun 2027 11:14:01.260,680.939
15,2 Jun 2027 12:37:14.438,2 Jun 2027 12:50:08.408,773.971
16,2 Jun 2027 14:15:03.472,2 Jun 2027 14:25:25.152,621.680
17,3 Jun 2027 00:14:58.581,3 Jun 2027 00:25:26.610,628.029
18,3 Jun 2027 01:50:16.949,3 Jun 2027 02:03:11.112,774.163
19,3 Jun 2027 03:26:24.731,3 Jun 2027 03:37:41.941,677.209
20,3 Jun 2027 05:03:12.921,3 Jun 2027 05:09:17.430,364.509
21,3 Jun 2027 09:42:19.113,3 Jun 2027 09:49:26.383,427.270
22,3 Jun 2027 11:14:22.112,3 Jun 2027 11:26:05.774,703.661
23,3 Jun 2027 12:49:18.021,3 Jun 2027 13:02:08.626,770.606
24,3 Jun 2027 14:27:38.565,3 Jun 2027 14:37:13.277,574.712
25,4 Jun 2027 00:26:50.018,4 Jun 2027 00:37:55.342,665.324
26,4 Jun 2027 02:02:17.941,4 Jun 2027 02:15:11.342,773.400
27,4 Jun 2027 03:38:29.827,4 Jun 2027 03:49:20.682,650.855
28,4 Jun 2027 05:15:28.510,4 Jun 2027 05:20:29.808,301.298
29,4 Jun 2027 09:53:40.951,4 Jun 2027 10:01:36.452,475.501
30,4 Jun 2027 11:26:06.536,4 Jun 2027 11:38:09.803,723.267
31,4 Jun 2027 13:01:24.633,4 Jun 2027 13:14:08.095,763.462
32,4 Jun 2027 14:40:20.488,4 Jun 2027 14:48:57.316,516.828
33,5 Jun 2027 00:38:43.582,5 Jun 2027 00:50:19.376,695.794
34,5 Jun 2027 02:14:19.534,5 Jun 2027 02:27:08.746,769.212
35,5 Jun 2027 03:50:35.474,5 Jun 2027 04:00:56.748,621.274
36,5 Jun 2027 05:27:50.202,5 Jun 2027 05:31:34.397,224.196
37,5 Jun 2027 10:05:06.106,5 Jun 2027 10:13:45.162,519.056
38,5 Jun 2027 11:37:53.606,5 Jun 2027 11:50:13.355,739.748
39,5 Jun 2027 13:13:34.403,5 Jun 2027 13:26:06.691,752.288
40,5 Jun 2027 14:53:11.453,5 Jun 2027 15:00:35.181,443.728
41,5 Jun 2027 23:17:24.325,5 Jun 2027 23:21:09.143,224.818
42,6 Jun 2027 00:50:38.846,6 Jun 2027 01:02:39.227,720.381
43,6 Jun 2027 02:26:21.678,6 Jun 2027 02:39:03.397,761.719
44,6 Jun 2027 04:02:41.731,6 Jun 2027 04:12:30.097,588.366
45,6 Jun 2027 05:40:30.117,6 Jun 2027 05:42:19.168,109.051
46,6 Jun 2027 10:16:34.289,6 Jun 2027 10:25:52.826,558.537
47,6 Jun 2027 11:49:43.333,6 Jun 2027 12:02:16.425,753.092
48,6 Jun 2027 13:25:47.518,6 Jun 2027 13:38:04.293,736.774
49,6 Jun 2027 15:06:16.263,6 Jun 2027 15:12:02.169,345.906
50,6 Jun 2027 23:28:31.190,6 Jun 2027 23:34:36.638,365.447
51,7 Jun 2027 01:02:35.478,7 Jun 2027 01:14:55.271,739.793
52,7 Jun 2027 02:38:24.338,7 Jun 2027 02:50:55.341,751.003
53,7 Jun 2027 04:14:48.701,7 Jun 2027 04:24:00.665,551.964
54,7 Jun 2027 08:58:04.716,7 Jun 2027 09:00:20.296,135.579
55,7 Jun 2027 10:28:05.343,7 Jun 2027 10:37:59.669,594.326
56,7 Jun 2027 12:01:35.744,7 Jun 2027 12:14:18.998,763.254
57,7 Jun 2027 13:38:04.201,7 Jun 2027 13:50:00.702,716.501
58,7 Jun 2027 15:19:52.566,7 Jun 2027 15:23:00.776,188.210
59,7 Jun 2027 23:40:00.663,7 Jun 2027 23:47:38.445,457.782
60,8 Jun 2027 01:14:33.262,8 Jun 2027 01:27:07.787,754.525
61,8 Jun 2027 02:50:27.494,8 Jun 2027 03:02:44.606,737.112
62,8 Jun 2027 04:26:56.524,8 Jun 2027 04:35:28.348,511.824
63,8 Jun 2027 09:08:55.419,8 Jun 2027 09:12:54.552,239.133
64,8 Jun 2027 10:39:39.166,8 Jun 2027 10:50:05.820,626.653
65,8 Jun 2027 12:13:30.867,8 Jun 2027 12:26:21.044,770.178
66,8 Jun 2027 13:50:24.753,8 Jun 2027 14:01:55.692,690.939
67,8 Jun 2027 23:51:39.832,9 Jun 2027 00:00:27.601,527.769
68,9 Jun 2027 01:26:32.021,9 Jun 2027 01:39:17.003,764.982
69,9 Jun 2027 03:02:31.121,9 Jun 2027 03:14:31.218,720.097
70,9 Jun 2027 04:39:05.425,9 Jun 2027 04:46:52.954,467.529
71,9 Jun 2027 09:20:01.721,9 Jun 2027 09:25:14.814,313.093
72,9 Jun 2027 10:51:15.696,9 Jun 2027 11:02:11.370,655.674
73,9 Jun 2027 12:25:28.758,9 Jun 2027 12:38:22.539,773.781
74,9 Jun 2027 14:02:49.557,9 Jun 2027 14:13:48.920,659.363
75,10 Jun 2027 00:03:24.698,10 Jun 2027 00:13:08.221,583.524
76,10 Jun 2027 01:38:31.623,10 Jun 2027 01:51:23.076,771.453
77,10 Jun 2027 03:14:35.233,10 Jun 2027 03:26:15.190,699.957
78,10 Jun 2027 04:51:15.767,10 Jun 2027 04:58:14.197,418.431
79,10 Jun 2027 09:31:15.091,10 Jun 2027 09:37:29.716,374.625
80,10 Jun 2027 11:02:54.895,10 Jun 2027 11:14:16.375,681.481
81,10 Jun 2027 12:37:29.485,10 Jun 2027 12:50:23.419,773.934
82,10 Jun 2027 14:15:19.174,10 Jun 2027 14:25:39.911,620.738
83,11 Jun 2027 00:15:13.393,11 Jun 2027 00:25:42.268,628.875
84,11 Jun 2027 01:50:31.966,11 Jun 2027 02:03:26.148,774.182
85,11 Jun 2027 03:26:39.822,11 Jun 2027 03:37:56.524,676.702
86,11 Jun 2027 05:03:28.167,11 Jun 2027 05:09:31.512,363.345
87,11 Jun 2027 09:42:33.227,11 Jun 2027 09:49:41.653,428.427
88,11 Jun 2027 11:14:36.744,11 Jun 2027 11:26:20.876,704.132
89,11 Jun 2027 12:49:33.131,11 Jun 2027 13:02:23.619,770.488
90,11 Jun 2027 14:27:54.401,11 Jun 2027 14:37:27.958,573.557
91,12 Jun 2027 00:27:04.877,12 Jun 2027 00:38:10.894,666.017
92,12 Jun 2027 02:02:32.969,12 Jun 2027 02:15:26.316,773.347
93,12 Jun 2027 03:38:44.925,12 Jun 2027 03:49:35.209,650.284
94,12 Jun 2027 05:15:43.832,12 Jun 2027 05:20:43.772,299.940
95,12 Jun 2027 09:53:55.144,12 Jun 2027 10:01:51.684,476.540
96,12 Jun 2027 11:26:21.225,12 Jun 2027 11:38:24.892,723.667
97,12 Jun 2027 13:01:39.810,12 Jun 2027 13:14:23.068,763.258
98,12 Jun 2027 14:40:36.493,12 Jun 2027 14:49:11.884,515.391
99,13 Jun 2027 00:38:58.479,13 Jun 2027 00:50:34.835,696.356
100,13 Jun 2027 02:14:34.571,13 Jun 2027 02:27:23.661,769.089
101,13 Jun 2027 03:50:50.581,13 Jun 2027 04:01:11.220,620.639
102,13 Jun 2027 05:28:05.685,13 Jun 2027 05:31:48.165,222.480
103,13 Jun 2027 10:05:20.369,13 Jun 2027 10:14:00.364,519.995
104,13 Jun 2027 11:38:08.352,13 Jun 2027 11:50:28.431,740.079
105,13 Jun 2027 13:13:49.650,13 Jun 2027 13:26:21.641,751.991
106,13 Jun 2027 14:53:27.696,13 Jun 2027 15:00:49.570,441.874
107,13 Jun 2027 23:17:37.762,13 Jun 2027 23:21:26.486,228.724
