dataset/facility_timing/facility_Facility-Moscow/Moscow-To-KinoSat_111103.csv

Acces,Start Time (UTCG),Stop Time (UTCG),Duration (sec)
1,1 Jun 2027 00:41:13.960,1 Jun 2027 00:49:30.094,496.134
2,1 Jun 2027 02:15:57.677,1 Jun 2027 02:28:38.152,760.475
3,1 Jun 2027 03:51:54.680,1 Jun 2027 04:04:03.365,728.685
4,1 Jun 2027 05:28:26.681,1 Jun 2027 05:36:35.743,489.062
5,1 Jun 2027 10:09:53.589,1 Jun 2027 10:14:29.815,276.226
6,1 Jun 2027 11:40:52.511,1 Jun 2027 11:51:33.689,641.178
7,1 Jun 2027 13:14:54.773,1 Jun 2027 13:27:47.167,772.394
8,1 Jun 2027 14:52:01.854,1 Jun 2027 15:03:18.120,676.266
9,2 Jun 2027 00:52:56.459,2 Jun 2027 01:02:14.640,558.181
10,2 Jun 2027 02:27:56.965,2 Jun 2027 02:40:45.807,768.842
11,2 Jun 2027 04:03:58.648,2 Jun 2027 04:15:48.656,710.009
12,2 Jun 2027 05:40:36.418,2 Jun 2027 05:47:58.613,442.195
13,2 Jun 2027 10:21:03.622,2 Jun 2027 10:26:47.257,343.636
14,2 Jun 2027 11:52:30.386,2 Jun 2027 12:03:39.069,668.683
15,2 Jun 2027 13:26:54.125,2 Jun 2027 13:39:48.446,774.321
16,2 Jun 2027 15:04:29.064,2 Jun 2027 15:15:10.391,641.326
17,3 Jun 2027 01:04:43.552,3 Jun 2027 01:14:51.802,608.249
18,3 Jun 2027 02:39:57.046,3 Jun 2027 02:52:50.396,773.350
19,3 Jun 2027 04:16:03.098,3 Jun 2027 04:27:31.300,688.202
20,3 Jun 2027 05:52:47.895,3 Jun 2027 05:59:17.834,389.939
21,3 Jun 2027 10:32:19.401,3 Jun 2027 10:39:00.719,401.318
22,3 Jun 2027 12:04:10.919,3 Jun 2027 12:15:43.918,692.999
23,3 Jun 2027 13:38:56.364,3 Jun 2027 13:51:49.079,772.716
24,3 Jun 2027 15:17:01.450,3 Jun 2027 15:27:00.112,598.661
25,4 Jun 2027 01:16:33.867,4 Jun 2027 01:27:23.041,649.174
26,4 Jun 2027 02:51:57.818,4 Jun 2027 03:04:52.024,774.206
27,4 Jun 2027 04:28:08.049,4 Jun 2027 04:39:11.287,663.238
28,4 Jun 2027 06:05:01.992,4 Jun 2027 06:10:32.598,330.606
29,4 Jun 2027 10:43:39.425,4 Jun 2027 10:51:11.790,452.364
30,4 Jun 2027 12:15:54.113,4 Jun 2027 12:27:48.268,714.155
31,4 Jun 2027 13:51:01.578,4 Jun 2027 14:03:49.002,767.424
32,4 Jun 2027 15:29:40.004,4 Jun 2027 15:38:46.376,546.372
33,5 Jun 2027 01:28:26.594,5 Jun 2027 01:39:49.261,682.667
34,5 Jun 2027 03:03:59.223,5 Jun 2027 03:16:50.783,771.560
35,5 Jun 2027 04:40:13.537,5 Jun 2027 04:50:48.604,635.067
36,5 Jun 2027 06:17:20.609,5 Jun 2027 06:21:41.109,260.500
37,5 Jun 2027 10:55:02.988,5 Jun 2027 11:03:21.243,498.256
38,5 Jun 2027 12:27:39.952,5 Jun 2027 12:39:52.139,732.187
39,5 Jun 2027 14:03:09.896,5 Jun 2027 14:15:48.106,758.210
40,5 Jun 2027 15:42:26.377,5 Jun 2027 15:50:27.642,481.265
41,6 Jun 2027 00:07:57.294,6 Jun 2027 00:09:39.822,102.528
42,6 Jun 2027 01:40:21.199,6 Jun 2027 01:52:11.078,709.879
43,6 Jun 2027 03:16:01.204,6 Jun 2027 03:28:46.753,765.549
44,6 Jun 2027 04:52:19.606,6 Jun 2027 05:02:23.219,603.613
45,6 Jun 2027 06:29:49.484,6 Jun 2027 06:32:37.715,168.231
46,6 Jun 2027 11:06:29.720,6 Jun 2027 11:15:29.501,539.781
47,6 Jun 2027 12:39:28.451,6 Jun 2027 12:51:55.526,747.075
48,6 Jun 2027 14:15:21.475,6 Jun 2027 14:27:46.279,744.805
49,6 Jun 2027 15:55:23.752,6 Jun 2027 16:02:00.823,397.070
50,7 Jun 2027 00:18:31.039,7 Jun 2027 00:23:42.102,311.062
51,7 Jun 2027 01:52:17.314,7 Jun 2027 02:04:28.918,731.604
52,7 Jun 2027 03:28:03.716,7 Jun 2027 03:40:39.989,756.273
53,7 Jun 2027 05:04:26.345,7 Jun 2027 05:13:55.065,568.720
54,7 Jun 2027 11:17:59.408,7 Jun 2027 11:27:36.829,577.422
55,7 Jun 2027 12:51:19.627,7 Jun 2027 13:03:58.426,758.799
56,7 Jun 2027 14:27:36.510,7 Jun 2027 14:39:43.362,726.852
57,7 Jun 2027 16:08:40.638,7 Jun 2027 16:13:17.549,276.911
58,8 Jun 2027 00:29:53.221,8 Jun 2027 00:36:52.792,419.570
59,8 Jun 2027 02:04:14.676,8 Jun 2027 02:16:43.101,748.425
60,8 Jun 2027 03:40:06.731,8 Jun 2027 03:52:30.522,743.790
61,8 Jun 2027 05:16:33.868,8 Jun 2027 05:25:24.065,530.197
62,8 Jun 2027 09:59:06.693,8 Jun 2027 10:02:20.655,193.962
63,8 Jun 2027 11:29:31.922,8 Jun 2027 11:39:43.404,611.482
64,8 Jun 2027 13:03:13.515,8 Jun 2027 13:16:00.809,767.294
65,8 Jun 2027 14:39:55.275,8 Jun 2027 14:51:39.135,703.860
66,9 Jun 2027 00:41:28.786,9 Jun 2027 00:49:47.073,498.287
67,9 Jun 2027 02:16:13.088,9 Jun 2027 02:28:53.882,760.795
68,9 Jun 2027 03:52:10.228,9 Jun 2027 04:04:18.380,728.152
69,9 Jun 2027 05:28:42.372,9 Jun 2027 05:36:50.069,487.697
70,9 Jun 2027 10:10:07.229,9 Jun 2027 10:14:45.987,278.757
71,9 Jun 2027 11:41:07.182,9 Jun 2027 11:51:49.333,642.150
72,9 Jun 2027 13:15:10.147,9 Jun 2027 13:28:02.654,772.507
73,9 Jun 2027 14:52:18.103,9 Jun 2027 15:03:33.323,675.220
74,10 Jun 2027 00:53:11.455,10 Jun 2027 01:02:31.354,559.899
75,10 Jun 2027 02:28:12.400,10 Jun 2027 02:41:01.437,769.037
76,10 Jun 2027 04:04:14.208,10 Jun 2027 04:16:03.587,709.379
77,10 Jun 2027 05:40:52.147,10 Jun 2027 05:48:12.841,440.694
78,10 Jun 2027 10:21:17.506,10 Jun 2027 10:27:03.240,345.734
79,10 Jun 2027 11:52:45.145,10 Jun 2027 12:03:54.688,669.543
80,10 Jun 2027 13:27:09.589,10 Jun 2027 13:40:03.913,774.324
81,10 Jun 2027 15:04:45.470,10 Jun 2027 15:15:25.516,640.046
82,11 Jun 2027 01:04:58.663,11 Jun 2027 01:15:08.311,609.649
83,11 Jun 2027 02:40:12.502,11 Jun 2027 02:53:05.930,773.428
84,11 Jun 2027 04:16:18.671,11 Jun 2027 04:27:46.148,687.477
85,11 Jun 2027 05:53:03.683,11 Jun 2027 05:59:31.944,388.262
86,11 Jun 2027 10:32:33.449,11 Jun 2027 10:39:16.595,403.146
87,11 Jun 2027 12:04:25.765,11 Jun 2027 12:15:59.517,693.752
88,11 Jun 2027 13:39:11.919,11 Jun 2027 13:52:04.521,772.602
89,11 Jun 2027 15:17:18.039,11 Jun 2027 15:27:15.137,597.098
90,12 Jun 2027 01:16:49.060,12 Jun 2027 01:27:39.380,650.320
91,12 Jun 2027 02:52:13.291,12 Jun 2027 03:05:07.462,774.170
92,12 Jun 2027 04:28:23.634,12 Jun 2027 04:39:26.050,662.416
93,12 Jun 2027 06:05:17.872,12 Jun 2027 06:10:46.560,328.689
94,12 Jun 2027 10:43:53.603,12 Jun 2027 10:51:27.600,453.997
95,12 Jun 2027 12:16:09.042,12 Jun 2027 12:28:03.850,714.808
96,12 Jun 2027 13:51:17.230,12 Jun 2027 14:04:04.411,767.181
97,12 Jun 2027 15:29:56.816,12 Jun 2027 15:39:01.262,544.446
98,13 Jun 2027 01:28:41.850,13 Jun 2027 01:40:05.453,683.603
99,13 Jun 2027 03:04:14.712,13 Jun 2027 03:17:06.136,771.424
100,13 Jun 2027 04:40:29.136,13 Jun 2027 04:51:03.284,634.149
101,13 Jun 2027 06:17:36.664,13 Jun 2027 06:21:54.835,258.171
102,13 Jun 2027 10:55:17.276,13 Jun 2027 11:03:36.999,499.722
103,13 Jun 2027 12:27:54.969,13 Jun 2027 12:40:07.701,732.732
104,13 Jun 2027 14:03:25.654,13 Jun 2027 14:16:03.487,757.833
105,13 Jun 2027 15:42:43.486,13 Jun 2027 15:50:42.319,478.832
