dataset/facility_timing/facility_Facility-Moscow/Moscow-To-KinoSat_111808.csv

Acces,Start Time (UTCG),Stop Time (UTCG),Duration (sec)
1,1 Jun 2027 04:13:48.281,1 Jun 2027 04:24:48.683,660.403
2,1 Jun 2027 05:49:15.976,1 Jun 2027 06:02:09.833,773.857
3,1 Jun 2027 07:25:28.521,1 Jun 2027 07:36:22.877,654.356
4,1 Jun 2027 09:02:28.730,1 Jun 2027 09:07:34.060,305.330
5,1 Jun 2027 13:40:50.197,1 Jun 2027 13:48:29.590,459.393
6,1 Jun 2027 15:13:08.828,1 Jun 2027 15:25:06.568,717.740
7,1 Jun 2027 16:48:21.252,1 Jun 2027 17:01:07.335,766.084
8,1 Jun 2027 18:27:07.532,1 Jun 2027 18:36:02.606,535.074
9,2 Jun 2027 04:25:41.975,2 Jun 2027 04:37:13.992,692.017
10,2 Jun 2027 06:01:17.939,2 Jun 2027 06:14:08.045,770.107
11,2 Jun 2027 07:37:34.646,2 Jun 2027 07:47:59.445,624.799
12,2 Jun 2027 09:14:51.255,2 Jun 2027 09:18:38.518,227.264
13,2 Jun 2027 13:52:14.234,2 Jun 2027 14:00:39.417,505.183
14,2 Jun 2027 15:24:55.406,2 Jun 2027 15:37:10.754,735.348
15,2 Jun 2027 17:00:30.621,2 Jun 2027 17:13:06.624,756.004
16,2 Jun 2027 18:39:56.383,2 Jun 2027 18:47:42.899,466.516
17,3 Jun 2027 03:04:31.838,3 Jun 2027 03:07:50.633,198.795
18,3 Jun 2027 04:37:37.435,3 Jun 2027 04:49:34.998,717.564
19,3 Jun 2027 06:13:20.477,3 Jun 2027 06:26:03.441,762.963
20,3 Jun 2027 07:49:41.407,3 Jun 2027 07:59:33.226,591.819
21,3 Jun 2027 09:27:32.449,3 Jun 2027 09:29:22.657,110.208
22,3 Jun 2027 14:03:41.495,3 Jun 2027 14:12:48.040,546.544
23,3 Jun 2027 15:36:44.693,3 Jun 2027 15:49:14.441,749.748
24,3 Jun 2027 17:12:43.328,3 Jun 2027 17:25:04.944,741.616
25,3 Jun 2027 18:52:57.392,3 Jun 2027 18:59:14.025,376.632
26,4 Jun 2027 03:15:33.217,4 Jun 2027 03:21:25.235,352.018
27,4 Jun 2027 04:49:34.325,4 Jun 2027 05:01:52.095,737.770
28,4 Jun 2027 06:25:23.541,4 Jun 2027 06:37:56.074,752.534
29,4 Jun 2027 08:01:48.902,4 Jun 2027 08:11:04.157,555.254
30,4 Jun 2027 12:45:44.918,4 Jun 2027 12:46:45.435,60.516
31,4 Jun 2027 14:15:11.768,4 Jun 2027 14:24:55.734,583.966
32,4 Jun 2027 15:48:36.711,4 Jun 2027 16:01:17.625,760.914
33,4 Jun 2027 17:24:59.592,4 Jun 2027 17:37:02.114,722.522
34,4 Jun 2027 19:06:21.887,4 Jun 2027 19:10:24.783,242.895
35,5 Jun 2027 03:27:01.326,5 Jun 2027 03:34:29.957,448.631
36,5 Jun 2027 05:01:32.408,5 Jun 2027 05:14:05.577,753.169
37,5 Jun 2027 06:37:27.116,5 Jun 2027 06:49:45.973,738.857
38,5 Jun 2027 08:13:57.290,5 Jun 2027 08:22:32.117,514.827
39,5 Jun 2027 12:56:14.408,5 Jun 2027 12:59:40.925,206.517
40,5 Jun 2027 14:26:44.913,5 Jun 2027 14:37:02.656,617.743
41,5 Jun 2027 16:00:31.479,5 Jun 2027 16:13:20.283,768.803
42,5 Jun 2027 17:37:19.694,5 Jun 2027 17:48:57.908,698.214
43,6 Jun 2027 03:38:40.007,6 Jun 2027 03:47:21.079,521.072
44,6 Jun 2027 05:13:31.489,6 Jun 2027 05:26:15.673,764.184
45,6 Jun 2027 06:49:31.186,6 Jun 2027 07:01:33.158,721.972
46,6 Jun 2027 08:26:06.800,6 Jun 2027 08:33:56.913,470.114
47,6 Jun 2027 13:07:16.192,6 Jun 2027 13:12:05.746,289.554
48,6 Jun 2027 14:38:20.857,6 Jun 2027 14:49:08.921,648.064
49,6 Jun 2027 16:12:29.058,6 Jun 2027 16:25:22.380,773.322
50,6 Jun 2027 17:49:44.003,6 Jun 2027 18:00:52.029,668.026
51,7 Jun 2027 03:50:24.751,7 Jun 2027 04:00:03.241,578.490
52,7 Jun 2027 05:25:31.443,7 Jun 2027 05:38:22.559,771.117
53,7 Jun 2027 07:01:35.753,7 Jun 2027 07:13:17.650,701.896
54,7 Jun 2027 08:38:17.816,7 Jun 2027 08:45:18.230,420.415
55,7 Jun 2027 13:18:27.194,7 Jun 2027 13:24:23.072,355.878
56,7 Jun 2027 14:49:59.548,7 Jun 2027 15:01:14.598,675.051
57,7 Jun 2027 16:24:29.505,7 Jun 2027 16:37:23.862,774.358
58,7 Jun 2027 18:02:13.038,7 Jun 2027 18:12:44.021,630.983
59,8 Jun 2027 04:02:13.508,8 Jun 2027 04:12:38.590,625.082
60,8 Jun 2027 05:37:32.161,8 Jun 2027 05:50:26.377,774.216
61,8 Jun 2027 07:13:40.816,8 Jun 2027 07:24:59.442,678.626
62,8 Jun 2027 08:50:30.991,8 Jun 2027 08:56:35.464,364.473
63,8 Jun 2027 13:29:43.761,8 Jun 2027 13:36:36.654,412.893
64,8 Jun 2027 15:01:40.953,8 Jun 2027 15:13:19.746,698.793
65,8 Jun 2027 16:36:32.893,8 Jun 2027 16:49:24.680,771.788
66,8 Jun 2027 18:14:47.540,8 Jun 2027 18:24:33.239,585.699
67,9 Jun 2027 04:14:05.158,9 Jun 2027 04:25:08.348,663.190
68,9 Jun 2027 05:49:33.556,9 Jun 2027 06:02:27.235,773.679
69,9 Jun 2027 07:25:46.412,9 Jun 2027 07:36:38.526,652.114
70,9 Jun 2027 09:02:47.618,9 Jun 2027 09:07:47.416,299.798
71,9 Jun 2027 13:41:04.531,9 Jun 2027 13:48:47.939,463.408
72,9 Jun 2027 15:13:25.062,9 Jun 2027 15:25:24.379,719.316
73,9 Jun 2027 16:48:39.338,9 Jun 2027 17:01:24.742,765.404
74,9 Jun 2027 18:27:28.639,9 Jun 2027 18:36:18.630,529.991
75,10 Jun 2027 04:25:59.007,10 Jun 2027 04:37:33.291,694.285
76,10 Jun 2027 06:01:35.562,10 Jun 2027 06:14:25.218,769.656
77,10 Jun 2027 07:37:52.584,10 Jun 2027 07:48:14.873,622.288
78,10 Jun 2027 09:15:10.879,10 Jun 2027 09:18:50.999,220.120
79,10 Jun 2027 13:52:28.848,10 Jun 2027 14:00:57.644,508.796
80,10 Jun 2027 15:25:11.861,10 Jun 2027 15:37:28.523,736.662
81,10 Jun 2027 17:00:48.970,10 Jun 2027 17:13:23.953,754.983
82,10 Jun 2027 18:40:18.306,10 Jun 2027 18:47:58.339,460.033
83,11 Jun 2027 03:04:42.328,11 Jun 2027 03:08:18.102,215.775
84,11 Jun 2027 04:37:54.589,11 Jun 2027 04:49:53.965,719.376
85,11 Jun 2027 06:13:38.142,11 Jun 2027 06:26:20.386,762.244
86,11 Jun 2027 07:49:59.395,11 Jun 2027 07:59:48.427,589.032
87,11 Jun 2027 09:27:55.713,11 Jun 2027 09:29:31.370,95.657
88,11 Jun 2027 14:03:56.369,11 Jun 2027 14:13:06.175,549.806
89,11 Jun 2027 15:37:01.372,11 Jun 2027 15:49:32.167,750.795
90,11 Jun 2027 17:13:01.963,11 Jun 2027 17:25:22.182,740.219
91,11 Jun 2027 18:53:20.626,11 Jun 2027 18:59:28.402,367.776
92,12 Jun 2027 03:15:47.520,12 Jun 2027 03:21:48.622,361.102
93,12 Jun 2027 04:49:51.580,12 Jun 2027 05:02:10.758,739.179
94,12 Jun 2027 06:25:41.243,12 Jun 2027 06:38:12.795,751.552
95,12 Jun 2027 08:02:06.951,12 Jun 2027 08:11:19.124,552.172
96,12 Jun 2027 12:45:49.740,12 Jun 2027 12:47:12.577,82.837
97,12 Jun 2027 14:15:26.884,12 Jun 2027 14:25:13.795,586.911
98,12 Jun 2027 15:48:53.614,12 Jun 2027 16:01:35.305,761.691
99,12 Jun 2027 17:25:18.529,12 Jun 2027 17:37:19.245,720.716
100,12 Jun 2027 19:06:48.445,12 Jun 2027 19:10:36.096,227.650
101,13 Jun 2027 03:27:16.774,13 Jun 2027 03:34:51.944,455.170
102,13 Jun 2027 05:01:49.746,13 Jun 2027 05:14:23.956,754.210
103,13 Jun 2027 06:37:44.855,13 Jun 2027 06:50:02.473,737.618
104,13 Jun 2027 08:14:15.415,13 Jun 2027 08:22:46.839,511.424
105,13 Jun 2027 12:56:26.425,13 Jun 2027 13:00:01.002,214.577
106,13 Jun 2027 14:27:00.263,13 Jun 2027 14:37:20.654,620.392
107,13 Jun 2027 16:00:48.610,13 Jun 2027 16:13:37.911,769.302
108,13 Jun 2027 17:37:38.956,13 Jun 2027 17:49:14.915,695.959
