dataset/facility_timing/facility_Facility-Moscow/Moscow-To-KinoSat_111001.csv

Acces,Start Time (UTCG),Stop Time (UTCG),Duration (sec)
1,1 Jun 2027 01:03:25.519,1 Jun 2027 01:14:52.866,687.346
2,1 Jun 2027 02:38:59.293,1 Jun 2027 02:51:50.121,770.828
3,1 Jun 2027 04:15:14.130,1 Jun 2027 04:25:44.522,630.393
4,1 Jun 2027 05:52:23.517,1 Jun 2027 05:56:32.178,248.661
5,1 Jun 2027 10:29:56.903,1 Jun 2027 10:38:22.698,505.796
6,1 Jun 2027 12:02:37.618,1 Jun 2027 12:14:52.571,734.952
7,1 Jun 2027 13:38:11.365,1 Jun 2027 13:50:47.588,756.223
8,1 Jun 2027 15:17:34.877,1 Jun 2027 15:25:23.387,468.510
9,1 Jun 2027 23:42:33.213,1 Jun 2027 23:45:09.672,156.459
10,2 Jun 2027 01:15:20.342,2 Jun 2027 01:27:13.971,713.629
11,2 Jun 2027 02:51:01.317,2 Jun 2027 03:03:45.618,764.301
12,2 Jun 2027 04:27:20.248,2 Jun 2027 04:37:18.699,598.451
13,2 Jun 2027 06:04:55.120,2 Jun 2027 06:07:25.768,150.648
14,2 Jun 2027 10:41:24.158,2 Jun 2027 10:50:30.716,546.558
15,2 Jun 2027 12:14:26.543,2 Jun 2027 12:26:55.828,749.285
16,2 Jun 2027 13:50:23.469,2 Jun 2027 14:02:45.553,742.084
17,2 Jun 2027 15:30:34.615,2 Jun 2027 15:36:54.615,380.000
18,2 Jun 2027 23:53:23.622,2 Jun 2027 23:58:54.673,331.051
19,3 Jun 2027 01:27:16.630,3 Jun 2027 01:39:31.165,734.535
20,3 Jun 2027 03:03:03.864,3 Jun 2027 03:15:38.390,754.527
21,3 Jun 2027 04:39:27.042,3 Jun 2027 04:48:50.105,563.063
22,3 Jun 2027 09:23:18.118,3 Jun 2027 09:24:38.514,80.396
23,3 Jun 2027 10:52:54.330,3 Jun 2027 11:02:37.852,583.522
24,3 Jun 2027 12:26:18.144,3 Jun 2027 12:38:58.597,760.453
25,3 Jun 2027 14:02:39.061,3 Jun 2027 14:14:42.389,723.328
26,3 Jun 2027 15:43:56.844,3 Jun 2027 15:48:06.413,249.569
27,4 Jun 2027 00:04:48.649,4 Jun 2027 00:12:01.929,433.280
28,4 Jun 2027 01:39:14.128,4 Jun 2027 01:51:44.751,750.623
29,4 Jun 2027 03:15:06.915,4 Jun 2027 03:27:28.480,741.565
30,4 Jun 2027 04:51:34.646,4 Jun 2027 05:00:18.655,524.010
31,4 Jun 2027 09:33:54.996,4 Jun 2027 09:37:26.153,211.157
32,4 Jun 2027 11:04:27.311,4 Jun 2027 11:14:44.254,616.943
33,4 Jun 2027 12:38:12.458,4 Jun 2027 12:51:00.852,768.394
34,4 Jun 2027 14:14:58.431,4 Jun 2027 14:26:37.883,699.452
35,5 Jun 2027 00:16:25.547,5 Jun 2027 00:24:54.314,508.767
36,5 Jun 2027 01:51:12.650,5 Jun 2027 02:03:54.972,762.322
37,5 Jun 2027 03:27:10.442,5 Jun 2027 03:39:15.898,725.456
38,5 Jun 2027 05:03:43.259,5 Jun 2027 05:11:44.188,480.929
39,5 Jun 2027 09:44:57.909,5 Jun 2027 09:49:49.336,291.427
40,5 Jun 2027 11:16:03.016,5 Jun 2027 11:26:50.032,647.016
41,5 Jun 2027 12:50:09.520,5 Jun 2027 13:03:02.562,773.043
42,5 Jun 2027 14:27:21.922,5 Jun 2027 14:38:31.730,669.808
43,6 Jun 2027 00:28:09.011,6 Jun 2027 00:37:37.263,568.252
44,6 Jun 2027 02:03:12.050,6 Jun 2027 02:16:01.998,769.947
45,6 Jun 2027 03:39:14.452,6 Jun 2027 03:51:00.674,706.222
46,6 Jun 2027 05:15:53.196,6 Jun 2027 05:23:06.450,433.254
47,6 Jun 2027 09:56:09.382,6 Jun 2027 10:02:05.636,356.254
48,6 Jun 2027 11:27:41.408,6 Jun 2027 11:38:55.246,673.838
49,6 Jun 2027 13:02:09.400,6 Jun 2027 13:15:03.674,774.275
50,6 Jun 2027 14:39:50.046,6 Jun 2027 14:50:23.503,633.457
51,7 Jun 2027 00:39:56.742,7 Jun 2027 00:50:13.168,616.426
52,7 Jun 2027 02:15:12.221,7 Jun 2027 02:28:05.983,773.762
53,7 Jun 2027 03:51:18.941,7 Jun 2027 04:02:42.808,683.868
54,7 Jun 2027 05:28:04.978,7 Jun 2027 05:34:24.965,379.988
55,7 Jun 2027 10:07:26.148,7 Jun 2027 10:14:18.432,412.285
56,7 Jun 2027 11:39:22.456,7 Jun 2027 11:50:59.942,697.486
57,7 Jun 2027 13:14:12.175,7 Jun 2027 13:27:04.131,771.956
58,7 Jun 2027 14:52:23.499,7 Jun 2027 15:02:12.584,589.085
59,8 Jun 2027 00:51:47.513,8 Jun 2027 01:02:43.360,655.846
60,8 Jun 2027 02:27:13.075,8 Jun 2027 02:40:07.034,773.959
61,8 Jun 2027 04:03:23.938,8 Jun 2027 04:14:22.285,658.347
62,8 Jun 2027 05:40:19.596,8 Jun 2027 05:45:38.835,319.239
63,8 Jun 2027 10:18:46.947,8 Jun 2027 10:26:29.048,462.101
64,8 Jun 2027 11:51:06.151,8 Jun 2027 12:03:04.144,717.994
65,8 Jun 2027 13:26:17.948,8 Jun 2027 13:39:03.851,765.903
66,8 Jun 2027 15:05:03.370,8 Jun 2027 15:13:57.975,534.605
67,9 Jun 2027 01:03:40.580,9 Jun 2027 01:15:08.669,688.090
68,9 Jun 2027 02:39:14.542,9 Jun 2027 02:52:05.240,770.698
69,9 Jun 2027 04:15:29.471,9 Jun 2027 04:25:59.100,629.629
70,9 Jun 2027 05:52:39.258,9 Jun 2027 05:56:45.945,246.687
71,9 Jun 2027 10:30:11.178,9 Jun 2027 10:38:38.159,506.981
72,9 Jun 2027 12:02:52.490,9 Jun 2027 12:15:07.874,735.384
73,9 Jun 2027 13:38:26.847,9 Jun 2027 13:51:02.742,755.895
74,9 Jun 2027 15:17:51.506,9 Jun 2027 15:25:37.933,466.427
75,9 Jun 2027 23:42:45.398,9 Jun 2027 23:45:28.883,163.486
76,10 Jun 2027 01:15:35.445,10 Jun 2027 01:27:29.669,714.224
77,10 Jun 2027 02:51:16.579,10 Jun 2027 03:04:00.668,764.088
78,10 Jun 2027 04:27:35.597,10 Jun 2027 04:37:33.202,597.604
79,10 Jun 2027 06:05:11.383,10 Jun 2027 06:07:38.969,147.586
80,10 Jun 2027 10:41:38.516,10 Jun 2027 10:50:46.146,547.630
81,10 Jun 2027 12:14:41.486,10 Jun 2027 12:27:11.117,749.631
82,10 Jun 2027 13:50:39.041,10 Jun 2027 14:03:00.677,741.636
83,10 Jun 2027 15:30:51.654,10 Jun 2027 15:37:08.822,377.169
84,10 Jun 2027 23:53:37.719,10 Jun 2027 23:59:11.886,334.167
85,11 Jun 2027 01:27:31.764,11 Jun 2027 01:39:46.765,735.001
86,11 Jun 2027 03:03:19.134,11 Jun 2027 03:15:53.375,754.240
87,11 Jun 2027 04:39:42.407,11 Jun 2027 04:49:04.538,562.131
88,11 Jun 2027 09:23:29.679,11 Jun 2027 09:24:56.410,86.731
89,11 Jun 2027 10:53:08.766,11 Jun 2027 11:02:53.256,584.490
90,11 Jun 2027 12:26:33.158,11 Jun 2027 12:39:13.869,760.711
91,11 Jun 2027 14:02:54.730,11 Jun 2027 14:14:57.476,722.746
92,11 Jun 2027 15:44:14.869,11 Jun 2027 15:48:19.713,244.844
93,12 Jun 2027 00:05:03.173,12 Jun 2027 00:12:18.633,435.460
94,12 Jun 2027 01:39:29.288,12 Jun 2027 01:52:00.261,750.973
95,12 Jun 2027 03:15:22.195,12 Jun 2027 03:27:43.390,741.194
96,12 Jun 2027 04:51:50.028,12 Jun 2027 05:00:33.014,522.986
97,12 Jun 2027 09:34:08.424,12 Jun 2027 09:37:42.220,213.797
98,12 Jun 2027 11:04:41.821,12 Jun 2027 11:14:59.637,617.815
99,12 Jun 2027 12:38:27.544,12 Jun 2027 12:51:16.107,768.563
100,12 Jun 2027 14:15:14.202,12 Jun 2027 14:26:52.927,698.726
101,13 Jun 2027 00:16:40.280,13 Jun 2027 00:25:10.729,510.449
102,13 Jun 2027 01:51:27.831,13 Jun 2027 02:04:10.395,762.564
103,13 Jun 2027 03:27:25.731,13 Jun 2027 03:39:30.738,725.007
104,13 Jun 2027 05:03:58.664,13 Jun 2027 05:11:58.470,479.806
105,13 Jun 2027 09:45:11.677,13 Jun 2027 09:50:05.105,293.428
106,13 Jun 2027 11:16:17.599,13 Jun 2027 11:27:05.396,647.797
107,13 Jun 2027 12:50:24.679,13 Jun 2027 13:03:17.799,773.120
108,13 Jun 2027 14:27:37.811,13 Jun 2027 14:38:46.722,668.911
