dataset/facility_timing/facility_Facility-Moscow/Moscow-To-KinoSat_111901.csv

Acces,Start Time (UTCG),Stop Time (UTCG),Duration (sec)
1,1 Jun 2027 03:42:42.343,1 Jun 2027 03:48:43.554,361.211
2,1 Jun 2027 05:16:46.587,1 Jun 2027 05:29:05.790,739.203
3,1 Jun 2027 06:52:36.387,1 Jun 2027 07:05:07.933,751.546
4,1 Jun 2027 08:29:02.290,1 Jun 2027 08:38:14.264,551.973
5,1 Jun 2027 13:12:48.930,1 Jun 2027 13:14:03.869,74.939
6,1 Jun 2027 14:42:22.436,1 Jun 2027 14:52:08.600,586.163
7,1 Jun 2027 16:15:48.825,1 Jun 2027 16:28:30.362,761.537
8,1 Jun 2027 17:52:13.436,1 Jun 2027 18:04:14.548,721.111
9,1 Jun 2027 19:33:41.814,1 Jun 2027 19:37:32.855,231.041
10,2 Jun 2027 03:54:11.649,2 Jun 2027 04:01:46.951,455.302
11,2 Jun 2027 05:28:44.802,2 Jun 2027 05:41:19.046,754.243
12,2 Jun 2027 07:04:40.053,2 Jun 2027 07:16:57.645,737.592
13,2 Jun 2027 08:41:10.834,2 Jun 2027 08:49:41.964,511.130
14,2 Jun 2027 13:23:23.071,2 Jun 2027 13:26:54.858,211.787
15,2 Jun 2027 14:53:55.773,2 Jun 2027 15:04:15.539,619.766
16,2 Jun 2027 16:27:43.815,2 Jun 2027 16:40:33.036,769.221
17,2 Jun 2027 18:04:33.863,2 Jun 2027 18:16:10.289,696.426
18,3 Jun 2027 04:05:50.983,3 Jun 2027 04:14:37.298,526.315
19,3 Jun 2027 05:40:44.009,3 Jun 2027 05:53:28.927,764.919
20,3 Jun 2027 07:16:44.216,3 Jun 2027 07:28:44.637,720.421
21,3 Jun 2027 08:53:20.529,3 Jun 2027 09:01:06.469,465.940
22,3 Jun 2027 13:34:25.496,3 Jun 2027 13:39:19.196,293.700
23,3 Jun 2027 15:05:31.915,3 Jun 2027 15:16:21.818,649.903
24,3 Jun 2027 16:39:41.627,3 Jun 2027 16:52:35.136,773.508
25,3 Jun 2027 18:16:58.545,3 Jun 2027 18:28:04.321,665.776
26,4 Jun 2027 04:17:36.158,4 Jun 2027 04:27:18.913,582.755
27,4 Jun 2027 05:52:44.071,4 Jun 2027 06:05:35.608,771.537
28,4 Jun 2027 07:28:48.878,4 Jun 2027 07:40:28.934,700.056
29,4 Jun 2027 09:05:31.790,4 Jun 2027 09:12:27.435,415.646
30,4 Jun 2027 13:45:36.849,4 Jun 2027 13:51:36.345,359.496
31,4 Jun 2027 15:17:10.802,4 Jun 2027 15:28:27.522,676.720
32,4 Jun 2027 16:51:42.312,4 Jun 2027 17:04:36.628,774.316
33,4 Jun 2027 18:29:27.989,4 Jun 2027 18:39:56.189,628.200
34,5 Jun 2027 04:29:25.231,5 Jun 2027 04:39:53.828,628.597
35,5 Jun 2027 06:04:44.893,5 Jun 2027 06:17:39.224,774.331
36,5 Jun 2027 07:40:54.039,5 Jun 2027 07:52:10.519,676.480
37,5 Jun 2027 09:17:45.300,5 Jun 2027 09:23:44.236,358.936
38,5 Jun 2027 13:56:53.675,5 Jun 2027 14:03:49.854,416.179
39,5 Jun 2027 15:28:52.416,5 Jun 2027 15:40:32.685,700.270
40,5 Jun 2027 17:03:45.954,5 Jun 2027 17:16:37.444,771.490
41,5 Jun 2027 18:42:02.974,5 Jun 2027 18:51:45.227,582.253
42,6 Jun 2027 04:41:17.133,6 Jun 2027 04:52:23.227,666.094
43,6 Jun 2027 06:16:46.394,6 Jun 2027 06:29:39.878,773.484
44,6 Jun 2027 07:52:59.740,6 Jun 2027 08:03:49.388,649.648
45,6 Jun 2027 09:30:02.470,6 Jun 2027 09:34:55.544,293.074
46,6 Jun 2027 14:08:14.665,6 Jun 2027 14:16:01.105,466.440
47,6 Jun 2027 15:40:36.729,6 Jun 2027 15:52:37.341,720.612
48,6 Jun 2027 17:15:52.666,6 Jun 2027 17:28:37.496,764.830
49,6 Jun 2027 18:54:44.668,6 Jun 2027 19:03:30.338,525.670
50,7 Jun 2027 04:53:11.188,7 Jun 2027 05:04:47.859,696.671
51,7 Jun 2027 06:28:48.498,7 Jun 2027 06:41:37.661,769.163
52,7 Jun 2027 08:05:06.023,7 Jun 2027 08:15:25.510,619.487
53,7 Jun 2027 09:42:26.865,7 Jun 2027 09:45:57.899,211.034
54,7 Jun 2027 14:19:39.195,7 Jun 2027 14:28:10.799,511.603
55,7 Jun 2027 15:52:23.750,7 Jun 2027 16:04:41.504,737.754
56,7 Jun 2027 17:28:02.581,7 Jun 2027 17:40:36.689,754.108
57,7 Jun 2027 19:07:35.131,7 Jun 2027 19:15:09.579,454.448
58,8 Jun 2027 03:31:48.039,8 Jun 2027 03:35:40.691,232.653
59,8 Jun 2027 05:05:06.950,8 Jun 2027 05:17:08.250,721.299
60,8 Jun 2027 06:40:51.173,8 Jun 2027 06:53:32.629,761.456
61,8 Jun 2027 08:17:12.956,8 Jun 2027 08:26:58.831,585.875
62,8 Jun 2027 09:55:18.353,8 Jun 2027 09:56:31.525,73.172
63,8 Jun 2027 14:31:06.923,8 Jun 2027 14:40:19.335,552.412
64,8 Jun 2027 16:04:13.485,8 Jun 2027 16:16:45.166,751.681
65,8 Jun 2027 17:40:15.873,8 Jun 2027 17:52:34.887,739.014
66,8 Jun 2027 19:20:38.716,8 Jun 2027 19:26:38.721,360.005
67,9 Jun 2027 03:42:56.804,9 Jun 2027 03:49:07.488,370.684
68,9 Jun 2027 05:17:04.094,9 Jun 2027 05:29:24.776,740.681
69,9 Jun 2027 06:52:54.374,9 Jun 2027 07:05:24.837,750.463
70,9 Jun 2027 08:29:20.652,9 Jun 2027 08:38:29.272,548.620
71,9 Jun 2027 13:12:54.891,9 Jun 2027 13:14:30.169,95.278
72,9 Jun 2027 14:42:37.642,9 Jun 2027 14:52:26.959,589.317
73,9 Jun 2027 16:16:05.955,9 Jun 2027 16:28:48.313,762.358
74,9 Jun 2027 17:52:32.770,9 Jun 2027 18:04:31.902,719.131
75,9 Jun 2027 19:34:09.867,9 Jun 2027 19:37:43.441,213.574
76,10 Jun 2027 03:54:27.270,10 Jun 2027 04:02:09.459,462.189
77,10 Jun 2027 05:29:02.396,10 Jun 2027 05:41:37.731,755.335
78,10 Jun 2027 07:04:58.078,10 Jun 2027 07:17:14.309,736.231
79,10 Jun 2027 08:41:29.279,10 Jun 2027 08:49:56.702,507.423
80,10 Jun 2027 13:23:35.025,10 Jun 2027 13:27:15.306,220.281
81,10 Jun 2027 14:54:11.234,10 Jun 2027 15:04:33.829,622.595
82,10 Jun 2027 16:28:01.199,10 Jun 2027 16:40:50.931,769.732
83,10 Jun 2027 18:04:53.557,10 Jun 2027 18:16:27.505,693.948
84,11 Jun 2027 04:06:07.216,11 Jun 2027 04:14:58.925,531.708
85,11 Jun 2027 05:41:01.675,11 Jun 2027 05:53:47.325,765.651
86,11 Jun 2027 07:17:02.280,11 Jun 2027 07:29:01.065,718.785
87,11 Jun 2027 08:53:39.086,11 Jun 2027 09:01:20.919,461.833
88,11 Jun 2027 13:34:38.550,11 Jun 2027 13:39:38.691,300.141
89,11 Jun 2027 15:05:47.624,11 Jun 2027 15:16:40.055,652.431
90,11 Jun 2027 16:39:59.258,11 Jun 2027 16:52:52.983,773.725
91,11 Jun 2027 18:17:18.628,11 Jun 2027 18:28:21.364,662.735
92,12 Jun 2027 04:17:52.784,12 Jun 2027 04:27:39.894,587.110
93,12 Jun 2027 05:53:01.808,12 Jun 2027 06:05:53.733,771.926
94,12 Jun 2027 07:29:06.982,12 Jun 2027 07:40:45.125,698.142
95,12 Jun 2027 09:05:50.501,12 Jun 2027 09:12:41.559,411.058
96,12 Jun 2027 13:45:50.490,12 Jun 2027 13:51:55.405,364.915
97,12 Jun 2027 15:17:26.751,12 Jun 2027 15:28:45.704,678.953
98,12 Jun 2027 16:52:00.200,12 Jun 2027 17:04:54.410,774.210
99,12 Jun 2027 18:29:48.530,12 Jun 2027 18:40:13.008,624.477
100,13 Jun 2027 04:29:42.135,13 Jun 2027 04:40:14.289,632.154
101,13 Jun 2027 06:05:02.688,13 Jun 2027 06:17:57.086,774.398
102,13 Jun 2027 07:41:12.184,13 Jun 2027 07:52:26.473,674.289
103,13 Jun 2027 09:18:04.247,13 Jun 2027 09:23:57.958,353.711
104,13 Jun 2027 13:57:07.732,13 Jun 2027 14:04:08.662,420.930
105,13 Jun 2027 15:29:08.605,13 Jun 2027 15:40:50.816,702.211
106,13 Jun 2027 17:04:04.108,13 Jun 2027 17:16:55.161,771.054
107,13 Jun 2027 18:42:24.053,13 Jun 2027 18:52:01.746,577.694
