dataset/area_timing/orbit_15/Russia-To-KinoSat_111507.csv

Acces,Start Time (UTCG),Stop Time (UTCG),Duration (sec)
1,1 Jun 2027 01:20:47.422,1 Jun 2027 01:28:17.866,450.444
2,1 Jun 2027 02:58:59.712,1 Jun 2027 02:59:25.883,26.171
3,1 Jun 2027 02:59:33.385,1 Jun 2027 03:05:09.228,335.844
4,1 Jun 2027 04:36:58.929,1 Jun 2027 04:41:50.424,291.494
5,1 Jun 2027 06:00:37.951,1 Jun 2027 06:03:13.864,155.913
6,1 Jun 2027 07:37:01.288,1 Jun 2027 07:40:35.003,213.714
7,1 Jun 2027 09:11:06.453,1 Jun 2027 09:17:59.874,413.421
8,1 Jun 2027 09:18:02.238,1 Jun 2027 09:19:03.906,61.668
9,1 Jun 2027 10:48:08.902,1 Jun 2027 10:54:52.203,403.301
10,1 Jun 2027 12:25:06.142,1 Jun 2027 12:30:05.542,299.400
11,1 Jun 2027 14:01:51.658,1 Jun 2027 14:06:34.182,282.524
12,1 Jun 2027 15:40:05.334,1 Jun 2027 15:41:01.558,56.225
13,1 Jun 2027 20:44:42.144,1 Jun 2027 20:46:58.617,136.473
14,1 Jun 2027 22:20:38.771,1 Jun 2027 22:27:10.840,392.069
15,1 Jun 2027 23:57:20.591,2 Jun 2027 00:03:49.556,388.965
16,2 Jun 2027 01:32:53.170,2 Jun 2027 01:40:27.870,454.700
17,2 Jun 2027 03:11:05.785,2 Jun 2027 03:12:07.281,61.496
18,2 Jun 2027 03:12:13.689,2 Jun 2027 03:17:20.610,306.921
19,2 Jun 2027 04:50:11.372,2 Jun 2027 04:53:44.154,212.781
20,2 Jun 2027 06:12:42.892,2 Jun 2027 06:15:22.070,159.178
21,2 Jun 2027 07:49:11.865,2 Jun 2027 07:52:41.113,209.248
22,2 Jun 2027 09:24:17.994,2 Jun 2027 09:31:04.539,406.545
23,2 Jun 2027 11:00:40.146,2 Jun 2027 11:06:58.686,378.540
24,2 Jun 2027 12:38:07.690,2 Jun 2027 12:42:34.941,267.252
25,2 Jun 2027 14:14:14.932,2 Jun 2027 14:18:28.162,253.230
26,2 Jun 2027 20:56:49.004,2 Jun 2027 20:59:50.726,181.722
27,2 Jun 2027 22:32:43.636,2 Jun 2027 22:38:30.153,346.517
28,3 Jun 2027 00:09:25.376,3 Jun 2027 00:15:36.548,371.172
29,3 Jun 2027 01:44:51.493,3 Jun 2027 01:51:57.047,425.555
30,3 Jun 2027 03:23:05.442,3 Jun 2027 03:23:49.715,44.273
31,3 Jun 2027 03:24:11.256,3 Jun 2027 03:29:13.322,302.066
32,3 Jun 2027 05:01:18.267,3 Jun 2027 05:01:56.337,38.070
33,3 Jun 2027 05:02:08.816,3 Jun 2027 05:04:53.251,164.435
34,3 Jun 2027 06:24:47.066,3 Jun 2027 06:27:54.606,187.540
35,3 Jun 2027 08:01:16.098,3 Jun 2027 08:04:41.881,205.783
36,3 Jun 2027 09:36:26.618,3 Jun 2027 09:43:03.289,396.671
37,3 Jun 2027 11:12:24.453,3 Jun 2027 11:18:31.559,367.107
38,3 Jun 2027 11:18:40.177,3 Jun 2027 11:18:49.168,8.990
39,3 Jun 2027 12:50:14.393,3 Jun 2027 12:54:46.203,271.810
40,3 Jun 2027 14:26:16.465,3 Jun 2027 14:30:27.762,251.297
41,3 Jun 2027 14:30:31.765,3 Jun 2027 14:31:16.298,44.533
42,3 Jun 2027 19:33:06.867,3 Jun 2027 19:34:14.066,67.199
43,3 Jun 2027 21:08:48.337,3 Jun 2027 21:11:54.700,186.363
44,3 Jun 2027 22:44:55.237,3 Jun 2027 22:50:21.918,326.681
45,4 Jun 2027 00:21:24.075,4 Jun 2027 00:27:39.827,375.753
46,4 Jun 2027 01:56:52.802,4 Jun 2027 01:57:15.687,22.885
47,4 Jun 2027 01:57:17.492,4 Jun 2027 02:03:53.340,395.848
48,4 Jun 2027 03:36:10.535,4 Jun 2027 03:41:27.476,316.940
49,4 Jun 2027 03:42:24.381,4 Jun 2027 03:43:59.380,94.999
50,4 Jun 2027 05:02:26.028,4 Jun 2027 05:02:44.366,18.338
51,4 Jun 2027 05:13:16.036,4 Jun 2027 05:16:47.772,211.737
52,4 Jun 2027 06:37:14.006,4 Jun 2027 06:39:58.889,164.883
53,4 Jun 2027 08:13:00.550,4 Jun 2027 08:17:14.359,253.809
54,4 Jun 2027 09:47:44.084,4 Jun 2027 09:55:13.462,449.378
55,4 Jun 2027 11:24:28.473,4 Jun 2027 11:30:51.170,382.697
56,4 Jun 2027 13:02:45.949,4 Jun 2027 13:06:39.796,233.847
57,4 Jun 2027 14:36:03.929,4 Jun 2027 14:37:32.500,88.571
58,4 Jun 2027 14:38:02.915,4 Jun 2027 14:42:17.814,254.900
59,4 Jun 2027 14:42:37.295,4 Jun 2027 14:43:34.981,57.686
60,4 Jun 2027 19:44:28.524,4 Jun 2027 19:46:42.731,134.208
61,4 Jun 2027 21:20:42.157,4 Jun 2027 21:24:06.182,204.025
62,4 Jun 2027 22:57:20.739,4 Jun 2027 23:03:28.795,368.056
63,5 Jun 2027 00:33:32.234,5 Jun 2027 00:40:16.380,404.146
64,5 Jun 2027 02:09:33.289,5 Jun 2027 02:15:56.619,383.331
65,5 Jun 2027 03:48:31.229,5 Jun 2027 03:55:55.371,444.142
66,5 Jun 2027 05:13:41.787,5 Jun 2027 05:15:01.162,79.375
67,5 Jun 2027 05:25:14.982,5 Jun 2027 05:26:42.679,87.697
68,5 Jun 2027 06:47:52.582,5 Jun 2027 06:48:50.814,58.233
69,5 Jun 2027 06:49:29.101,5 Jun 2027 06:52:33.668,184.567
70,5 Jun 2027 08:23:01.113,5 Jun 2027 08:24:14.626,73.513
71,5 Jun 2027 08:24:43.905,5 Jun 2027 08:29:32.011,288.107
72,5 Jun 2027 09:59:47.943,5 Jun 2027 10:07:14.134,446.191
73,5 Jun 2027 11:36:48.978,5 Jun 2027 11:42:39.238,350.260
74,5 Jun 2027 11:42:41.343,5 Jun 2027 11:42:59.881,18.538
75,5 Jun 2027 13:14:42.781,5 Jun 2027 13:18:42.517,239.735
76,5 Jun 2027 14:47:59.165,5 Jun 2027 14:54:17.777,378.612
77,5 Jun 2027 14:54:34.764,5 Jun 2027 14:55:48.404,73.640
78,5 Jun 2027 19:56:26.722,5 Jun 2027 19:59:05.391,158.668
79,5 Jun 2027 21:32:48.936,5 Jun 2027 21:36:12.304,203.369
80,5 Jun 2027 21:37:51.163,5 Jun 2027 21:39:31.214,100.051
81,5 Jun 2027 23:09:21.758,5 Jun 2027 23:15:38.284,376.526
82,6 Jun 2027 00:45:37.160,6 Jun 2027 00:52:13.393,396.232
83,6 Jun 2027 02:21:41.327,6 Jun 2027 02:27:46.248,364.921
84,6 Jun 2027 04:00:46.972,6 Jun 2027 04:07:50.399,423.427
85,6 Jun 2027 05:25:00.305,6 Jun 2027 05:27:11.719,131.414
86,6 Jun 2027 05:37:14.027,6 Jun 2027 05:38:10.252,56.225
87,6 Jun 2027 06:59:28.315,6 Jun 2027 07:00:35.588,67.274
88,6 Jun 2027 07:01:24.313,6 Jun 2027 07:04:47.754,203.441
89,6 Jun 2027 08:34:21.226,6 Jun 2027 08:36:28.889,127.663
90,6 Jun 2027 08:36:31.977,6 Jun 2027 08:41:53.313,321.336
91,6 Jun 2027 08:42:25.471,6 Jun 2027 08:42:53.016,27.544
92,6 Jun 2027 10:11:55.916,6 Jun 2027 10:19:17.770,441.854
93,6 Jun 2027 11:48:38.831,6 Jun 2027 11:54:53.121,374.290
94,6 Jun 2027 11:54:57.326,6 Jun 2027 11:55:17.794,20.468
95,6 Jun 2027 13:26:42.936,6 Jun 2027 13:30:52.403,249.467
96,6 Jun 2027 15:00:25.970,6 Jun 2027 15:07:20.226,414.256
97,6 Jun 2027 20:08:29.957,6 Jun 2027 20:11:24.262,174.305
98,6 Jun 2027 21:44:58.545,6 Jun 2027 21:48:37.327,218.782
99,6 Jun 2027 21:49:42.898,6 Jun 2027 21:52:47.743,184.845
100,6 Jun 2027 23:21:31.439,6 Jun 2027 23:27:52.836,381.397
101,7 Jun 2027 00:57:04.353,7 Jun 2027 00:57:50.551,46.198
102,7 Jun 2027 00:57:56.270,7 Jun 2027 01:04:41.866,405.596
103,7 Jun 2027 02:34:08.082,7 Jun 2027 02:34:21.451,13.369
104,7 Jun 2027 02:34:34.240,7 Jun 2027 02:35:03.006,28.766
105,7 Jun 2027 02:35:07.572,7 Jun 2027 02:36:02.073,54.500
106,7 Jun 2027 02:36:02.181,7 Jun 2027 02:40:03.955,241.773
107,7 Jun 2027 04:12:52.464,7 Jun 2027 04:18:56.203,363.738
108,7 Jun 2027 05:37:06.319,7 Jun 2027 05:39:00.488,114.169
109,7 Jun 2027 05:49:35.740,7 Jun 2027 05:49:41.300,5.560
110,7 Jun 2027 07:10:57.021,7 Jun 2027 07:12:19.335,82.314
111,7 Jun 2027 07:12:59.969,7 Jun 2027 07:16:59.899,239.930
112,7 Jun 2027 08:45:51.160,7 Jun 2027 08:54:02.230,491.070
113,7 Jun 2027 08:54:22.656,7 Jun 2027 08:55:20.709,58.053
114,7 Jun 2027 10:23:51.179,7 Jun 2027 10:31:19.587,448.408
115,7 Jun 2027 12:00:46.678,7 Jun 2027 12:06:06.224,319.546
116,7 Jun 2027 12:06:26.537,7 Jun 2027 12:07:17.464,50.926
117,7 Jun 2027 13:38:20.481,7 Jun 2027 13:42:51.076,270.596
118,7 Jun 2027 15:14:32.056,7 Jun 2027 15:18:02.226,210.171
119,7 Jun 2027 20:20:35.664,7 Jun 2027 20:25:22.737,287.074
120,7 Jun 2027 21:56:55.750,7 Jun 2027 22:01:34.600,278.850
121,7 Jun 2027 22:01:45.352,7 Jun 2027 22:03:35.696,110.345
122,7 Jun 2027 22:04:20.866,7 Jun 2027 22:05:02.524,41.658
123,7 Jun 2027 23:33:30.187,7 Jun 2027 23:40:05.460,395.272
124,8 Jun 2027 01:09:02.044,8 Jun 2027 01:16:48.084,466.039
125,8 Jun 2027 02:46:44.860,8 Jun 2027 02:46:55.694,10.833
126,8 Jun 2027 02:47:07.458,8 Jun 2027 02:48:09.062,61.604
127,8 Jun 2027 02:48:14.453,8 Jun 2027 02:48:51.198,36.744
128,8 Jun 2027 02:48:52.949,8 Jun 2027 02:52:22.311,209.362
129,8 Jun 2027 04:25:18.636,8 Jun 2027 04:30:12.124,293.488
130,8 Jun 2027 05:49:02.562,8 Jun 2027 05:51:19.861,137.299
131,8 Jun 2027 07:25:15.746,8 Jun 2027 07:28:46.160,210.415
132,8 Jun 2027 08:58:47.372,8 Jun 2027 09:07:22.288,514.916
133,8 Jun 2027 10:36:13.368,8 Jun 2027 10:43:13.445,420.077
134,8 Jun 2027 12:13:15.916,8 Jun 2027 12:17:45.384,269.468
135,8 Jun 2027 12:17:52.785,8 Jun 2027 12:19:06.535,73.750
136,8 Jun 2027 13:50:03.818,8 Jun 2027 13:54:49.325,285.507
137,8 Jun 2027 15:25:19.633,8 Jun 2027 15:25:22.035,2.401
138,8 Jun 2027 15:27:02.333,8 Jun 2027 15:29:48.313,165.979
139,8 Jun 2027 20:32:52.468,8 Jun 2027 20:35:25.215,152.747
140,8 Jun 2027 20:35:57.166,8 Jun 2027 20:37:42.452,105.285
141,8 Jun 2027 22:08:51.045,8 Jun 2027 22:15:34.892,403.847
142,8 Jun 2027 23:45:33.902,8 Jun 2027 23:51:56.813,382.911
143,9 Jun 2027 01:21:04.784,9 Jun 2027 01:28:34.969,450.185
144,9 Jun 2027 02:59:13.916,9 Jun 2027 02:59:42.132,28.216
145,9 Jun 2027 02:59:48.925,9 Jun 2027 03:05:25.139,336.213
146,9 Jun 2027 04:37:14.212,9 Jun 2027 04:42:07.152,292.941
147,9 Jun 2027 06:00:54.553,9 Jun 2027 06:03:31.449,156.895
148,9 Jun 2027 07:37:21.094,9 Jun 2027 07:40:52.910,211.815
149,9 Jun 2027 09:09:30.987,9 Jun 2027 09:09:38.582,7.595
150,9 Jun 2027 09:11:26.360,9 Jun 2027 09:18:16.412,410.052
151,9 Jun 2027 09:18:18.492,9 Jun 2027 09:19:19.990,61.499
152,9 Jun 2027 10:48:24.662,9 Jun 2027 10:55:08.852,404.190
153,9 Jun 2027 12:25:29.994,9 Jun 2027 12:29:49.735,259.741
154,9 Jun 2027 12:29:50.625,9 Jun 2027 12:30:45.356,54.732
155,9 Jun 2027 14:02:07.602,9 Jun 2027 14:07:15.916,308.315
156,9 Jun 2027 15:40:27.033,9 Jun 2027 15:41:17.442,50.409
157,9 Jun 2027 20:44:59.234,9 Jun 2027 20:47:16.756,137.521
158,9 Jun 2027 22:20:55.444,9 Jun 2027 22:27:27.219,391.775
159,9 Jun 2027 23:57:36.719,10 Jun 2027 00:04:07.107,390.388
160,10 Jun 2027 01:33:09.776,10 Jun 2027 01:40:42.954,453.178
161,10 Jun 2027 03:11:20.588,10 Jun 2027 03:12:23.340,62.751
162,10 Jun 2027 03:12:29.984,10 Jun 2027 03:17:36.605,306.620
163,10 Jun 2027 04:50:27.671,10 Jun 2027 04:54:00.915,213.245
164,10 Jun 2027 06:13:00.119,10 Jun 2027 06:16:01.665,181.546
165,10 Jun 2027 07:49:28.908,10 Jun 2027 07:52:59.131,210.223
166,10 Jun 2027 09:24:36.720,10 Jun 2027 09:31:21.164,404.445
167,10 Jun 2027 11:00:58.473,10 Jun 2027 11:07:15.622,377.149
168,10 Jun 2027 12:38:23.785,10 Jun 2027 12:42:52.729,268.943
169,10 Jun 2027 14:14:34.674,10 Jun 2027 14:18:45.070,250.396
170,10 Jun 2027 20:57:05.809,10 Jun 2027 21:00:07.208,181.399
171,10 Jun 2027 22:33:00.609,10 Jun 2027 22:38:46.196,345.587
172,11 Jun 2027 00:09:42.357,11 Jun 2027 00:15:52.889,370.532
173,11 Jun 2027 01:45:08.102,11 Jun 2027 01:52:11.794,423.692
174,11 Jun 2027 03:23:22.714,11 Jun 2027 03:24:03.278,40.564
175,11 Jun 2027 03:24:27.534,11 Jun 2027 03:29:30.345,302.811
176,11 Jun 2027 05:01:34.894,11 Jun 2027 05:02:12.960,38.066
177,11 Jun 2027 05:02:26.249,11 Jun 2027 05:05:08.969,162.720
178,11 Jun 2027 06:25:03.214,11 Jun 2027 06:28:11.464,188.250
179,11 Jun 2027 08:01:32.005,11 Jun 2027 08:04:57.477,205.472
180,11 Jun 2027 09:36:43.976,11 Jun 2027 09:43:19.920,395.945
181,11 Jun 2027 11:12:39.203,11 Jun 2027 11:18:48.689,369.486
182,11 Jun 2027 12:50:31.830,11 Jun 2027 12:55:01.810,269.980
183,11 Jun 2027 14:26:29.264,11 Jun 2027 14:30:43.415,254.151
184,11 Jun 2027 14:30:47.981,11 Jun 2027 14:31:35.083,47.102
185,11 Jun 2027 19:33:20.790,11 Jun 2027 19:34:31.414,70.624
186,11 Jun 2027 21:09:03.510,11 Jun 2027 21:12:11.286,187.776
187,11 Jun 2027 22:45:12.401,11 Jun 2027 22:50:38.724,326.323
188,12 Jun 2027 00:21:41.026,12 Jun 2027 00:28:01.644,380.618
189,12 Jun 2027 01:57:09.586,12 Jun 2027 02:04:11.329,421.744
190,12 Jun 2027 03:36:27.434,12 Jun 2027 03:41:44.566,317.132
191,12 Jun 2027 03:42:38.892,12 Jun 2027 03:44:15.502,96.610
192,12 Jun 2027 05:02:40.182,12 Jun 2027 05:03:02.486,22.304
193,12 Jun 2027 05:13:32.377,12 Jun 2027 05:17:02.119,209.742
194,12 Jun 2027 06:37:30.040,12 Jun 2027 06:40:15.845,165.805
195,12 Jun 2027 08:13:15.936,12 Jun 2027 08:17:30.916,254.980
196,12 Jun 2027 09:47:58.845,12 Jun 2027 09:55:30.462,451.617
197,12 Jun 2027 11:24:45.624,12 Jun 2027 11:31:07.681,382.057
198,12 Jun 2027 13:03:01.119,12 Jun 2027 13:06:56.370,235.251
199,12 Jun 2027 14:36:19.335,12 Jun 2027 14:37:50.499,91.164
200,12 Jun 2027 14:38:08.466,12 Jun 2027 14:42:34.664,266.198
201,12 Jun 2027 14:42:55.578,12 Jun 2027 14:43:59.492,63.914
202,12 Jun 2027 19:44:44.724,12 Jun 2027 19:47:00.624,135.900
203,12 Jun 2027 21:20:58.837,12 Jun 2027 21:24:23.133,204.296
204,12 Jun 2027 22:57:38.232,12 Jun 2027 23:03:46.295,368.063
205,13 Jun 2027 00:33:49.115,13 Jun 2027 00:40:33.298,404.183
206,13 Jun 2027 02:09:50.064,13 Jun 2027 02:16:14.139,384.075
207,13 Jun 2027 03:48:48.307,13 Jun 2027 03:56:09.235,440.928
208,13 Jun 2027 05:13:55.175,13 Jun 2027 05:15:18.039,82.865
209,13 Jun 2027 05:25:32.851,13 Jun 2027 05:26:58.888,86.037
210,13 Jun 2027 06:48:06.918,13 Jun 2027 06:49:06.373,59.456
211,13 Jun 2027 06:49:46.009,13 Jun 2027 06:52:50.737,184.727
212,13 Jun 2027 08:23:10.963,13 Jun 2027 08:24:31.312,80.349
213,13 Jun 2027 08:24:59.654,13 Jun 2027 08:29:50.828,291.175
214,13 Jun 2027 10:00:05.816,13 Jun 2027 10:07:31.101,445.286
215,13 Jun 2027 11:37:06.078,13 Jun 2027 11:42:56.215,350.137
216,13 Jun 2027 11:43:06.859,13 Jun 2027 11:43:14.792,7.933
217,13 Jun 2027 13:14:59.932,13 Jun 2027 13:18:58.661,238.729
218,13 Jun 2027 14:48:17.501,13 Jun 2027 14:54:35.244,377.743
219,13 Jun 2027 14:54:50.352,13 Jun 2027 14:56:06.153,75.801
220,13 Jun 2027 19:56:43.311,13 Jun 2027 19:59:21.665,158.354
221,13 Jun 2027 21:33:06.196,13 Jun 2027 21:36:29.194,202.998
222,13 Jun 2027 21:38:07.495,13 Jun 2027 21:39:51.491,103.995
223,13 Jun 2027 23:09:56.551,13 Jun 2027 23:15:55.464,358.913
