dataset/area_timing/orbit_15/Russia-To-KinoSat_111502.csv

Acces,Start Time (UTCG),Stop Time (UTCG),Duration (sec)
1,1 Jun 2027 00:33:23.651,1 Jun 2027 00:40:07.419,403.768
2,1 Jun 2027 02:09:24.888,1 Jun 2027 02:15:51.510,386.622
3,1 Jun 2027 03:48:22.715,1 Jun 2027 03:55:47.197,444.482
4,1 Jun 2027 05:13:35.046,1 Jun 2027 05:14:52.956,77.910
5,1 Jun 2027 05:25:06.474,1 Jun 2027 05:26:34.335,87.861
6,1 Jun 2027 06:47:45.216,1 Jun 2027 06:48:43.713,58.497
7,1 Jun 2027 06:49:20.841,1 Jun 2027 06:52:25.130,184.289
8,1 Jun 2027 08:22:53.278,1 Jun 2027 08:24:05.481,72.203
9,1 Jun 2027 08:24:36.152,1 Jun 2027 08:29:23.464,287.312
10,1 Jun 2027 09:59:37.540,1 Jun 2027 10:07:05.423,447.883
11,1 Jun 2027 11:36:40.315,1 Jun 2027 11:42:30.593,350.278
12,1 Jun 2027 11:42:32.166,1 Jun 2027 11:42:52.549,20.383
13,1 Jun 2027 13:14:34.497,1 Jun 2027 13:18:34.237,239.741
14,1 Jun 2027 14:47:49.318,1 Jun 2027 14:54:08.576,379.258
15,1 Jun 2027 14:54:27.245,1 Jun 2027 14:55:38.585,71.339
16,1 Jun 2027 19:56:18.455,1 Jun 2027 19:58:57.575,159.119
17,1 Jun 2027 21:32:40.212,1 Jun 2027 21:36:03.738,203.526
18,1 Jun 2027 21:37:51.544,1 Jun 2027 21:39:17.313,85.769
19,1 Jun 2027 23:09:13.227,1 Jun 2027 23:15:29.041,375.814
20,2 Jun 2027 00:45:28.851,2 Jun 2027 00:52:05.110,396.259
21,2 Jun 2027 02:21:32.694,2 Jun 2027 02:27:38.575,365.882
22,2 Jun 2027 04:00:38.470,2 Jun 2027 04:07:42.545,424.075
23,2 Jun 2027 05:24:52.419,2 Jun 2027 05:27:03.104,130.685
24,2 Jun 2027 05:37:05.628,2 Jun 2027 05:38:02.645,57.017
25,2 Jun 2027 06:59:20.910,2 Jun 2027 07:00:27.282,66.372
26,2 Jun 2027 07:01:16.409,2 Jun 2027 07:04:39.262,202.854
27,2 Jun 2027 08:34:13.516,2 Jun 2027 08:36:19.938,126.422
28,2 Jun 2027 08:36:24.142,2 Jun 2027 08:41:36.762,312.620
29,2 Jun 2027 08:42:17.598,2 Jun 2027 08:42:44.676,27.078
30,2 Jun 2027 10:11:48.015,2 Jun 2027 10:19:08.981,440.966
31,2 Jun 2027 11:48:30.790,2 Jun 2027 11:54:45.085,374.295
32,2 Jun 2027 11:54:49.316,2 Jun 2027 11:55:09.395,20.079
33,2 Jun 2027 13:26:34.674,2 Jun 2027 13:30:44.177,249.503
34,2 Jun 2027 15:00:17.091,2 Jun 2027 15:07:35.422,438.332
35,2 Jun 2027 20:08:21.446,2 Jun 2027 20:11:15.971,174.524
36,2 Jun 2027 21:44:50.575,2 Jun 2027 21:48:27.655,217.080
37,2 Jun 2027 21:49:34.750,2 Jun 2027 21:52:38.292,183.542
38,2 Jun 2027 23:21:23.391,2 Jun 2027 23:27:44.539,381.147
39,3 Jun 2027 00:56:55.964,3 Jun 2027 00:57:41.778,45.814
40,3 Jun 2027 00:57:47.738,3 Jun 2027 01:04:33.412,405.673
41,3 Jun 2027 02:33:59.658,3 Jun 2027 02:34:16.605,16.947
42,3 Jun 2027 02:34:25.565,3 Jun 2027 02:34:54.636,29.071
43,3 Jun 2027 02:34:59.359,3 Jun 2027 02:35:53.662,54.304
44,3 Jun 2027 02:35:54.620,3 Jun 2027 02:39:55.108,240.487
45,3 Jun 2027 04:12:43.394,3 Jun 2027 04:19:34.590,411.197
46,3 Jun 2027 05:36:58.393,3 Jun 2027 05:38:52.231,113.839
47,3 Jun 2027 05:49:26.836,3 Jun 2027 05:49:32.894,6.058
48,3 Jun 2027 07:10:49.399,3 Jun 2027 07:12:12.540,83.141
49,3 Jun 2027 07:12:51.980,3 Jun 2027 07:16:51.583,239.603
50,3 Jun 2027 08:45:43.637,3 Jun 2027 08:53:53.938,490.302
51,3 Jun 2027 08:54:14.267,3 Jun 2027 08:55:12.390,58.123
52,3 Jun 2027 10:23:42.812,3 Jun 2027 10:31:10.998,448.186
53,3 Jun 2027 12:00:39.246,3 Jun 2027 12:05:59.195,319.950
54,3 Jun 2027 12:06:18.621,3 Jun 2027 12:07:09.694,51.073
55,3 Jun 2027 13:37:52.419,3 Jun 2027 13:42:42.886,290.467
56,3 Jun 2027 15:14:21.370,3 Jun 2027 15:17:54.904,213.534
57,3 Jun 2027 20:20:27.222,3 Jun 2027 20:25:13.676,286.454
58,3 Jun 2027 21:56:47.672,3 Jun 2027 22:01:23.207,275.535
59,3 Jun 2027 22:01:36.645,3 Jun 2027 22:03:27.330,110.685
60,3 Jun 2027 22:04:12.636,3 Jun 2027 22:04:52.839,40.203
61,3 Jun 2027 23:33:21.884,3 Jun 2027 23:39:57.161,395.277
62,4 Jun 2027 01:08:53.833,4 Jun 2027 01:16:39.776,465.942
63,4 Jun 2027 02:46:36.113,4 Jun 2027 02:46:47.395,11.283
64,4 Jun 2027 02:46:58.949,4 Jun 2027 02:48:00.417,61.467
65,4 Jun 2027 02:48:06.273,4 Jun 2027 02:48:42.652,36.380
66,4 Jun 2027 02:48:44.463,4 Jun 2027 02:52:13.291,208.828
67,4 Jun 2027 04:25:06.002,4 Jun 2027 04:30:03.664,297.662
68,4 Jun 2027 05:48:54.422,4 Jun 2027 05:51:11.270,136.848
69,4 Jun 2027 07:25:06.921,4 Jun 2027 07:28:42.188,215.267
70,4 Jun 2027 08:58:38.674,4 Jun 2027 09:07:13.987,515.313
71,4 Jun 2027 10:36:04.681,4 Jun 2027 10:43:08.925,424.244
72,4 Jun 2027 12:13:08.288,4 Jun 2027 12:17:37.190,268.903
73,4 Jun 2027 12:17:44.626,4 Jun 2027 12:18:58.362,73.737
74,4 Jun 2027 13:49:54.402,4 Jun 2027 13:54:41.185,286.783
75,4 Jun 2027 15:25:10.226,4 Jun 2027 15:25:14.264,4.038
76,4 Jun 2027 15:26:51.595,4 Jun 2027 15:29:40.215,168.620
77,4 Jun 2027 20:32:44.648,4 Jun 2027 20:35:16.454,151.806
78,4 Jun 2027 20:35:42.194,4 Jun 2027 20:37:35.495,113.301
79,4 Jun 2027 22:08:42.640,4 Jun 2027 22:15:27.442,404.802
80,4 Jun 2027 23:45:25.444,4 Jun 2027 23:51:49.038,383.594
81,5 Jun 2027 01:20:56.065,5 Jun 2027 01:28:26.487,450.423
82,5 Jun 2027 02:59:07.585,5 Jun 2027 02:59:34.045,26.460
83,5 Jun 2027 02:59:40.987,5 Jun 2027 03:05:17.184,336.197
84,5 Jun 2027 04:37:06.355,5 Jun 2027 04:41:58.885,292.530
85,5 Jun 2027 06:00:46.167,5 Jun 2027 06:03:22.737,156.570
86,5 Jun 2027 07:37:10.094,5 Jun 2027 07:40:44.129,214.035
87,5 Jun 2027 09:11:16.208,5 Jun 2027 09:18:08.197,411.989
88,5 Jun 2027 09:18:10.302,5 Jun 2027 09:19:11.896,61.594
89,5 Jun 2027 10:48:16.497,5 Jun 2027 10:55:00.563,404.065
90,5 Jun 2027 12:25:17.357,5 Jun 2027 12:29:38.772,261.415
91,5 Jun 2027 12:29:39.679,5 Jun 2027 12:30:14.624,34.945
92,5 Jun 2027 14:01:59.369,5 Jun 2027 14:06:43.369,284.000
93,5 Jun 2027 15:40:18.626,5 Jun 2027 15:41:09.484,50.858
94,5 Jun 2027 20:44:50.614,5 Jun 2027 20:47:07.882,137.267
95,5 Jun 2027 22:20:47.110,5 Jun 2027 22:27:19.113,392.003
96,5 Jun 2027 23:57:28.573,6 Jun 2027 00:03:57.942,389.369
97,6 Jun 2027 01:33:01.451,6 Jun 2027 01:40:35.614,454.163
98,6 Jun 2027 03:11:13.593,6 Jun 2027 03:12:15.355,61.762
99,6 Jun 2027 03:12:21.837,6 Jun 2027 03:17:28.736,306.899
100,6 Jun 2027 04:50:19.533,6 Jun 2027 04:53:52.569,213.036
101,6 Jun 2027 06:12:51.442,6 Jun 2027 06:15:52.719,181.277
102,6 Jun 2027 07:49:20.671,6 Jun 2027 07:52:50.020,209.350
103,6 Jun 2027 09:24:28.032,6 Jun 2027 09:31:12.874,404.842
104,6 Jun 2027 11:00:49.380,6 Jun 2027 11:07:07.172,377.792
105,6 Jun 2027 12:38:15.854,6 Jun 2027 12:42:43.842,267.988
106,6 Jun 2027 14:14:26.800,6 Jun 2027 14:18:36.649,249.849
107,6 Jun 2027 20:56:57.338,6 Jun 2027 20:59:58.997,181.659
108,6 Jun 2027 22:32:52.126,6 Jun 2027 22:38:38.065,345.939
109,7 Jun 2027 00:09:33.843,7 Jun 2027 00:15:44.891,371.048
110,7 Jun 2027 01:44:59.781,7 Jun 2027 01:52:04.337,424.556
111,7 Jun 2027 03:23:14.232,7 Jun 2027 03:23:56.709,42.477
112,7 Jun 2027 03:24:19.428,7 Jun 2027 03:29:21.938,302.510
113,7 Jun 2027 05:01:26.518,7 Jun 2027 05:02:04.677,38.159
114,7 Jun 2027 05:02:17.421,7 Jun 2027 05:05:01.146,163.725
115,7 Jun 2027 06:24:55.105,7 Jun 2027 06:28:02.989,187.883
116,7 Jun 2027 08:01:24.083,7 Jun 2027 08:04:49.679,205.596
117,7 Jun 2027 09:36:35.158,7 Jun 2027 09:43:11.624,396.466
118,7 Jun 2027 11:12:31.669,7 Jun 2027 11:18:26.343,354.674
119,7 Jun 2027 11:18:30.725,7 Jun 2027 11:18:40.114,9.389
120,7 Jun 2027 11:18:48.846,7 Jun 2027 11:18:56.960,8.114
121,7 Jun 2027 12:50:22.883,7 Jun 2027 12:54:54.126,271.243
122,7 Jun 2027 14:26:21.389,7 Jun 2027 14:30:35.656,254.267
123,7 Jun 2027 14:30:39.784,7 Jun 2027 14:31:25.687,45.903
124,7 Jun 2027 19:33:13.780,7 Jun 2027 19:34:22.857,69.077
125,7 Jun 2027 21:08:55.841,7 Jun 2027 21:12:03.135,187.293
126,7 Jun 2027 22:45:03.782,7 Jun 2027 22:50:30.356,326.574
127,8 Jun 2027 00:21:32.554,8 Jun 2027 00:27:53.023,380.469
128,8 Jun 2027 01:57:01.258,8 Jun 2027 02:04:02.720,421.462
129,8 Jun 2027 03:36:18.996,8 Jun 2027 03:41:36.027,317.031
130,8 Jun 2027 03:42:31.672,8 Jun 2027 03:44:07.583,95.912
131,8 Jun 2027 05:02:33.128,8 Jun 2027 05:02:53.473,20.345
132,8 Jun 2027 05:13:24.210,8 Jun 2027 05:16:54.805,210.595
133,8 Jun 2027 06:37:21.966,8 Jun 2027 06:40:07.399,165.433
134,8 Jun 2027 08:13:08.481,8 Jun 2027 08:17:22.704,254.223
135,8 Jun 2027 09:47:51.206,8 Jun 2027 09:55:21.991,450.786
136,8 Jun 2027 11:24:37.123,8 Jun 2027 11:30:59.425,382.302
137,8 Jun 2027 13:02:53.207,8 Jun 2027 13:06:48.106,234.899
138,8 Jun 2027 14:36:11.703,8 Jun 2027 14:37:41.405,89.702
139,8 Jun 2027 14:38:01.213,8 Jun 2027 14:42:26.287,265.074
140,8 Jun 2027 14:42:46.540,8 Jun 2027 14:43:50.581,64.040
141,8 Jun 2027 19:44:36.628,8 Jun 2027 19:46:51.922,135.294
142,8 Jun 2027 21:20:50.498,8 Jun 2027 21:24:14.846,204.348
143,8 Jun 2027 22:57:29.409,8 Jun 2027 23:03:37.565,368.156
144,9 Jun 2027 00:33:40.654,9 Jun 2027 00:40:25.035,404.380
145,9 Jun 2027 02:09:41.670,9 Jun 2027 02:16:05.548,383.877
146,9 Jun 2027 03:48:39.741,9 Jun 2027 03:56:02.725,442.984
147,9 Jun 2027 05:13:48.480,9 Jun 2027 05:15:09.465,80.985
148,9 Jun 2027 05:25:23.737,9 Jun 2027 05:26:50.871,87.134
149,9 Jun 2027 06:47:59.709,9 Jun 2027 06:48:58.429,58.719
150,9 Jun 2027 06:49:37.513,9 Jun 2027 06:52:42.206,184.693
151,9 Jun 2027 08:23:09.046,9 Jun 2027 08:24:23.185,74.139
152,9 Jun 2027 08:24:51.687,9 Jun 2027 08:29:42.057,290.370
153,9 Jun 2027 09:59:56.795,9 Jun 2027 10:07:22.667,445.872
154,9 Jun 2027 11:36:57.794,9 Jun 2027 11:42:47.736,349.941
155,9 Jun 2027 11:42:50.834,9 Jun 2027 11:43:07.239,16.405
156,9 Jun 2027 13:14:51.165,9 Jun 2027 13:18:50.632,239.468
157,9 Jun 2027 14:48:08.554,9 Jun 2027 14:54:26.723,378.169
158,9 Jun 2027 14:54:42.343,9 Jun 2027 14:55:57.497,75.154
159,9 Jun 2027 19:56:35.018,9 Jun 2027 19:59:13.539,158.522
160,9 Jun 2027 21:32:57.590,9 Jun 2027 21:36:20.775,203.185
161,9 Jun 2027 21:37:59.153,9 Jun 2027 21:39:40.932,101.780
162,9 Jun 2027 23:09:48.445,9 Jun 2027 23:15:47.097,358.652
163,10 Jun 2027 00:45:45.428,10 Jun 2027 00:52:22.013,396.585
164,10 Jun 2027 02:21:49.965,10 Jun 2027 02:27:54.001,364.035
165,10 Jun 2027 04:00:55.587,10 Jun 2027 04:07:58.184,422.597
166,10 Jun 2027 05:25:08.472,10 Jun 2027 05:27:20.288,131.816
167,10 Jun 2027 05:37:22.358,10 Jun 2027 05:38:18.117,55.759
168,10 Jun 2027 06:59:35.427,10 Jun 2027 07:00:43.974,68.546
169,10 Jun 2027 07:01:32.215,10 Jun 2027 07:04:56.674,204.459
170,10 Jun 2027 08:34:28.812,10 Jun 2027 08:36:37.766,128.954
171,10 Jun 2027 08:36:39.811,10 Jun 2027 08:42:01.796,321.985
172,10 Jun 2027 08:42:33.550,10 Jun 2027 08:43:01.327,27.777
173,10 Jun 2027 10:12:03.841,10 Jun 2027 10:19:26.385,442.544
174,10 Jun 2027 11:48:47.070,10 Jun 2027 11:55:01.206,374.136
175,10 Jun 2027 11:55:05.439,10 Jun 2027 11:55:26.145,20.705
176,10 Jun 2027 13:26:50.786,10 Jun 2027 13:31:00.623,249.837
177,10 Jun 2027 15:00:34.812,10 Jun 2027 15:07:27.671,412.859
178,10 Jun 2027 20:08:38.483,10 Jun 2027 20:11:32.236,173.753
179,10 Jun 2027 21:45:06.597,10 Jun 2027 21:48:54.783,228.185
180,10 Jun 2027 21:49:50.962,10 Jun 2027 21:52:57.071,186.109
181,10 Jun 2027 23:21:39.492,10 Jun 2027 23:28:01.042,381.549
182,11 Jun 2027 00:57:12.435,11 Jun 2027 00:57:59.101,46.666
183,11 Jun 2027 00:58:04.825,11 Jun 2027 01:04:50.530,405.705
184,11 Jun 2027 02:34:16.505,11 Jun 2027 02:34:29.929,13.424
185,11 Jun 2027 02:34:43.062,11 Jun 2027 02:35:11.438,28.376
186,11 Jun 2027 02:35:15.673,11 Jun 2027 02:40:12.844,297.171
187,11 Jun 2027 04:13:01.610,11 Jun 2027 04:19:03.821,362.211
188,11 Jun 2027 05:37:14.242,11 Jun 2027 05:39:08.661,114.418
189,11 Jun 2027 05:49:44.933,11 Jun 2027 05:49:49.560,4.626
190,11 Jun 2027 07:11:04.597,11 Jun 2027 07:17:08.112,363.515
191,11 Jun 2027 08:45:59.288,11 Jun 2027 08:54:10.449,491.161
192,11 Jun 2027 08:54:30.614,11 Jun 2027 08:55:29.026,58.411
193,11 Jun 2027 10:23:59.763,11 Jun 2027 10:31:28.093,448.330
194,11 Jun 2027 12:00:54.223,11 Jun 2027 12:06:14.076,319.853
195,11 Jun 2027 12:06:32.668,11 Jun 2027 12:07:25.227,52.560
196,11 Jun 2027 13:38:28.402,11 Jun 2027 13:42:59.341,270.939
197,11 Jun 2027 15:14:41.082,11 Jun 2027 15:18:09.890,208.808
198,11 Jun 2027 20:20:44.155,11 Jun 2027 20:25:32.174,288.019
199,11 Jun 2027 21:57:03.831,11 Jun 2027 22:01:44.831,281.000
200,11 Jun 2027 22:01:54.304,11 Jun 2027 22:03:44.225,109.921
201,11 Jun 2027 22:04:29.100,11 Jun 2027 22:05:15.296,46.196
202,11 Jun 2027 23:33:38.563,11 Jun 2027 23:40:13.357,394.794
203,12 Jun 2027 01:09:10.296,12 Jun 2027 01:16:56.940,466.644
204,12 Jun 2027 02:46:53.577,12 Jun 2027 02:47:03.888,10.311
205,12 Jun 2027 02:47:15.844,12 Jun 2027 02:48:17.549,61.704
206,12 Jun 2027 02:48:22.700,12 Jun 2027 02:48:59.780,37.079
207,12 Jun 2027 02:49:01.449,12 Jun 2027 02:52:30.919,209.470
208,12 Jun 2027 04:25:27.152,12 Jun 2027 04:30:21.156,294.004
209,12 Jun 2027 05:49:10.892,12 Jun 2027 05:51:28.347,137.454
210,12 Jun 2027 07:25:22.907,12 Jun 2027 07:28:53.208,210.300
211,12 Jun 2027 08:58:56.240,12 Jun 2027 09:07:30.545,514.306
212,12 Jun 2027 10:36:22.069,12 Jun 2027 10:43:24.794,422.725
213,12 Jun 2027 12:13:23.775,12 Jun 2027 12:17:53.545,269.770
214,12 Jun 2027 12:18:00.084,12 Jun 2027 12:19:14.718,74.634
215,12 Jun 2027 13:50:13.767,12 Jun 2027 13:54:57.457,283.690
216,12 Jun 2027 15:27:26.503,12 Jun 2027 15:29:56.385,149.883
217,12 Jun 2027 20:33:00.513,12 Jun 2027 20:35:35.699,155.186
218,12 Jun 2027 20:36:06.994,12 Jun 2027 20:37:49.344,102.350
219,12 Jun 2027 22:08:59.496,12 Jun 2027 22:15:39.673,400.177
220,12 Jun 2027 23:45:42.375,12 Jun 2027 23:52:04.701,382.327
221,13 Jun 2027 01:21:13.528,13 Jun 2027 01:28:45.012,451.484
222,13 Jun 2027 02:59:21.782,13 Jun 2027 02:59:50.144,28.362
223,13 Jun 2027 02:59:55.785,13 Jun 2027 03:05:33.067,337.283
224,13 Jun 2027 04:37:22.200,13 Jun 2027 04:42:15.117,292.917
225,13 Jun 2027 06:01:02.038,13 Jun 2027 06:03:40.008,157.970
226,13 Jun 2027 07:37:29.484,13 Jun 2027 07:41:01.461,211.977
227,13 Jun 2027 09:09:40.587,13 Jun 2027 09:09:47.134,6.547
228,13 Jun 2027 09:11:34.936,13 Jun 2027 09:18:24.474,409.538
229,13 Jun 2027 09:18:26.778,13 Jun 2027 09:19:28.068,61.290
230,13 Jun 2027 10:48:32.843,13 Jun 2027 10:55:17.189,404.346
231,13 Jun 2027 12:25:43.747,13 Jun 2027 12:29:56.568,252.821
232,13 Jun 2027 12:30:00.676,13 Jun 2027 12:30:52.696,52.020
233,13 Jun 2027 14:02:16.542,13 Jun 2027 14:07:24.680,308.138
234,13 Jun 2027 15:40:34.870,13 Jun 2027 15:41:25.171,50.301
235,13 Jun 2027 20:45:07.764,13 Jun 2027 20:47:25.448,137.685
236,13 Jun 2027 22:21:03.747,13 Jun 2027 22:27:35.045,391.298
237,13 Jun 2027 23:57:44.939,14 Jun 2027 00:00:01.000,136.061
