dataset/area_timing/orbit_15/Russia-To-KinoSat_111510.csv

Acces,Start Time (UTCG),Stop Time (UTCG),Duration (sec)
1,1 Jun 2027 00:52:09.494,1 Jun 2027 00:52:28.603,19.109
2,1 Jun 2027 00:52:37.755,1 Jun 2027 00:59:30.894,413.139
3,1 Jun 2027 02:28:56.296,1 Jun 2027 02:30:06.079,69.783
4,1 Jun 2027 02:30:07.894,1 Jun 2027 02:31:07.453,59.559
5,1 Jun 2027 02:31:09.857,1 Jun 2027 02:34:56.532,226.674
6,1 Jun 2027 04:07:44.353,1 Jun 2027 04:14:48.845,424.491
7,1 Jun 2027 05:32:05.992,1 Jun 2027 05:34:18.675,132.683
8,1 Jun 2027 05:44:19.281,1 Jun 2027 05:44:50.756,31.474
9,1 Jun 2027 07:06:14.283,1 Jun 2027 07:07:28.351,74.068
10,1 Jun 2027 07:08:17.400,1 Jun 2027 07:11:53.881,216.481
11,1 Jun 2027 08:41:02.441,1 Jun 2027 08:49:00.053,477.612
12,1 Jun 2027 08:49:23.273,1 Jun 2027 08:49:58.294,35.021
13,1 Jun 2027 10:18:52.312,1 Jun 2027 10:26:18.372,446.060
14,1 Jun 2027 11:55:36.801,1 Jun 2027 12:01:32.654,355.853
15,1 Jun 2027 12:01:38.189,1 Jun 2027 12:02:23.029,44.839
16,1 Jun 2027 13:33:45.382,1 Jun 2027 13:37:51.766,246.384
17,1 Jun 2027 15:07:36.262,1 Jun 2027 15:13:53.070,376.808
18,1 Jun 2027 20:15:33.172,1 Jun 2027 20:18:25.511,172.339
19,1 Jun 2027 20:18:59.716,1 Jun 2027 20:19:30.541,30.825
20,1 Jun 2027 21:51:56.583,1 Jun 2027 21:56:13.996,257.413
21,1 Jun 2027 21:56:47.783,1 Jun 2027 22:00:00.291,192.508
22,1 Jun 2027 23:28:31.202,1 Jun 2027 23:35:03.833,392.631
23,2 Jun 2027 01:04:02.869,2 Jun 2027 01:11:46.549,463.679
24,2 Jun 2027 02:41:40.658,2 Jun 2027 02:43:19.511,98.853
25,2 Jun 2027 02:43:43.242,2 Jun 2027 02:47:14.753,211.511
26,2 Jun 2027 04:20:06.304,2 Jun 2027 04:25:16.194,309.890
27,2 Jun 2027 05:44:04.483,2 Jun 2027 05:46:20.928,136.444
28,2 Jun 2027 07:20:01.320,2 Jun 2027 07:23:57.842,236.522
29,2 Jun 2027 08:53:50.772,2 Jun 2027 09:01:11.938,441.165
30,2 Jun 2027 09:01:22.534,2 Jun 2027 09:02:22.367,59.833
31,2 Jun 2027 10:30:59.519,2 Jun 2027 10:38:17.705,438.186
32,2 Jun 2027 12:08:02.356,2 Jun 2027 12:12:51.407,289.050
33,2 Jun 2027 12:12:58.597,2 Jun 2027 12:14:09.254,70.657
34,2 Jun 2027 13:44:58.918,2 Jun 2027 13:49:51.080,292.162
35,2 Jun 2027 15:20:03.837,2 Jun 2027 15:20:27.468,23.631
36,2 Jun 2027 15:21:43.100,2 Jun 2027 15:24:54.812,191.712
37,2 Jun 2027 20:27:56.394,2 Jun 2027 20:30:07.309,130.915
38,2 Jun 2027 20:30:30.089,2 Jun 2027 20:33:04.884,154.795
39,2 Jun 2027 22:03:50.260,2 Jun 2027 22:10:46.720,416.460
40,2 Jun 2027 23:40:34.786,2 Jun 2027 23:47:03.803,389.016
41,3 Jun 2027 01:16:02.289,3 Jun 2027 01:23:38.190,455.901
42,3 Jun 2027 02:54:18.524,3 Jun 2027 02:54:57.540,39.016
43,3 Jun 2027 02:55:05.045,3 Jun 2027 02:55:53.211,48.166
44,3 Jun 2027 02:55:55.779,3 Jun 2027 02:59:32.646,216.868
45,3 Jun 2027 04:32:36.356,3 Jun 2027 04:37:17.699,281.342
46,3 Jun 2027 05:55:58.016,3 Jun 2027 05:58:25.880,147.865
47,3 Jun 2027 07:32:22.979,3 Jun 2027 07:35:49.279,206.300
48,3 Jun 2027 09:06:11.197,3 Jun 2027 09:13:19.804,428.607
49,3 Jun 2027 09:13:20.494,3 Jun 2027 09:14:21.888,61.393
50,3 Jun 2027 10:43:26.061,3 Jun 2027 10:50:07.329,401.268
51,3 Jun 2027 12:20:26.712,3 Jun 2027 12:24:43.724,257.012
52,3 Jun 2027 12:24:45.947,3 Jun 2027 12:25:54.103,68.156
53,3 Jun 2027 13:57:12.447,3 Jun 2027 14:01:41.001,268.554
54,3 Jun 2027 15:35:18.514,3 Jun 2027 15:36:29.758,71.244
55,3 Jun 2027 20:39:57.290,3 Jun 2027 20:42:14.552,137.262
56,3 Jun 2027 20:43:16.820,3 Jun 2027 20:44:10.027,53.206
57,3 Jun 2027 22:15:55.029,3 Jun 2027 22:22:27.915,392.886
58,3 Jun 2027 23:52:36.499,3 Jun 2027 23:58:59.490,382.991
59,4 Jun 2027 01:28:10.305,4 Jun 2027 01:35:39.112,448.807
60,4 Jun 2027 03:06:11.443,4 Jun 2027 03:06:15.979,4.536
61,4 Jun 2027 03:06:40.865,4 Jun 2027 03:12:25.601,344.735
62,4 Jun 2027 04:44:52.269,4 Jun 2027 04:48:52.893,240.623
63,4 Jun 2027 06:07:46.152,4 Jun 2027 06:10:33.175,167.023
64,4 Jun 2027 07:44:25.306,4 Jun 2027 07:47:56.870,211.564
65,4 Jun 2027 09:19:25.751,4 Jun 2027 09:25:15.987,350.236
66,4 Jun 2027 09:25:19.667,4 Jun 2027 09:26:17.924,58.256
67,4 Jun 2027 10:55:35.624,4 Jun 2027 11:02:12.879,397.256
68,4 Jun 2027 12:33:18.720,4 Jun 2027 12:37:41.166,262.446
69,4 Jun 2027 14:09:23.887,4 Jun 2027 14:13:43.422,259.535
70,4 Jun 2027 20:52:01.027,4 Jun 2027 20:54:40.031,159.004
71,4 Jun 2027 22:27:58.157,4 Jun 2027 22:34:04.343,366.186
72,5 Jun 2027 00:04:40.695,5 Jun 2027 00:11:04.387,383.692
73,5 Jun 2027 01:40:11.924,5 Jun 2027 01:47:24.816,432.892
74,5 Jun 2027 03:18:20.129,5 Jun 2027 03:19:22.100,61.971
75,5 Jun 2027 03:19:28.556,5 Jun 2027 03:24:33.066,304.510
76,5 Jun 2027 04:56:38.579,5 Jun 2027 04:57:10.837,32.259
77,5 Jun 2027 04:57:27.674,5 Jun 2027 05:00:29.157,181.483
78,5 Jun 2027 06:20:00.540,5 Jun 2027 06:23:08.928,188.388
79,5 Jun 2027 07:56:32.966,5 Jun 2027 08:00:04.603,211.637
80,5 Jun 2027 09:31:43.493,5 Jun 2027 09:38:19.554,396.061
81,5 Jun 2027 11:08:05.475,5 Jun 2027 11:14:15.966,370.491
82,5 Jun 2027 12:45:23.363,5 Jun 2027 12:49:59.868,276.504
83,5 Jun 2027 14:21:35.985,5 Jun 2027 14:26:19.823,283.839
84,5 Jun 2027 19:28:43.001,5 Jun 2027 19:28:44.627,1.627
85,5 Jun 2027 21:04:11.296,5 Jun 2027 21:07:18.447,187.151
86,5 Jun 2027 22:40:02.865,5 Jun 2027 22:45:41.285,338.421
87,6 Jun 2027 00:16:38.084,6 Jun 2027 00:22:51.661,373.576
88,6 Jun 2027 01:52:09.448,6 Jun 2027 01:59:04.912,415.463
89,6 Jun 2027 03:31:26.627,6 Jun 2027 03:36:33.961,307.334
90,6 Jun 2027 03:37:56.708,6 Jun 2027 03:39:23.796,87.089
91,6 Jun 2027 05:08:34.978,6 Jun 2027 05:09:14.497,39.520
92,6 Jun 2027 05:09:34.738,6 Jun 2027 05:12:08.665,153.928
93,6 Jun 2027 06:32:02.046,6 Jun 2027 06:35:13.848,191.802
94,6 Jun 2027 08:08:25.062,6 Jun 2027 08:12:28.477,243.416
95,6 Jun 2027 09:43:19.252,6 Jun 2027 09:50:27.852,428.600
96,6 Jun 2027 11:19:40.911,6 Jun 2027 11:26:05.727,384.816
97,6 Jun 2027 12:57:57.659,6 Jun 2027 13:01:49.595,231.937
98,6 Jun 2027 14:33:18.540,6 Jun 2027 14:37:28.148,249.608
99,6 Jun 2027 14:37:49.043,6 Jun 2027 14:38:47.652,58.609
100,6 Jun 2027 19:39:56.992,6 Jun 2027 19:41:48.240,111.248
101,6 Jun 2027 21:15:58.974,6 Jun 2027 21:19:19.595,200.621
102,6 Jun 2027 22:52:33.768,6 Jun 2027 22:57:47.282,313.514
103,7 Jun 2027 00:28:44.022,7 Jun 2027 00:35:31.328,407.306
104,7 Jun 2027 02:04:48.195,7 Jun 2027 02:11:19.991,391.796
105,7 Jun 2027 03:43:30.501,7 Jun 2027 03:49:00.998,330.497
106,7 Jun 2027 03:49:32.515,7 Jun 2027 03:51:08.122,95.607
107,7 Jun 2027 05:09:17.119,7 Jun 2027 05:10:12.690,55.571
108,7 Jun 2027 05:20:31.072,7 Jun 2027 05:22:11.897,100.825
109,7 Jun 2027 05:23:10.726,7 Jun 2027 05:23:33.561,22.835
110,7 Jun 2027 06:43:07.712,7 Jun 2027 06:47:46.565,278.853
111,7 Jun 2027 08:18:42.314,7 Jun 2027 08:19:25.616,43.301
112,7 Jun 2027 08:20:08.923,7 Jun 2027 08:24:43.816,274.893
113,7 Jun 2027 09:54:54.822,7 Jun 2027 10:02:30.902,456.080
114,7 Jun 2027 11:32:01.206,7 Jun 2027 11:38:23.122,381.916
115,7 Jun 2027 13:09:59.240,7 Jun 2027 13:13:54.672,235.432
116,7 Jun 2027 14:43:06.763,7 Jun 2027 14:49:41.343,394.581
117,7 Jun 2027 14:50:03.654,7 Jun 2027 14:51:03.958,60.304
118,7 Jun 2027 19:51:42.851,7 Jun 2027 19:54:28.507,165.657
119,7 Jun 2027 21:28:02.192,7 Jun 2027 21:31:27.931,205.739
120,7 Jun 2027 23:04:41.821,7 Jun 2027 23:10:55.087,373.265
121,8 Jun 2027 00:40:48.449,8 Jun 2027 00:47:29.078,400.629
122,8 Jun 2027 02:16:54.183,8 Jun 2027 02:18:37.169,102.986
123,8 Jun 2027 02:18:38.265,8 Jun 2027 02:23:04.379,266.114
124,8 Jun 2027 03:55:59.672,8 Jun 2027 04:03:08.111,428.439
125,8 Jun 2027 05:20:50.941,8 Jun 2027 05:22:24.679,93.739
126,8 Jun 2027 05:32:34.032,8 Jun 2027 05:33:34.572,60.539
127,8 Jun 2027 06:54:49.768,8 Jun 2027 06:55:56.574,66.806
128,8 Jun 2027 06:56:47.189,8 Jun 2027 07:00:00.119,192.930
129,8 Jun 2027 08:29:49.139,8 Jun 2027 08:31:42.199,113.060
130,8 Jun 2027 08:31:52.938,8 Jun 2027 08:36:56.399,303.460
131,8 Jun 2027 08:37:46.744,8 Jun 2027 08:38:07.666,20.922
132,8 Jun 2027 10:07:14.958,8 Jun 2027 10:14:33.553,438.595
133,8 Jun 2027 11:44:01.987,8 Jun 2027 11:50:30.645,388.658
134,8 Jun 2027 13:21:59.877,8 Jun 2027 13:25:58.412,238.534
135,8 Jun 2027 14:55:37.479,8 Jun 2027 15:03:03.024,445.545
136,8 Jun 2027 20:03:43.242,8 Jun 2027 20:06:27.930,164.687
137,8 Jun 2027 21:40:14.263,8 Jun 2027 21:43:36.573,202.310
138,8 Jun 2027 21:44:58.863,8 Jun 2027 21:47:40.808,161.945
139,8 Jun 2027 23:16:55.905,8 Jun 2027 23:22:55.887,359.982
140,9 Jun 2027 00:52:25.123,9 Jun 2027 00:52:46.133,21.011
141,9 Jun 2027 00:52:54.562,9 Jun 2027 00:59:52.354,417.792
142,9 Jun 2027 02:29:13.724,9 Jun 2027 02:30:22.224,68.500
143,9 Jun 2027 02:30:25.221,9 Jun 2027 02:31:23.696,58.475
144,9 Jun 2027 02:31:24.073,9 Jun 2027 02:35:15.049,230.976
145,9 Jun 2027 04:08:01.581,9 Jun 2027 04:15:03.803,422.222
146,9 Jun 2027 05:32:23.172,9 Jun 2027 05:34:34.676,131.504
147,9 Jun 2027 05:44:40.133,9 Jun 2027 05:45:07.387,27.254
148,9 Jun 2027 07:06:29.922,9 Jun 2027 07:07:43.241,73.319
149,9 Jun 2027 07:08:32.973,9 Jun 2027 07:12:11.478,218.504
150,9 Jun 2027 08:41:17.740,9 Jun 2027 08:49:17.405,479.666
151,9 Jun 2027 08:49:39.440,9 Jun 2027 08:50:21.407,41.966
152,9 Jun 2027 10:19:09.239,9 Jun 2027 10:26:34.752,445.513
153,9 Jun 2027 11:55:53.765,9 Jun 2027 12:01:47.033,353.269
154,9 Jun 2027 12:01:53.206,9 Jun 2027 12:02:39.004,45.797
155,9 Jun 2027 13:34:02.749,9 Jun 2027 13:38:08.169,245.421
156,9 Jun 2027 15:07:54.899,9 Jun 2027 15:14:09.646,374.748
157,9 Jun 2027 20:15:50.567,9 Jun 2027 20:18:45.679,175.112
158,9 Jun 2027 20:19:16.708,9 Jun 2027 20:20:15.376,58.667
159,9 Jun 2027 21:52:13.277,9 Jun 2027 21:56:34.217,260.941
160,9 Jun 2027 21:57:11.841,9 Jun 2027 22:00:16.021,184.180
161,9 Jun 2027 23:28:47.569,9 Jun 2027 23:35:20.816,393.247
162,10 Jun 2027 01:04:19.397,10 Jun 2027 01:12:02.361,462.964
163,10 Jun 2027 02:41:57.705,10 Jun 2027 02:42:17.956,20.251
164,10 Jun 2027 02:42:23.070,10 Jun 2027 02:43:35.660,72.590
165,10 Jun 2027 02:44:02.167,10 Jun 2027 02:47:32.102,209.935
166,10 Jun 2027 04:20:24.500,10 Jun 2027 04:25:32.586,308.086
167,10 Jun 2027 05:44:21.016,10 Jun 2027 05:46:37.540,136.523
168,10 Jun 2027 07:20:18.587,10 Jun 2027 07:24:14.339,235.752
169,10 Jun 2027 08:54:06.972,10 Jun 2027 09:01:26.882,439.910
170,10 Jun 2027 09:01:38.836,10 Jun 2027 09:02:39.019,60.183
171,10 Jun 2027 10:31:16.510,10 Jun 2027 10:38:35.097,438.587
172,10 Jun 2027 12:08:20.453,10 Jun 2027 12:13:05.453,285.000
173,10 Jun 2027 12:13:13.973,10 Jun 2027 12:14:25.287,71.315
174,10 Jun 2027 13:45:13.718,10 Jun 2027 13:50:08.679,294.960
175,10 Jun 2027 15:20:24.821,10 Jun 2027 15:20:43.131,18.310
176,10 Jun 2027 15:21:58.968,10 Jun 2027 15:25:10.322,191.354
177,10 Jun 2027 20:28:12.950,10 Jun 2027 20:30:27.621,134.671
178,10 Jun 2027 20:30:48.654,10 Jun 2027 20:33:23.418,154.765
179,10 Jun 2027 22:04:06.806,10 Jun 2027 22:11:04.371,417.565
180,10 Jun 2027 23:40:51.402,10 Jun 2027 23:47:17.489,386.087
181,11 Jun 2027 01:16:18.841,11 Jun 2027 01:23:52.244,453.403
182,11 Jun 2027 02:54:43.302,11 Jun 2027 02:55:11.707,28.404
183,11 Jun 2027 02:55:20.385,11 Jun 2027 02:56:10.668,50.283
184,11 Jun 2027 02:56:12.681,11 Jun 2027 03:00:43.315,270.634
185,11 Jun 2027 04:32:51.622,11 Jun 2027 04:37:33.482,281.860
186,11 Jun 2027 05:56:13.688,11 Jun 2027 05:58:43.163,149.475
187,11 Jun 2027 07:32:36.019,11 Jun 2027 07:36:05.439,209.420
188,11 Jun 2027 09:06:28.968,11 Jun 2027 09:13:36.151,427.183
189,11 Jun 2027 09:13:37.326,11 Jun 2027 09:14:38.401,61.075
190,11 Jun 2027 10:43:42.978,11 Jun 2027 10:50:23.916,400.937
191,11 Jun 2027 12:20:44.994,11 Jun 2027 12:25:01.191,256.197
192,11 Jun 2027 12:25:02.958,11 Jun 2027 12:26:09.471,66.513
193,11 Jun 2027 13:57:28.947,11 Jun 2027 14:01:58.291,269.344
194,11 Jun 2027 15:35:38.014,11 Jun 2027 15:36:46.772,68.757
195,11 Jun 2027 20:40:14.153,11 Jun 2027 20:42:30.164,136.012
196,11 Jun 2027 20:43:45.430,11 Jun 2027 20:44:22.885,37.456
197,11 Jun 2027 22:16:11.683,11 Jun 2027 22:22:43.298,391.615
198,11 Jun 2027 23:52:53.233,11 Jun 2027 23:59:16.673,383.440
199,12 Jun 2027 01:28:27.057,12 Jun 2027 01:35:55.979,448.922
200,12 Jun 2027 03:06:28.767,12 Jun 2027 03:06:31.891,3.124
201,12 Jun 2027 03:06:57.037,12 Jun 2027 03:07:42.710,45.673
202,12 Jun 2027 03:07:47.953,12 Jun 2027 03:12:43.245,295.292
203,12 Jun 2027 04:45:08.929,12 Jun 2027 04:49:09.850,240.922
204,12 Jun 2027 06:08:02.982,12 Jun 2027 06:10:49.992,167.010
205,12 Jun 2027 07:44:39.498,12 Jun 2027 07:48:13.362,213.864
206,12 Jun 2027 09:19:46.732,12 Jun 2027 09:25:32.370,345.638
207,12 Jun 2027 09:25:35.894,12 Jun 2027 09:26:34.836,58.942
208,12 Jun 2027 10:56:07.202,12 Jun 2027 11:02:30.010,382.808
209,12 Jun 2027 12:33:37.645,12 Jun 2027 12:38:00.108,262.463
210,12 Jun 2027 14:09:45.107,12 Jun 2027 14:13:58.944,253.837
211,12 Jun 2027 20:52:18.391,12 Jun 2027 20:54:59.060,160.670
212,12 Jun 2027 22:28:15.108,12 Jun 2027 22:34:17.089,361.981
213,13 Jun 2027 00:04:57.681,13 Jun 2027 00:11:17.478,379.798
214,13 Jun 2027 01:40:28.728,13 Jun 2027 01:47:39.600,430.872
215,13 Jun 2027 03:18:36.702,13 Jun 2027 03:19:38.288,61.586
216,13 Jun 2027 03:19:45.113,13 Jun 2027 03:24:48.826,303.713
217,13 Jun 2027 04:56:54.418,13 Jun 2027 04:57:28.251,33.833
218,13 Jun 2027 04:57:42.969,13 Jun 2027 05:00:43.019,180.050
219,13 Jun 2027 06:20:16.323,13 Jun 2027 06:23:25.879,189.555
220,13 Jun 2027 07:56:50.658,13 Jun 2027 08:00:20.252,209.595
221,13 Jun 2027 09:32:00.052,13 Jun 2027 09:38:36.183,396.131
222,13 Jun 2027 11:08:21.385,13 Jun 2027 11:14:32.208,370.823
223,13 Jun 2027 12:45:39.062,13 Jun 2027 12:50:17.424,278.362
224,13 Jun 2027 14:21:51.093,13 Jun 2027 14:26:39.412,288.319
225,13 Jun 2027 19:28:56.521,13 Jun 2027 19:29:03.466,6.945
226,13 Jun 2027 21:04:28.066,13 Jun 2027 21:07:35.688,187.622
227,13 Jun 2027 22:40:19.699,13 Jun 2027 22:45:57.644,337.944
