dataset/area_work/orbit_15/ZorkySat_111508.csv

Acces,Start Time (UTCG),Stop Time (UTCG),Duration (sec)
1,1 Jun 2027 04:27:42.693,1 Jun 2027 04:32:23.810,281.117
2,1 Jun 2027 05:51:10.983,1 Jun 2027 05:53:29.910,138.927
3,1 Jun 2027 07:27:23.663,1 Jun 2027 07:30:54.933,211.270
4,1 Jun 2027 09:00:56.966,1 Jun 2027 09:08:27.654,450.688
5,1 Jun 2027 09:08:29.987,1 Jun 2027 09:09:31.003,61.016
6,1 Jun 2027 10:38:28.383,1 Jun 2027 10:45:14.119,405.737
7,2 Jun 2027 03:01:21.943,2 Jun 2027 03:01:49.040,27.098
8,2 Jun 2027 03:01:52.957,2 Jun 2027 03:07:29.868,336.911
9,2 Jun 2027 04:39:22.913,2 Jun 2027 04:44:14.704,291.792
10,2 Jun 2027 06:03:01.993,2 Jun 2027 06:05:41.098,159.105
11,2 Jun 2027 07:39:28.921,2 Jun 2027 07:43:04.248,215.327
12,2 Jun 2027 09:11:37.019,2 Jun 2027 09:11:48.072,11.053
13,2 Jun 2027 09:13:35.853,2 Jun 2027 09:20:23.744,407.891
14,2 Jun 2027 09:20:27.135,2 Jun 2027 09:21:26.985,59.850
15,2 Jun 2027 10:50:34.618,2 Jun 2027 10:57:18.754,404.136
16,3 Jun 2027 03:13:28.056,3 Jun 2027 03:14:30.310,62.254
17,3 Jun 2027 03:14:37.380,3 Jun 2027 03:19:44.273,306.893
18,3 Jun 2027 04:52:36.160,3 Jun 2027 04:56:07.665,211.505
19,3 Jun 2027 06:15:10.447,3 Jun 2027 06:18:13.259,182.811
20,3 Jun 2027 07:51:38.887,3 Jun 2027 07:55:17.409,218.521
21,3 Jun 2027 09:26:50.171,3 Jun 2027 09:33:29.448,399.276
22,3 Jun 2027 11:03:08.887,3 Jun 2027 11:09:25.197,376.310
23,4 Jun 2027 03:25:32.788,4 Jun 2027 03:26:14.069,41.281
24,4 Jun 2027 03:26:35.993,4 Jun 2027 03:31:39.631,303.637
25,4 Jun 2027 05:03:45.149,4 Jun 2027 05:04:21.565,36.417
26,4 Jun 2027 05:04:50.165,4 Jun 2027 05:07:16.502,146.337
27,4 Jun 2027 06:27:52.952,4 Jun 2027 06:30:21.365,148.413
28,4 Jun 2027 08:03:38.185,4 Jun 2027 08:07:08.761,210.577
29,4 Jun 2027 09:38:51.216,4 Jun 2027 09:45:32.113,400.897
30,4 Jun 2027 11:14:47.720,4 Jun 2027 11:21:06.443,378.723
31,5 Jun 2027 03:38:37.303,5 Jun 2027 03:44:14.866,337.563
32,5 Jun 2027 03:44:46.856,5 Jun 2027 03:46:24.136,97.279
33,5 Jun 2027 05:04:43.525,5 Jun 2027 05:05:13.545,30.020
34,5 Jun 2027 05:15:40.842,5 Jun 2027 05:19:07.627,206.786
35,5 Jun 2027 06:38:59.895,5 Jun 2027 06:42:35.130,215.235
36,5 Jun 2027 08:15:22.738,5 Jun 2027 08:19:43.120,260.382
37,5 Jun 2027 09:50:07.753,5 Jun 2027 09:57:40.355,452.602
38,5 Jun 2027 11:26:57.110,5 Jun 2027 11:33:16.487,379.377
39,6 Jun 2027 03:51:00.068,6 Jun 2027 03:58:17.566,437.498
40,6 Jun 2027 05:16:02.081,6 Jun 2027 05:17:28.359,86.278
41,6 Jun 2027 05:27:41.999,6 Jun 2027 05:29:02.631,80.632
42,6 Jun 2027 06:49:58.324,6 Jun 2027 06:51:14.039,75.715
43,6 Jun 2027 06:51:55.110,6 Jun 2027 06:55:01.700,186.590
44,6 Jun 2027 08:25:10.759,6 Jun 2027 08:26:35.378,84.620
45,6 Jun 2027 08:27:06.680,6 Jun 2027 08:32:01.189,294.509
46,6 Jun 2027 10:02:15.073,6 Jun 2027 10:09:40.097,445.023
47,6 Jun 2027 11:39:13.113,6 Jun 2027 11:45:07.199,354.087
48,7 Jun 2027 04:03:18.881,7 Jun 2027 04:10:15.555,416.675
49,7 Jun 2027 05:27:23.781,7 Jun 2027 05:29:40.350,136.569
50,7 Jun 2027 05:39:39.232,7 Jun 2027 05:40:19.010,39.778
51,7 Jun 2027 07:01:39.108,7 Jun 2027 07:03:01.465,82.356
52,7 Jun 2027 07:03:45.552,7 Jun 2027 07:07:15.736,210.183
53,7 Jun 2027 08:36:38.413,7 Jun 2027 08:44:20.891,462.478
54,7 Jun 2027 08:44:49.554,7 Jun 2027 08:45:20.837,31.284
55,7 Jun 2027 10:14:17.242,7 Jun 2027 10:21:43.894,446.652
56,7 Jun 2027 11:51:03.789,7 Jun 2027 11:57:01.248,357.459
57,7 Jun 2027 11:57:15.117,7 Jun 2027 11:57:45.178,30.062
58,8 Jun 2027 04:15:23.905,8 Jun 2027 04:21:25.274,361.369
59,8 Jun 2027 05:39:31.311,8 Jun 2027 05:41:26.124,114.813
60,8 Jun 2027 07:13:19.844,8 Jun 2027 07:19:20.299,360.454
61,8 Jun 2027 08:48:12.355,8 Jun 2027 08:56:29.004,496.649
62,8 Jun 2027 08:56:47.049,8 Jun 2027 08:57:47.548,60.499
63,8 Jun 2027 10:26:19.172,8 Jun 2027 10:33:45.781,446.609
64,9 Jun 2027 04:28:00.497,9 Jun 2027 04:32:42.459,281.962
65,9 Jun 2027 05:51:27.033,9 Jun 2027 05:53:48.003,140.970
66,9 Jun 2027 07:27:41.417,9 Jun 2027 07:31:13.220,211.802
67,9 Jun 2027 09:01:13.974,9 Jun 2027 09:08:45.116,451.142
68,9 Jun 2027 09:08:46.041,9 Jun 2027 09:09:47.405,61.364
69,9 Jun 2027 10:38:46.560,9 Jun 2027 10:45:30.962,404.402
70,10 Jun 2027 03:01:37.045,10 Jun 2027 03:02:05.059,28.013
71,10 Jun 2027 03:02:08.975,10 Jun 2027 03:07:48.189,339.214
72,10 Jun 2027 04:39:39.590,10 Jun 2027 04:44:29.314,289.724
73,10 Jun 2027 06:03:18.602,10 Jun 2027 06:05:57.831,159.229
74,10 Jun 2027 07:39:45.824,10 Jun 2027 07:43:21.406,215.582
75,10 Jun 2027 09:11:54.500,10 Jun 2027 09:12:04.028,9.529
76,10 Jun 2027 09:13:52.920,10 Jun 2027 09:20:40.657,407.737
77,10 Jun 2027 09:20:43.675,10 Jun 2027 09:21:41.941,58.266
78,10 Jun 2027 10:50:51.351,10 Jun 2027 10:57:35.775,404.424
79,11 Jun 2027 03:13:44.672,11 Jun 2027 03:14:45.199,60.527
80,11 Jun 2027 03:14:53.724,11 Jun 2027 03:19:59.876,306.152
81,11 Jun 2027 04:52:52.738,11 Jun 2027 04:56:21.066,208.328
82,11 Jun 2027 06:15:26.888,11 Jun 2027 06:18:30.659,183.771
83,11 Jun 2027 07:51:55.975,11 Jun 2027 07:55:33.753,217.778
84,11 Jun 2027 09:27:07.139,11 Jun 2027 09:33:44.085,396.946
85,11 Jun 2027 11:03:26.229,11 Jun 2027 11:09:41.997,375.768
86,12 Jun 2027 03:25:49.658,12 Jun 2027 03:26:08.932,19.274
87,12 Jun 2027 03:26:52.346,12 Jun 2027 03:31:53.718,301.373
88,12 Jun 2027 03:34:07.090,12 Jun 2027 03:34:33.521,26.432
89,12 Jun 2027 05:04:01.335,12 Jun 2027 05:04:38.170,36.836
90,12 Jun 2027 05:05:06.944,12 Jun 2027 05:07:33.532,146.589
91,12 Jun 2027 06:28:09.600,12 Jun 2027 06:30:38.180,148.580
92,12 Jun 2027 08:03:53.433,12 Jun 2027 08:07:25.824,212.392
93,12 Jun 2027 09:38:57.153,12 Jun 2027 09:45:49.761,412.608
94,12 Jun 2027 11:15:02.948,12 Jun 2027 11:21:24.132,381.184
95,13 Jun 2027 03:38:54.367,13 Jun 2027 03:44:33.219,338.853
96,13 Jun 2027 03:45:04.019,13 Jun 2027 03:46:39.901,95.882
97,13 Jun 2027 05:04:57.578,13 Jun 2027 05:05:30.818,33.239
98,13 Jun 2027 05:15:57.216,13 Jun 2027 05:19:22.539,205.323
99,13 Jun 2027 06:39:15.530,13 Jun 2027 06:42:52.665,217.135
100,13 Jun 2027 08:14:30.088,13 Jun 2027 08:14:33.850,3.762
101,13 Jun 2027 08:15:38.296,13 Jun 2027 08:20:02.387,264.091
102,13 Jun 2027 09:50:24.357,13 Jun 2027 09:57:57.219,452.862
103,13 Jun 2027 11:27:14.939,13 Jun 2027 11:33:33.217,378.279
