dataset/area_work/orbit_15/ZorkySat_111510.csv

Acces,Start Time (UTCG),Stop Time (UTCG),Duration (sec)
1,1 Jun 2027 04:07:44.354,1 Jun 2027 04:14:48.845,424.491
2,1 Jun 2027 05:32:05.992,1 Jun 2027 05:34:18.675,132.683
3,1 Jun 2027 05:44:19.281,1 Jun 2027 05:44:50.756,31.474
4,1 Jun 2027 07:06:14.283,1 Jun 2027 07:07:28.351,74.068
5,1 Jun 2027 07:08:17.400,1 Jun 2027 07:11:53.881,216.481
6,1 Jun 2027 08:41:02.441,1 Jun 2027 08:49:00.053,477.612
7,1 Jun 2027 08:49:23.273,1 Jun 2027 08:49:58.294,35.021
8,1 Jun 2027 10:18:52.312,1 Jun 2027 10:26:18.372,446.060
9,1 Jun 2027 11:55:36.801,1 Jun 2027 12:00:00.000,263.199
10,2 Jun 2027 04:20:06.304,2 Jun 2027 04:25:16.194,309.890
11,2 Jun 2027 05:44:04.483,2 Jun 2027 05:46:20.928,136.444
12,2 Jun 2027 07:20:01.320,2 Jun 2027 07:23:57.842,236.522
13,2 Jun 2027 08:53:50.772,2 Jun 2027 09:01:11.938,441.165
14,2 Jun 2027 09:01:22.534,2 Jun 2027 09:02:22.367,59.833
15,2 Jun 2027 10:30:59.519,2 Jun 2027 10:38:17.705,438.186
16,3 Jun 2027 04:32:36.356,3 Jun 2027 04:37:17.699,281.342
17,3 Jun 2027 05:55:58.015,3 Jun 2027 05:58:25.880,147.865
18,3 Jun 2027 07:32:22.979,3 Jun 2027 07:35:49.279,206.300
19,3 Jun 2027 09:06:11.197,3 Jun 2027 09:13:19.804,428.607
20,3 Jun 2027 09:13:20.494,3 Jun 2027 09:14:21.888,61.393
21,3 Jun 2027 10:43:26.061,3 Jun 2027 10:50:07.329,401.268
22,4 Jun 2027 03:06:40.866,4 Jun 2027 03:12:25.601,344.734
23,4 Jun 2027 04:44:52.269,4 Jun 2027 04:48:52.893,240.623
24,4 Jun 2027 06:07:46.152,4 Jun 2027 06:10:33.175,167.023
25,4 Jun 2027 07:44:25.306,4 Jun 2027 07:47:56.870,211.564
26,4 Jun 2027 09:19:25.751,4 Jun 2027 09:25:15.987,350.236
27,4 Jun 2027 09:25:19.667,4 Jun 2027 09:26:17.924,58.256
28,4 Jun 2027 10:55:35.624,4 Jun 2027 11:02:12.879,397.256
29,5 Jun 2027 03:18:20.129,5 Jun 2027 03:19:22.100,61.971
30,5 Jun 2027 03:19:28.556,5 Jun 2027 03:24:33.066,304.510
31,5 Jun 2027 04:56:38.579,5 Jun 2027 04:57:10.837,32.259
32,5 Jun 2027 04:57:27.674,5 Jun 2027 05:00:29.157,181.483
33,5 Jun 2027 06:20:00.540,5 Jun 2027 06:23:08.928,188.388
34,5 Jun 2027 07:56:32.966,5 Jun 2027 08:00:04.603,211.637
35,5 Jun 2027 09:31:43.493,5 Jun 2027 09:38:19.554,396.061
36,5 Jun 2027 11:08:05.475,5 Jun 2027 11:14:15.966,370.491
37,6 Jun 2027 03:31:26.627,6 Jun 2027 03:36:33.961,307.334
38,6 Jun 2027 03:37:56.708,6 Jun 2027 03:39:23.796,87.089
39,6 Jun 2027 05:08:34.978,6 Jun 2027 05:09:14.497,39.520
40,6 Jun 2027 05:09:34.738,6 Jun 2027 05:12:08.665,153.928
41,6 Jun 2027 06:32:02.046,6 Jun 2027 06:35:13.848,191.802
42,6 Jun 2027 08:08:25.062,6 Jun 2027 08:12:28.477,243.416
43,6 Jun 2027 09:43:19.252,6 Jun 2027 09:50:27.852,428.600
44,6 Jun 2027 11:19:40.911,6 Jun 2027 11:26:05.727,384.816
45,7 Jun 2027 03:43:30.501,7 Jun 2027 03:49:00.998,330.497
46,7 Jun 2027 03:49:32.515,7 Jun 2027 03:51:08.122,95.607
47,7 Jun 2027 05:09:17.119,7 Jun 2027 05:10:12.690,55.571
48,7 Jun 2027 05:20:31.072,7 Jun 2027 05:22:11.897,100.825
49,7 Jun 2027 05:23:10.726,7 Jun 2027 05:23:33.557,22.832
50,7 Jun 2027 06:43:07.712,7 Jun 2027 06:47:46.565,278.853
51,7 Jun 2027 08:18:42.314,7 Jun 2027 08:19:25.616,43.301
52,7 Jun 2027 08:20:08.923,7 Jun 2027 08:24:43.816,274.893
53,7 Jun 2027 09:54:54.822,7 Jun 2027 10:02:30.902,456.080
54,7 Jun 2027 11:32:01.206,7 Jun 2027 11:38:23.122,381.916
55,8 Jun 2027 03:55:59.672,8 Jun 2027 04:03:08.111,428.439
56,8 Jun 2027 05:20:50.941,8 Jun 2027 05:22:24.679,93.739
57,8 Jun 2027 05:32:34.032,8 Jun 2027 05:33:34.572,60.539
58,8 Jun 2027 06:54:49.768,8 Jun 2027 06:55:56.574,66.806
59,8 Jun 2027 06:56:47.189,8 Jun 2027 07:00:00.119,192.930
60,8 Jun 2027 08:29:49.139,8 Jun 2027 08:31:42.199,113.060
61,8 Jun 2027 08:31:52.938,8 Jun 2027 08:36:56.399,303.460
62,8 Jun 2027 08:37:46.744,8 Jun 2027 08:38:07.666,20.922
63,8 Jun 2027 10:07:14.958,8 Jun 2027 10:14:33.553,438.595
64,8 Jun 2027 11:44:01.987,8 Jun 2027 11:50:30.645,388.658
65,9 Jun 2027 04:08:01.581,9 Jun 2027 04:15:03.803,422.222
66,9 Jun 2027 05:32:23.172,9 Jun 2027 05:34:34.676,131.504
67,9 Jun 2027 05:44:40.133,9 Jun 2027 05:45:07.387,27.254
68,9 Jun 2027 07:06:29.922,9 Jun 2027 07:07:43.241,73.319
69,9 Jun 2027 07:08:32.973,9 Jun 2027 07:12:11.478,218.504
70,9 Jun 2027 08:41:17.739,9 Jun 2027 08:49:17.405,479.666
71,9 Jun 2027 08:49:39.440,9 Jun 2027 08:50:21.407,41.966
72,9 Jun 2027 10:19:09.239,9 Jun 2027 10:26:34.752,445.513
73,9 Jun 2027 11:55:53.765,9 Jun 2027 12:00:00.000,246.235
74,10 Jun 2027 04:20:24.500,10 Jun 2027 04:25:32.586,308.086
75,10 Jun 2027 05:44:21.016,10 Jun 2027 05:46:37.540,136.523
76,10 Jun 2027 07:20:18.587,10 Jun 2027 07:24:14.339,235.752
77,10 Jun 2027 08:54:06.972,10 Jun 2027 09:01:26.882,439.910
78,10 Jun 2027 09:01:38.836,10 Jun 2027 09:02:39.019,60.183
79,10 Jun 2027 10:31:16.510,10 Jun 2027 10:38:35.097,438.587
80,11 Jun 2027 03:00:00.000,11 Jun 2027 03:00:43.319,43.319
81,11 Jun 2027 04:32:51.622,11 Jun 2027 04:37:33.482,281.860
82,11 Jun 2027 05:56:13.688,11 Jun 2027 05:58:43.163,149.475
83,11 Jun 2027 07:32:36.019,11 Jun 2027 07:36:05.439,209.420
84,11 Jun 2027 09:06:28.968,11 Jun 2027 09:13:36.151,427.183
85,11 Jun 2027 09:13:37.326,11 Jun 2027 09:14:38.401,61.075
86,11 Jun 2027 10:43:42.978,11 Jun 2027 10:50:23.916,400.937
87,12 Jun 2027 03:06:28.769,12 Jun 2027 03:06:31.894,3.125
88,12 Jun 2027 03:06:57.038,12 Jun 2027 03:07:42.710,45.671
89,12 Jun 2027 03:07:47.953,12 Jun 2027 03:12:43.243,295.290
90,12 Jun 2027 04:45:08.929,12 Jun 2027 04:49:09.850,240.921
91,12 Jun 2027 06:08:02.983,12 Jun 2027 06:10:49.992,167.010
92,12 Jun 2027 07:44:39.498,12 Jun 2027 07:48:13.362,213.864
93,12 Jun 2027 09:19:46.732,12 Jun 2027 09:25:32.370,345.638
94,12 Jun 2027 09:25:35.894,12 Jun 2027 09:26:34.836,58.942
95,12 Jun 2027 10:56:07.202,12 Jun 2027 11:02:30.010,382.808
96,13 Jun 2027 03:18:36.702,13 Jun 2027 03:19:38.288,61.586
97,13 Jun 2027 03:19:45.113,13 Jun 2027 03:24:48.826,303.713
98,13 Jun 2027 04:56:54.418,13 Jun 2027 04:57:28.251,33.833
99,13 Jun 2027 04:57:42.969,13 Jun 2027 05:00:43.019,180.050
100,13 Jun 2027 06:20:16.323,13 Jun 2027 06:23:25.879,189.555
101,13 Jun 2027 07:56:50.658,13 Jun 2027 08:00:20.252,209.595
102,13 Jun 2027 09:32:00.052,13 Jun 2027 09:38:36.183,396.131
103,13 Jun 2027 11:08:21.385,13 Jun 2027 11:14:32.208,370.823
