dataset/area_work/orbit_15/ZorkySat_111506.csv

Acces,Start Time (UTCG),Stop Time (UTCG),Duration (sec)
1,1 Jun 2027 03:08:47.024,1 Jun 2027 03:09:43.412,56.388
2,1 Jun 2027 03:09:49.132,1 Jun 2027 03:14:46.786,297.654
3,1 Jun 2027 04:47:15.235,1 Jun 2027 04:51:13.363,238.128
4,1 Jun 2027 06:10:13.832,1 Jun 2027 06:12:50.121,156.288
5,1 Jun 2027 07:46:40.596,1 Jun 2027 07:50:13.716,213.120
6,1 Jun 2027 09:21:49.191,1 Jun 2027 09:27:33.908,344.717
7,1 Jun 2027 09:27:35.971,1 Jun 2027 09:28:36.590,60.619
8,1 Jun 2027 10:58:09.691,1 Jun 2027 11:04:31.573,381.882
9,2 Jun 2027 03:20:37.885,2 Jun 2027 03:21:36.462,58.577
10,2 Jun 2027 03:21:45.205,2 Jun 2027 03:26:49.157,303.952
11,2 Jun 2027 04:58:54.684,2 Jun 2027 05:02:40.313,225.629
12,2 Jun 2027 06:22:15.222,2 Jun 2027 06:25:27.755,192.532
13,2 Jun 2027 07:58:51.160,2 Jun 2027 08:02:19.165,208.005
14,2 Jun 2027 09:34:01.369,2 Jun 2027 09:40:37.076,395.707
15,2 Jun 2027 11:10:19.578,2 Jun 2027 11:16:32.152,372.575
16,3 Jun 2027 03:33:44.168,3 Jun 2027 03:38:54.391,310.223
17,3 Jun 2027 03:40:05.455,3 Jun 2027 03:41:36.999,91.544
18,3 Jun 2027 05:00:08.161,3 Jun 2027 05:00:10.049,1.888
19,3 Jun 2027 05:10:50.964,3 Jun 2027 05:11:32.554,41.590
20,3 Jun 2027 05:11:40.313,3 Jun 2027 05:14:25.904,165.591
21,3 Jun 2027 06:34:49.606,3 Jun 2027 06:37:32.115,162.509
22,3 Jun 2027 08:10:36.999,3 Jun 2027 08:14:47.902,250.903
23,3 Jun 2027 09:45:30.388,3 Jun 2027 09:52:46.295,435.907
24,3 Jun 2027 11:22:01.064,3 Jun 2027 11:28:25.001,383.937
25,4 Jun 2027 03:45:49.045,4 Jun 2027 03:53:26.937,457.892
26,4 Jun 2027 05:11:26.261,4 Jun 2027 05:12:34.515,68.254
27,4 Jun 2027 05:22:48.560,4 Jun 2027 05:24:28.029,99.470
28,4 Jun 2027 06:45:24.502,4 Jun 2027 06:46:27.154,62.651
29,4 Jun 2027 06:46:58.764,4 Jun 2027 06:50:06.233,187.469
30,4 Jun 2027 08:20:54.310,4 Jun 2027 08:21:45.727,51.417
31,4 Jun 2027 08:22:23.281,4 Jun 2027 08:27:02.952,279.672
32,4 Jun 2027 09:57:15.390,4 Jun 2027 10:04:47.293,451.902
33,4 Jun 2027 11:34:21.359,4 Jun 2027 11:40:25.318,363.959
34,4 Jun 2027 11:40:27.605,4 Jun 2027 11:40:40.749,13.144
35,5 Jun 2027 03:58:18.383,5 Jun 2027 04:05:25.882,427.499
36,5 Jun 2027 05:23:07.916,5 Jun 2027 05:24:43.560,95.644
37,5 Jun 2027 05:34:48.050,5 Jun 2027 05:35:49.002,60.952
38,5 Jun 2027 06:57:05.978,5 Jun 2027 06:58:12.302,66.324
39,5 Jun 2027 06:58:59.788,5 Jun 2027 07:02:19.824,200.036
40,5 Jun 2027 08:32:01.438,5 Jun 2027 08:34:00.568,119.130
41,5 Jun 2027 08:34:07.941,5 Jun 2027 08:39:16.406,308.465
42,5 Jun 2027 08:40:02.701,5 Jun 2027 08:40:26.528,23.827
43,5 Jun 2027 10:09:32.201,5 Jun 2027 10:16:51.651,439.450
44,5 Jun 2027 11:46:17.444,5 Jun 2027 11:52:30.451,373.007
45,5 Jun 2027 11:52:34.550,5 Jun 2027 11:52:50.657,16.108
46,6 Jun 2027 04:10:21.538,6 Jun 2027 04:17:18.223,416.685
47,6 Jun 2027 05:34:41.523,6 Jun 2027 05:36:42.233,120.709
48,6 Jun 2027 05:46:57.118,6 Jun 2027 05:47:23.179,26.061
49,6 Jun 2027 07:08:38.190,6 Jun 2027 07:09:57.870,79.680
50,6 Jun 2027 07:10:46.122,6 Jun 2027 07:14:32.589,226.466
51,6 Jun 2027 08:43:31.359,6 Jun 2027 08:51:36.207,484.847
52,6 Jun 2027 08:51:56.494,6 Jun 2027 08:52:54.547,58.054
53,6 Jun 2027 10:21:26.904,6 Jun 2027 10:28:51.364,444.460
54,6 Jun 2027 11:58:14.139,6 Jun 2027 12:00:00.000,105.861
55,7 Jun 2027 04:22:47.642,7 Jun 2027 04:27:50.423,302.781
56,7 Jun 2027 05:46:37.244,7 Jun 2027 05:48:53.794,136.549
57,7 Jun 2027 07:22:37.025,7 Jun 2027 07:26:30.650,233.624
58,7 Jun 2027 08:56:24.901,7 Jun 2027 09:03:44.664,439.762
59,7 Jun 2027 09:03:47.887,7 Jun 2027 09:04:56.366,68.479
60,7 Jun 2027 10:33:38.433,7 Jun 2027 10:40:52.682,434.249
61,8 Jun 2027 03:00:00.000,8 Jun 2027 03:02:59.947,179.947
62,8 Jun 2027 04:35:07.685,8 Jun 2027 04:39:42.177,274.493
63,8 Jun 2027 05:58:29.393,8 Jun 2027 06:01:04.829,155.436
64,8 Jun 2027 07:34:50.795,8 Jun 2027 07:38:21.906,211.111
65,8 Jun 2027 09:08:56.250,8 Jun 2027 09:15:52.173,415.922
66,8 Jun 2027 09:15:54.194,8 Jun 2027 09:16:55.224,61.030
67,8 Jun 2027 10:46:00.486,8 Jun 2027 10:52:42.293,401.807
68,9 Jun 2027 03:08:59.251,9 Jun 2027 03:09:59.850,60.599
69,9 Jun 2027 03:10:05.613,9 Jun 2027 03:15:06.562,300.949
70,9 Jun 2027 04:47:35.089,9 Jun 2027 04:51:30.045,234.956
71,9 Jun 2027 06:10:32.205,9 Jun 2027 06:13:10.845,158.640
72,9 Jun 2027 07:46:57.623,9 Jun 2027 07:50:30.131,212.507
73,9 Jun 2027 09:22:05.793,9 Jun 2027 09:27:51.297,345.503
74,9 Jun 2027 09:27:51.880,9 Jun 2027 09:28:54.345,62.465
75,9 Jun 2027 10:58:26.868,9 Jun 2027 11:04:48.620,381.752
76,10 Jun 2027 03:20:55.107,10 Jun 2027 03:21:50.438,55.331
77,10 Jun 2027 03:22:01.988,10 Jun 2027 03:27:03.275,301.287
78,10 Jun 2027 04:59:10.819,10 Jun 2027 04:59:46.750,35.931
79,10 Jun 2027 04:59:59.630,10 Jun 2027 05:02:56.385,176.756
80,10 Jun 2027 06:22:30.771,10 Jun 2027 06:25:44.868,194.097
81,10 Jun 2027 07:59:07.705,10 Jun 2027 08:02:34.791,207.086
82,10 Jun 2027 09:34:17.687,10 Jun 2027 09:40:53.668,395.981
83,10 Jun 2027 11:10:34.978,10 Jun 2027 11:16:21.933,346.955
84,10 Jun 2027 11:16:25.228,10 Jun 2027 11:16:41.548,16.320
85,11 Jun 2027 03:34:00.849,11 Jun 2027 03:39:14.299,313.450
86,11 Jun 2027 03:40:19.811,11 Jun 2027 03:41:52.429,92.619
87,11 Jun 2027 05:00:22.379,11 Jun 2027 05:00:29.673,7.294
88,11 Jun 2027 05:11:07.203,11 Jun 2027 05:14:43.805,216.602
89,11 Jun 2027 06:35:07.027,11 Jun 2027 06:37:49.038,162.011
90,11 Jun 2027 08:10:51.778,11 Jun 2027 08:15:04.764,252.986
91,11 Jun 2027 09:45:44.610,11 Jun 2027 09:53:03.007,438.397
92,11 Jun 2027 11:22:18.462,11 Jun 2027 11:28:41.798,383.336
93,12 Jun 2027 03:46:09.143,12 Jun 2027 03:53:45.166,456.024
94,12 Jun 2027 05:11:39.925,12 Jun 2027 05:12:51.669,71.744
95,12 Jun 2027 05:23:05.187,12 Jun 2027 05:24:43.967,98.781
96,12 Jun 2027 06:45:43.600,12 Jun 2027 06:46:43.625,60.024
97,12 Jun 2027 06:47:03.425,12 Jun 2027 06:50:23.408,199.982
98,12 Jun 2027 08:21:06.021,12 Jun 2027 08:22:02.338,56.316
99,12 Jun 2027 08:22:37.333,12 Jun 2027 08:27:20.316,282.983
100,12 Jun 2027 09:57:33.218,12 Jun 2027 10:05:04.107,450.889
101,12 Jun 2027 11:34:40.035,12 Jun 2027 11:40:41.735,361.700
102,13 Jun 2027 03:58:35.091,13 Jun 2027 04:05:41.762,426.671
103,13 Jun 2027 05:22:53.551,13 Jun 2027 05:25:00.920,127.368
104,13 Jun 2027 05:35:04.565,13 Jun 2027 05:36:04.241,59.677
105,13 Jun 2027 06:57:21.461,13 Jun 2027 06:58:28.090,66.629
106,13 Jun 2027 06:59:16.381,13 Jun 2027 07:02:37.267,200.887
107,13 Jun 2027 08:32:15.269,13 Jun 2027 08:34:17.304,122.035
108,13 Jun 2027 08:34:23.838,13 Jun 2027 08:39:33.580,309.742
109,13 Jun 2027 08:40:18.627,13 Jun 2027 08:40:43.451,24.824
110,13 Jun 2027 10:09:48.270,13 Jun 2027 10:17:08.292,440.022
111,13 Jun 2027 11:46:31.056,13 Jun 2027 11:52:46.417,375.361
112,13 Jun 2027 11:52:50.270,13 Jun 2027 11:53:07.655,17.385
