dataset/facility_timing/facility_Facility-Anadyr1/Anadyr1-To-KinoSat_111904.csv

Acces,Start Time (UTCG),Stop Time (UTCG),Duration (sec)
1,1 Jun 2027 00:00:01.000,1 Jun 2027 00:03:04.220,183.220
2,1 Jun 2027 01:27:39.063,1 Jun 2027 01:36:20.479,521.416
3,1 Jun 2027 03:01:34.404,1 Jun 2027 03:10:22.165,527.761
4,1 Jun 2027 04:34:50.735,1 Jun 2027 04:45:35.310,644.576
5,1 Jun 2027 06:08:51.840,1 Jun 2027 06:21:23.814,751.974
6,1 Jun 2027 07:44:31.832,1 Jun 2027 07:57:20.410,768.578
7,1 Jun 2027 09:22:29.747,1 Jun 2027 09:33:03.087,633.340
8,1 Jun 2027 17:42:22.709,1 Jun 2027 17:47:25.323,302.613
9,1 Jun 2027 19:17:00.703,1 Jun 2027 19:28:19.706,679.004
10,1 Jun 2027 20:52:48.970,1 Jun 2027 21:05:44.371,775.401
11,1 Jun 2027 22:28:45.497,1 Jun 2027 22:41:00.333,734.836
12,2 Jun 2027 00:04:29.379,2 Jun 2027 00:14:46.272,616.893
13,2 Jun 2027 01:39:29.909,2 Jun 2027 01:48:03.681,513.772
14,2 Jun 2027 03:13:16.318,2 Jun 2027 03:22:15.129,538.811
15,2 Jun 2027 04:46:33.986,2 Jun 2027 04:57:34.882,660.896
16,2 Jun 2027 06:20:45.299,2 Jun 2027 06:33:25.578,760.279
17,2 Jun 2027 07:56:40.415,2 Jun 2027 08:09:21.812,761.396
18,2 Jun 2027 09:34:59.791,2 Jun 2027 09:45:00.011,600.219
19,2 Jun 2027 17:54:00.891,2 Jun 2027 18:00:26.953,386.062
20,2 Jun 2027 19:29:00.031,2 Jun 2027 19:40:41.311,701.280
21,2 Jun 2027 21:04:50.772,2 Jun 2027 21:17:47.355,776.583
22,2 Jun 2027 22:40:46.848,2 Jun 2027 22:52:49.688,722.839
23,3 Jun 2027 00:16:27.339,3 Jun 2027 00:26:27.806,600.467
24,3 Jun 2027 01:51:19.433,3 Jun 2027 01:59:47.873,508.440
25,3 Jun 2027 03:24:57.738,3 Jun 2027 03:34:09.246,551.508
26,3 Jun 2027 04:58:18.160,3 Jun 2027 05:09:34.917,676.757
27,3 Jun 2027 06:32:40.431,3 Jun 2027 06:45:27.432,767.002
28,3 Jun 2027 08:08:51.246,3 Jun 2027 08:21:22.973,751.727
29,3 Jun 2027 09:47:33.577,3 Jun 2027 09:56:55.531,561.954
30,3 Jun 2027 18:05:46.778,3 Jun 2027 18:13:18.324,451.546
31,3 Jun 2027 19:40:59.949,3 Jun 2027 19:53:00.147,720.198
32,3 Jun 2027 21:16:52.644,3 Jun 2027 21:29:48.380,775.737
33,3 Jun 2027 22:52:47.976,3 Jun 2027 23:04:37.659,709.683
34,4 Jun 2027 00:28:24.548,4 Jun 2027 00:38:08.997,584.449
35,4 Jun 2027 02:03:07.616,4 Jun 2027 02:11:33.194,505.578
36,4 Jun 2027 03:36:38.855,4 Jun 2027 03:46:04.432,565.577
37,4 Jun 2027 05:10:03.384,4 Jun 2027 05:21:35.352,691.968
38,4 Jun 2027 06:44:37.306,4 Jun 2027 06:57:29.325,772.019
39,4 Jun 2027 08:21:04.419,4 Jun 2027 08:33:23.835,739.415
40,4 Jun 2027 10:00:11.634,4 Jun 2027 10:08:49.182,517.549
41,4 Jun 2027 18:17:37.033,4 Jun 2027 18:26:02.822,505.789
42,4 Jun 2027 19:53:00.344,4 Jun 2027 20:05:16.381,736.037
43,4 Jun 2027 21:28:54.545,4 Jun 2027 21:41:47.511,772.966
44,4 Jun 2027 23:04:48.822,4 Jun 2027 23:16:24.342,695.520
45,5 Jun 2027 00:40:20.910,5 Jun 2027 00:49:50.046,569.136
46,5 Jun 2027 02:14:54.482,5 Jun 2027 02:23:19.764,505.281
47,5 Jun 2027 03:48:19.888,5 Jun 2027 03:58:00.583,580.695
48,5 Jun 2027 05:21:49.766,5 Jun 2027 05:33:36.127,706.361
49,5 Jun 2027 06:56:35.993,5 Jun 2027 07:09:31.232,775.240
50,5 Jun 2027 08:33:20.048,5 Jun 2027 08:45:24.325,724.278
51,5 Jun 2027 10:12:54.751,5 Jun 2027 10:20:40.214,465.463
52,5 Jun 2027 18:29:30.151,5 Jun 2027 18:38:42.002,551.851
53,5 Jun 2027 20:05:01.127,5 Jun 2027 20:17:30.132,749.005
54,5 Jun 2027 21:40:56.446,5 Jun 2027 21:53:44.817,768.372
55,5 Jun 2027 23:16:49.338,5 Jun 2027 23:28:09.836,680.498
56,6 Jun 2027 00:52:16.323,6 Jun 2027 01:01:31.135,554.812
57,6 Jun 2027 02:26:40.084,6 Jun 2027 02:35:07.636,507.552
58,6 Jun 2027 04:00:01.021,6 Jun 2027 04:09:57.603,596.582
59,6 Jun 2027 05:33:37.414,6 Jun 2027 05:45:37.192,719.778
60,6 Jun 2027 07:08:36.555,6 Jun 2027 07:21:33.113,776.558
61,6 Jun 2027 08:45:38.251,6 Jun 2027 08:57:24.357,706.106
62,6 Jun 2027 10:25:44.284,6 Jun 2027 10:32:27.336,403.052
63,6 Jun 2027 18:41:25.282,6 Jun 2027 18:51:16.757,591.475
64,6 Jun 2027 20:17:02.224,6 Jun 2027 20:29:41.517,759.293
65,6 Jun 2027 21:52:58.309,6 Jun 2027 22:05:40.369,762.060
66,6 Jun 2027 23:28:49.466,6 Jun 2027 23:39:54.253,664.787
67,7 Jun 2027 01:04:10.699,7 Jun 2027 01:13:12.472,541.774
68,7 Jun 2027 02:38:24.530,7 Jun 2027 02:46:56.847,512.317
69,7 Jun 2027 04:11:42.452,7 Jun 2027 04:21:55.402,612.949
70,7 Jun 2027 05:45:26.421,7 Jun 2027 05:57:38.503,732.083
71,7 Jun 2027 07:20:39.063,7 Jun 2027 07:33:34.933,775.870
72,7 Jun 2027 08:57:59.174,7 Jun 2027 09:09:23.836,684.662
73,7 Jun 2027 10:38:42.963,7 Jun 2027 10:44:07.840,324.877
74,7 Jun 2027 18:53:21.905,7 Jun 2027 19:03:47.661,625.756
75,7 Jun 2027 20:29:03.577,7 Jun 2027 20:41:50.633,767.055
76,7 Jun 2027 22:05:00.097,7 Jun 2027 22:17:34.223,754.127
77,7 Jun 2027 23:40:49.153,7 Jun 2027 23:51:37.722,648.569
78,8 Jun 2027 01:16:03.935,8 Jun 2027 01:24:54.257,530.322
79,8 Jun 2027 02:50:07.943,8 Jun 2027 02:58:47.392,519.449
80,8 Jun 2027 04:23:24.355,8 Jun 2027 04:33:53.885,629.530
81,8 Jun 2027 05:57:16.887,8 Jun 2027 06:09:40.005,743.118
82,8 Jun 2027 07:32:43.585,8 Jun 2027 07:45:36.648,773.063
83,8 Jun 2027 09:10:23.005,8 Jun 2027 09:21:22.613,659.607
84,8 Jun 2027 10:51:58.680,8 Jun 2027 10:55:33.884,215.205
85,8 Jun 2027 17:31:16.156,8 Jun 2027 17:34:28.713,192.557
86,8 Jun 2027 19:05:19.672,8 Jun 2027 19:16:15.105,655.434
87,8 Jun 2027 20:41:05.120,8 Jun 2027 20:53:57.564,772.444
88,8 Jun 2027 22:17:01.772,8 Jun 2027 22:29:26.461,744.689
89,8 Jun 2027 23:52:48.318,9 Jun 2027 00:03:20.384,632.066
90,9 Jun 2027 01:27:55.958,9 Jun 2027 01:36:36.703,520.745
91,9 Jun 2027 03:01:50.490,9 Jun 2027 03:10:39.229,528.739
92,9 Jun 2027 04:35:06.898,9 Jun 2027 04:45:52.968,646.070
93,9 Jun 2027 06:09:08.883,9 Jun 2027 06:21:41.663,752.780
94,9 Jun 2027 07:44:50.192,9 Jun 2027 07:57:38.223,768.031
95,9 Jun 2027 09:22:49.958,9 Jun 2027 09:33:20.525,630.567
96,9 Jun 2027 17:42:38.107,9 Jun 2027 17:47:48.919,310.813
97,9 Jun 2027 19:17:18.332,9 Jun 2027 19:28:39.391,681.060
98,9 Jun 2027 20:53:06.818,9 Jun 2027 21:06:02.404,775.586
99,9 Jun 2027 22:29:03.302,9 Jun 2027 22:41:17.155,733.853
100,10 Jun 2027 00:04:46.889,10 Jun 2027 00:15:02.383,615.495
101,10 Jun 2027 01:39:46.688,10 Jun 2027 01:48:19.983,513.295
102,10 Jun 2027 03:13:32.355,10 Jun 2027 03:22:32.297,539.942
103,10 Jun 2027 04:46:50.227,10 Jun 2027 04:57:52.580,662.352
104,10 Jun 2027 06:21:02.487,10 Jun 2027 06:33:43.433,760.946
105,10 Jun 2027 07:56:58.970,10 Jun 2027 08:09:39.602,760.633
106,10 Jun 2027 09:35:20.316,10 Jun 2027 09:45:17.331,597.015
107,10 Jun 2027 17:54:17.176,10 Jun 2027 18:00:49.436,392.259
108,10 Jun 2027 19:29:17.713,10 Jun 2027 19:41:00.750,703.038
109,10 Jun 2027 21:05:08.627,10 Jun 2027 21:18:05.211,776.585
110,10 Jun 2027 22:41:04.632,10 Jun 2027 22:53:06.385,721.753
111,11 Jun 2027 00:16:44.783,11 Jun 2027 00:26:43.882,599.098
112,11 Jun 2027 01:51:36.094,11 Jun 2027 02:00:04.267,508.172
113,11 Jun 2027 03:25:13.743,11 Jun 2027 03:34:26.507,552.765
114,11 Jun 2027 04:58:34.490,11 Jun 2027 05:09:52.650,678.160
115,11 Jun 2027 06:32:57.770,11 Jun 2027 06:45:45.290,767.520
116,11 Jun 2027 08:09:10.003,11 Jun 2027 08:21:40.737,750.734
117,11 Jun 2027 09:47:54.458,11 Jun 2027 09:57:12.703,558.245
118,11 Jun 2027 18:06:03.524,11 Jun 2027 18:13:40.121,456.597
119,11 Jun 2027 19:41:17.672,11 Jun 2027 19:53:19.353,721.681
120,11 Jun 2027 21:17:10.498,11 Jun 2027 21:30:06.068,775.570
121,11 Jun 2027 22:53:05.734,11 Jun 2027 23:04:54.240,708.506
122,12 Jun 2027 00:28:41.921,12 Jun 2027 00:38:25.053,583.132
123,12 Jun 2027 02:03:24.160,12 Jun 2027 02:11:49.693,505.533
124,12 Jun 2027 03:36:54.846,12 Jun 2027 03:46:21.779,566.934
125,12 Jun 2027 05:10:19.813,12 Jun 2027 05:21:53.114,693.302
126,12 Jun 2027 06:44:54.802,12 Jun 2027 06:57:47.182,772.380
127,12 Jun 2027 08:21:23.393,12 Jun 2027 08:33:41.563,738.170
128,12 Jun 2027 10:00:32.929,12 Jun 2027 10:09:06.147,513.218
129,12 Jun 2027 18:17:54.066,12 Jun 2027 18:26:24.110,510.044
130,12 Jun 2027 19:53:18.101,12 Jun 2027 20:05:35.365,737.264
131,12 Jun 2027 21:29:12.397,12 Jun 2027 21:42:05.036,772.639
132,12 Jun 2027 23:05:06.550,12 Jun 2027 23:16:40.816,694.266
133,13 Jun 2027 00:40:38.199,13 Jun 2027 00:50:06.098,567.899
134,13 Jun 2027 02:15:10.912,13 Jun 2027 02:23:36.375,505.463
135,13 Jun 2027 03:48:35.881,13 Jun 2027 03:58:18.008,582.127
136,13 Jun 2027 05:22:06.302,13 Jun 2027 05:33:53.913,707.611
137,13 Jun 2027 06:56:53.651,13 Jun 2027 07:09:49.086,775.435
138,13 Jun 2027 08:33:39.238,13 Jun 2027 08:45:42.016,722.778
139,13 Jun 2027 10:13:16.548,13 Jun 2027 10:20:56.894,460.346
140,13 Jun 2027 18:29:47.379,13 Jun 2027 18:39:02.879,555.500
141,13 Jun 2027 20:05:18.910,13 Jun 2027 20:17:48.904,749.994
142,13 Jun 2027 21:41:14.293,13 Jun 2027 21:54:02.185,767.892
143,13 Jun 2027 23:17:07.033,13 Jun 2027 23:28:26.208,679.175
