dataset/facility_timing/facility_Facility-Anadyr1/Anadyr1-To-KinoSat_111301.csv

Acces,Start Time (UTCG),Stop Time (UTCG),Duration (sec)
1,1 Jun 2027 00:40:53.932,1 Jun 2027 00:49:53.000,539.067
2,1 Jun 2027 02:14:11.868,1 Jun 2027 02:25:10.259,658.391
3,1 Jun 2027 03:48:20.899,1 Jun 2027 04:00:59.629,758.730
4,1 Jun 2027 05:24:12.269,1 Jun 2027 05:36:55.210,762.941
5,1 Jun 2027 07:02:26.390,1 Jun 2027 07:12:33.588,607.198
6,1 Jun 2027 15:21:43.811,1 Jun 2027 15:27:42.124,358.313
7,1 Jun 2027 16:56:35.320,1 Jun 2027 17:08:09.052,693.732
8,1 Jun 2027 18:32:24.498,1 Jun 2027 18:45:20.805,776.306
9,1 Jun 2027 20:08:19.986,1 Jun 2027 20:20:27.397,727.411
10,1 Jun 2027 21:44:00.698,1 Jun 2027 21:54:08.314,607.615
11,1 Jun 2027 23:18:54.627,1 Jun 2027 23:27:28.164,513.537
12,2 Jun 2027 00:52:35.443,2 Jun 2027 01:01:46.544,551.101
13,2 Jun 2027 02:25:55.731,2 Jun 2027 02:37:09.857,674.126
14,2 Jun 2027 04:00:15.435,2 Jun 2027 04:13:01.143,765.708
15,2 Jun 2027 05:36:22.258,2 Jun 2027 05:48:56.116,753.858
16,2 Jun 2027 07:14:58.904,2 Jun 2027 07:24:29.104,570.200
17,2 Jun 2027 15:33:27.109,2 Jun 2027 15:40:36.140,429.031
18,2 Jun 2027 17:08:34.727,2 Jun 2027 17:20:28.432,713.704
19,2 Jun 2027 18:44:26.036,2 Jun 2027 18:57:22.207,776.172
20,2 Jun 2027 20:20:20.861,2 Jun 2027 20:32:15.672,714.811
21,2 Jun 2027 21:55:57.827,2 Jun 2027 22:05:49.571,591.744
22,2 Jun 2027 23:30:43.019,2 Jun 2027 23:39:13.055,510.036
23,3 Jun 2027 01:04:16.609,3 Jun 2027 01:13:41.162,564.553
24,3 Jun 2027 02:37:40.595,3 Jun 2027 02:49:09.873,689.279
25,3 Jun 2027 04:12:11.672,3 Jun 2027 04:25:02.708,771.036
26,3 Jun 2027 05:48:34.547,3 Jun 2027 06:00:56.731,742.184
27,3 Jun 2027 07:27:35.530,3 Jun 2027 07:36:22.866,527.336
28,3 Jun 2027 15:45:15.662,3 Jun 2027 15:53:22.410,486.748
29,3 Jun 2027 17:20:34.647,3 Jun 2027 17:32:45.181,730.533
30,3 Jun 2027 18:56:27.614,3 Jun 2027 19:09:21.724,774.109
31,3 Jun 2027 20:32:21.477,3 Jun 2027 20:44:02.653,701.177
32,3 Jun 2027 22:07:54.154,3 Jun 2027 22:17:30.626,576.471
33,3 Jun 2027 23:42:30.118,3 Jun 2027 23:50:59.130,509.012
34,4 Jun 2027 01:15:57.633,4 Jun 2027 01:25:36.762,579.129
35,4 Jun 2027 02:49:26.576,4 Jun 2027 03:01:10.239,703.662
36,4 Jun 2027 04:24:09.684,4 Jun 2027 04:37:04.297,774.613
37,4 Jun 2027 06:00:49.235,4 Jun 2027 06:12:56.999,727.764
38,4 Jun 2027 07:40:16.979,4 Jun 2027 07:48:14.208,477.229
39,4 Jun 2027 15:57:07.513,4 Jun 2027 16:06:02.928,535.415
40,4 Jun 2027 17:32:34.984,4 Jun 2027 17:44:59.435,744.451
41,4 Jun 2027 19:08:29.198,4 Jun 2027 19:21:19.415,770.217
42,4 Jun 2027 20:44:21.781,4 Jun 2027 20:55:48.428,686.647
43,4 Jun 2027 22:19:49.577,4 Jun 2027 22:29:11.669,562.093
44,4 Jun 2027 23:54:15.961,5 Jun 2027 00:02:46.461,510.499
45,5 Jun 2027 01:27:38.699,5 Jun 2027 01:37:33.244,594.545
46,5 Jun 2027 03:01:13.769,5 Jun 2027 03:13:10.908,717.139
47,5 Jun 2027 04:36:09.531,5 Jun 2027 04:49:05.869,776.338
48,5 Jun 2027 06:13:06.448,5 Jun 2027 06:24:56.827,710.379
49,5 Jun 2027 07:53:04.449,5 Jun 2027 08:00:01.999,417.550
50,5 Jun 2027 16:09:01.634,5 Jun 2027 16:18:38.769,577.136
51,5 Jun 2027 17:44:35.663,5 Jun 2027 17:57:11.308,755.645
52,5 Jun 2027 19:20:30.758,5 Jun 2027 19:33:15.352,764.594
53,5 Jun 2027 20:56:21.719,5 Jun 2027 21:07:33.107,671.387
54,5 Jun 2027 22:31:44.000,5 Jun 2027 22:40:52.891,548.891
55,6 Jun 2027 00:06:00.649,6 Jun 2027 00:14:35.096,514.448
56,6 Jun 2027 01:39:20.013,6 Jun 2027 01:49:30.519,610.506
57,6 Jun 2027 03:13:02.285,6 Jun 2027 03:25:11.834,729.548
58,6 Jun 2027 04:48:11.278,6 Jun 2027 05:01:07.394,776.116
59,6 Jun 2027 06:25:26.314,6 Jun 2027 06:36:56.128,689.814
60,6 Jun 2027 08:06:00.223,6 Jun 2027 08:11:43.980,343.758
61,6 Jun 2027 16:20:57.416,6 Jun 2027 16:31:10.601,613.185
62,6 Jun 2027 17:56:36.607,6 Jun 2027 18:09:20.903,764.296
63,6 Jun 2027 19:32:32.255,6 Jun 2027 19:45:09.595,757.340
64,6 Jun 2027 21:08:21.232,6 Jun 2027 21:19:16.816,655.584
65,6 Jun 2027 22:43:37.338,6 Jun 2027 22:52:34.492,537.154
66,7 Jun 2027 00:17:44.282,7 Jun 2027 00:26:25.035,520.753
67,7 Jun 2027 01:51:01.737,7 Jun 2027 02:01:28.496,626.759
68,7 Jun 2027 03:24:52.208,7 Jun 2027 03:37:12.963,740.754
69,7 Jun 2027 05:00:15.005,7 Jun 2027 05:13:08.818,773.813
70,7 Jun 2027 06:37:49.017,7 Jun 2027 06:48:54.766,665.749
71,7 Jun 2027 08:19:10.230,7 Jun 2027 08:23:14.274,244.045
72,7 Jun 2027 14:59:22.680,7 Jun 2027 15:01:14.949,112.270
73,7 Jun 2027 16:32:54.462,7 Jun 2027 16:43:38.873,644.411
74,7 Jun 2027 18:08:37.770,7 Jun 2027 18:21:28.307,770.537
75,7 Jun 2027 19:44:33.653,7 Jun 2027 19:57:02.212,748.559
76,7 Jun 2027 21:20:20.259,7 Jun 2027 21:30:59.683,639.423
77,7 Jun 2027 22:55:29.503,7 Jun 2027 23:04:16.666,527.163
78,8 Jun 2027 00:29:27.029,8 Jun 2027 00:38:16.258,529.228
79,8 Jun 2027 02:02:44.040,8 Jun 2027 02:13:27.092,643.052
80,8 Jun 2027 03:36:43.618,8 Jun 2027 03:49:14.261,750.644
81,8 Jun 2027 05:12:20.769,8 Jun 2027 05:25:10.113,769.344
82,8 Jun 2027 06:50:14.755,8 Jun 2027 07:00:52.581,637.825
83,8 Jun 2027 15:10:25.060,8 Jun 2027 15:14:54.875,269.815
84,8 Jun 2027 16:44:52.482,8 Jun 2027 16:56:03.913,671.431
85,8 Jun 2027 18:20:39.104,8 Jun 2027 18:33:33.612,774.508
86,8 Jun 2027 19:56:34.913,8 Jun 2027 20:08:53.289,738.375
87,8 Jun 2027 21:32:18.715,8 Jun 2027 21:42:41.851,623.136
88,8 Jun 2027 23:07:20.430,8 Jun 2027 23:15:59.605,519.175
89,9 Jun 2027 00:41:09.051,9 Jun 2027 00:50:08.703,539.651
90,9 Jun 2027 02:14:27.079,9 Jun 2027 02:25:26.235,659.157
91,9 Jun 2027 03:48:36.592,9 Jun 2027 04:01:15.681,759.089
92,9 Jun 2027 05:24:28.658,9 Jun 2027 05:37:11.234,762.575
93,9 Jun 2027 07:02:43.792,9 Jun 2027 07:12:49.364,605.572
94,9 Jun 2027 15:21:58.949,9 Jun 2027 15:28:00.719,361.770
95,9 Jun 2027 16:56:51.285,9 Jun 2027 17:08:25.962,694.677
96,9 Jun 2027 18:32:40.552,9 Jun 2027 18:45:36.893,776.341
97,9 Jun 2027 20:08:36.002,9 Jun 2027 20:20:42.887,726.885
98,9 Jun 2027 21:44:16.539,9 Jun 2027 21:54:23.477,606.938
99,9 Jun 2027 23:19:10.070,9 Jun 2027 23:27:43.476,513.406
100,10 Jun 2027 00:52:50.543,10 Jun 2027 01:02:02.295,551.752
101,10 Jun 2027 02:26:10.986,10 Jun 2027 02:37:25.852,674.866
102,10 Jun 2027 04:00:31.205,10 Jun 2027 04:13:17.200,765.995
103,10 Jun 2027 05:36:38.755,10 Jun 2027 05:49:12.121,753.367
104,10 Jun 2027 07:15:16.484,10 Jun 2027 07:24:44.805,568.321
105,10 Jun 2027 15:33:42.539,10 Jun 2027 15:40:54.324,431.785
106,10 Jun 2027 17:08:50.714,10 Jun 2027 17:20:45.220,714.505
107,10 Jun 2027 18:44:42.089,10 Jun 2027 18:57:38.208,776.119
108,10 Jun 2027 20:20:36.863,10 Jun 2027 20:32:31.102,714.239
109,10 Jun 2027 21:56:13.630,10 Jun 2027 22:06:04.722,591.093
110,10 Jun 2027 23:30:58.402,10 Jun 2027 23:39:28.418,510.016
111,11 Jun 2027 01:04:31.699,11 Jun 2027 01:13:56.957,565.258
112,11 Jun 2027 02:37:55.899,11 Jun 2027 02:49:25.882,689.983
113,11 Jun 2027 04:12:27.521,11 Jun 2027 04:25:18.763,771.243
114,11 Jun 2027 05:48:51.153,11 Jun 2027 06:01:12.718,741.566
115,11 Jun 2027 07:27:53.317,11 Jun 2027 07:36:38.466,525.149
116,11 Jun 2027 15:45:31.263,11 Jun 2027 15:53:40.304,489.041
117,11 Jun 2027 17:20:50.652,11 Jun 2027 17:33:01.853,731.202
118,11 Jun 2027 18:56:43.666,11 Jun 2027 19:09:37.641,773.974
119,11 Jun 2027 20:32:37.462,11 Jun 2027 20:44:18.027,700.565
120,11 Jun 2027 22:08:09.915,11 Jun 2027 22:17:45.773,575.859
121,11 Jun 2027 23:42:45.441,11 Jun 2027 23:51:14.549,509.108
122,12 Jun 2027 01:16:12.722,12 Jun 2027 01:25:52.596,579.875
123,12 Jun 2027 02:49:41.934,12 Jun 2027 03:01:26.259,704.325
124,12 Jun 2027 04:24:25.616,12 Jun 2027 04:37:20.350,774.734
125,12 Jun 2027 06:01:05.952,12 Jun 2027 06:13:12.965,727.013
126,12 Jun 2027 07:40:35.014,12 Jun 2027 07:48:29.668,474.654
127,12 Jun 2027 15:57:23.226,12 Jun 2027 16:06:20.601,537.374
128,12 Jun 2027 17:32:51.002,12 Jun 2027 17:45:15.998,744.996
129,12 Jun 2027 19:08:45.247,12 Jun 2027 19:21:35.251,770.004
130,12 Jun 2027 20:44:37.748,12 Jun 2027 20:56:03.751,686.003
131,12 Jun 2027 22:20:05.291,12 Jun 2027 22:29:26.823,561.532
132,12 Jun 2027 23:54:31.229,13 Jun 2027 00:03:01.937,510.709
133,13 Jun 2027 01:27:53.796,13 Jun 2027 01:37:49.114,595.318
134,13 Jun 2027 03:01:29.185,13 Jun 2027 03:13:26.939,717.753
135,13 Jun 2027 04:36:25.548,13 Jun 2027 04:49:21.918,776.370
136,13 Jun 2027 06:13:23.283,13 Jun 2027 06:25:12.766,709.483
137,13 Jun 2027 07:53:22.811,13 Jun 2027 08:00:17.243,414.433
138,13 Jun 2027 16:09:17.427,13 Jun 2027 16:18:56.251,578.823
139,13 Jun 2027 17:44:51.691,13 Jun 2027 17:57:27.765,756.074
140,13 Jun 2027 19:20:46.802,13 Jun 2027 19:33:31.110,764.309
141,13 Jun 2027 20:56:37.665,13 Jun 2027 21:07:48.383,670.718
142,13 Jun 2027 22:31:59.663,13 Jun 2027 22:41:08.059,548.396
