dataset/facility_timing/facility_Facility-Anadyr1/Anadyr1-To-KinoSat_111901.csv

Acces,Start Time (UTCG),Stop Time (UTCG),Duration (sec)
1,1 Jun 2027 00:21:09.097,1 Jun 2027 00:31:03.494,594.397
2,1 Jun 2027 01:55:57.884,1 Jun 2027 02:04:24.931,507.046
3,1 Jun 2027 03:29:33.412,1 Jun 2027 03:38:50.012,556.599
4,1 Jun 2027 05:02:55.210,1 Jun 2027 05:14:17.726,682.516
5,1 Jun 2027 06:37:21.746,1 Jun 2027 06:50:10.825,769.079
6,1 Jun 2027 08:13:38.579,1 Jun 2027 08:26:06.026,747.447
7,1 Jun 2027 09:52:29.949,1 Jun 2027 10:01:36.113,546.164
8,1 Jun 2027 18:10:25.402,1 Jun 2027 18:18:18.357,472.955
9,1 Jun 2027 19:45:42.733,1 Jun 2027 19:57:49.207,726.475
10,1 Jun 2027 21:21:36.046,1 Jun 2027 21:34:30.965,774.919
11,1 Jun 2027 22:57:31.027,1 Jun 2027 23:09:15.516,704.489
12,2 Jun 2027 00:33:05.999,2 Jun 2027 00:42:44.605,578.606
13,2 Jun 2027 02:07:45.572,2 Jun 2027 02:16:10.705,505.133
14,2 Jun 2027 03:41:14.470,2 Jun 2027 03:50:45.569,571.099
15,2 Jun 2027 05:14:40.851,2 Jun 2027 05:26:18.295,697.444
16,2 Jun 2027 06:49:19.293,2 Jun 2027 07:02:12.731,773.437
17,2 Jun 2027 08:25:52.658,2 Jun 2027 08:38:06.761,734.102
18,2 Jun 2027 10:05:09.781,2 Jun 2027 10:13:28.897,499.115
19,2 Jun 2027 18:22:16.859,2 Jun 2027 18:31:00.730,523.871
20,2 Jun 2027 19:57:43.283,2 Jun 2027 20:10:04.495,741.212
21,2 Jun 2027 21:33:37.953,2 Jun 2027 21:46:29.410,771.457
22,2 Jun 2027 23:09:31.752,2 Jun 2027 23:21:01.742,689.990
23,3 Jun 2027 00:45:02.019,3 Jun 2027 00:54:25.642,563.622
24,3 Jun 2027 02:19:31.950,3 Jun 2027 02:27:57.754,505.804
25,3 Jun 2027 03:52:55.516,3 Jun 2027 04:02:42.052,586.536
26,3 Jun 2027 05:26:27.689,3 Jun 2027 05:38:19.183,711.494
27,3 Jun 2027 07:01:18.669,3 Jun 2027 07:14:14.633,775.964
28,3 Jun 2027 08:38:09.228,3 Jun 2027 08:50:07.094,717.866
29,3 Jun 2027 10:17:55.083,3 Jun 2027 10:25:18.675,443.592
30,3 Jun 2027 18:34:10.806,3 Jun 2027 18:43:38.172,567.366
31,3 Jun 2027 20:09:44.192,3 Jun 2027 20:22:17.352,753.160
32,3 Jun 2027 21:45:39.842,3 Jun 2027 21:58:26.047,766.205
33,3 Jun 2027 23:21:32.132,3 Jun 2027 23:32:46.820,674.688
34,4 Jun 2027 00:56:57.053,4 Jun 2027 01:06:06.804,549.751
35,4 Jun 2027 02:31:17.106,4 Jun 2027 02:39:46.125,509.019
36,4 Jun 2027 04:04:36.739,4 Jun 2027 04:14:39.380,602.640
37,4 Jun 2027 05:38:15.836,4 Jun 2027 05:50:20.348,724.512
38,4 Jun 2027 07:13:19.953,4 Jun 2027 07:26:16.498,776.544
39,4 Jun 2027 08:50:28.432,4 Jun 2027 09:02:06.934,698.503
40,4 Jun 2027 10:30:47.583,4 Jun 2027 10:37:03.772,376.189
41,4 Jun 2027 18:46:06.550,4 Jun 2027 18:56:11.430,604.880
42,4 Jun 2027 20:21:45.394,4 Jun 2027 20:34:27.878,762.483
43,4 Jun 2027 21:57:41.682,4 Jun 2027 22:10:20.959,759.277
44,4 Jun 2027 23:33:32.103,4 Jun 2027 23:44:30.871,658.768
45,5 Jun 2027 01:08:51.016,5 Jun 2027 01:17:48.286,537.270
46,5 Jun 2027 02:43:01.146,5 Jun 2027 02:51:35.843,514.697
47,5 Jun 2027 04:16:18.327,5 Jun 2027 04:26:37.444,619.117
48,5 Jun 2027 05:50:05.382,5 Jun 2027 06:02:21.730,736.348
49,5 Jun 2027 07:25:23.204,5 Jun 2027 07:38:18.282,775.078
50,5 Jun 2027 09:02:50.419,5 Jun 2027 09:14:06.170,675.751
51,5 Jun 2027 10:43:51.092,5 Jun 2027 10:48:40.399,289.307
52,5 Jun 2027 18:58:03.631,5 Jun 2027 19:08:41.002,637.372
53,5 Jun 2027 20:33:46.824,5 Jun 2027 20:46:36.166,769.342
54,5 Jun 2027 22:09:43.436,5 Jun 2027 22:22:14.203,750.767
55,5 Jun 2027 23:45:31.601,5 Jun 2027 23:56:14.020,642.419
56,6 Jun 2027 01:20:43.807,6 Jun 2027 01:29:30.293,526.487
57,6 Jun 2027 02:54:44.218,6 Jun 2027 03:03:26.877,522.659
58,6 Jun 2027 04:28:00.450,6 Jun 2027 04:38:36.159,635.710
59,6 Jun 2027 06:01:56.409,6 Jun 2027 06:14:23.300,746.891
60,6 Jun 2027 07:37:28.499,6 Jun 2027 07:50:19.950,771.451
61,6 Jun 2027 09:15:15.385,6 Jun 2027 09:26:04.644,649.258
62,6 Jun 2027 10:57:20.133,6 Jun 2027 10:59:54.097,153.964
63,6 Jun 2027 17:35:41.095,6 Jun 2027 17:39:45.213,244.118
64,6 Jun 2027 19:10:01.759,6 Jun 2027 19:21:07.238,665.479
65,6 Jun 2027 20:45:48.435,6 Jun 2027 20:58:42.307,773.872
66,6 Jun 2027 22:21:45.058,6 Jun 2027 22:34:05.855,740.796
67,6 Jun 2027 23:57:30.554,7 Jun 2027 00:07:56.412,625.858
68,7 Jun 2027 01:32:35.353,7 Jun 2027 01:41:13.027,517.674
69,7 Jun 2027 03:06:26.488,7 Jun 2027 03:15:19.183,532.694
70,7 Jun 2027 04:39:43.269,7 Jun 2027 04:50:35.451,652.182
71,7 Jun 2027 06:13:48.996,7 Jun 2027 06:26:25.002,756.006
72,7 Jun 2027 07:49:35.906,7 Jun 2027 08:02:21.460,765.554
73,7 Jun 2027 09:27:43.572,7 Jun 2027 09:38:02.179,618.607
74,7 Jun 2027 17:47:11.762,7 Jun 2027 17:52:55.741,343.979
75,7 Jun 2027 19:22:00.712,7 Jun 2027 19:33:30.402,689.690
76,7 Jun 2027 20:57:50.174,7 Jun 2027 21:10:46.382,776.208
77,7 Jun 2027 22:33:46.523,7 Jun 2027 22:45:55.989,729.466
78,8 Jun 2027 00:09:28.889,8 Jun 2027 00:19:38.206,609.317
79,8 Jun 2027 01:44:25.593,8 Jun 2027 01:52:56.667,511.074
80,8 Jun 2027 03:18:08.150,8 Jun 2027 03:27:12.685,544.535
81,8 Jun 2027 04:51:26.931,8 Jun 2027 05:02:35.242,668.311
82,8 Jun 2027 06:25:43.219,8 Jun 2027 06:38:26.811,763.592
83,8 Jun 2027 08:01:45.520,8 Jun 2027 08:14:22.756,757.235
84,8 Jun 2027 09:40:15.291,8 Jun 2027 09:49:58.493,583.202
85,8 Jun 2027 17:58:54.122,8 Jun 2027 18:05:52.011,417.889
86,8 Jun 2027 19:34:00.325,8 Jun 2027 19:45:50.713,710.388
87,8 Jun 2027 21:09:52.014,8 Jun 2027 21:22:48.450,776.436
88,8 Jun 2027 22:45:47.771,8 Jun 2027 22:57:44.695,716.924
89,9 Jun 2027 00:21:26.511,9 Jun 2027 00:31:19.560,593.050
90,9 Jun 2027 01:56:14.498,9 Jun 2027 02:04:41.363,506.864
91,9 Jun 2027 03:29:49.410,9 Jun 2027 03:39:07.306,557.896
92,9 Jun 2027 05:03:11.573,9 Jun 2027 05:14:35.472,683.898
93,9 Jun 2027 06:37:39.148,9 Jun 2027 06:50:28.685,769.537
94,9 Jun 2027 08:13:57.416,9 Jun 2027 08:26:23.782,746.366
95,9 Jun 2027 09:52:50.977,9 Jun 2027 10:01:53.218,542.241
96,9 Jun 2027 18:10:42.275,9 Jun 2027 18:18:39.953,477.677
97,9 Jun 2027 19:46:00.472,9 Jun 2027 19:58:08.329,727.857
98,9 Jun 2027 21:21:53.903,9 Jun 2027 21:34:48.593,774.690
99,9 Jun 2027 22:57:48.771,9 Jun 2027 23:09:32.061,703.290
100,10 Jun 2027 00:33:23.342,10 Jun 2027 00:43:00.661,577.319
101,10 Jun 2027 02:08:02.072,10 Jun 2027 02:16:27.252,505.180
102,10 Jun 2027 03:41:30.464,10 Jun 2027 03:51:02.945,572.481
103,10 Jun 2027 05:14:57.321,10 Jun 2027 05:26:36.065,698.745
104,10 Jun 2027 06:49:36.852,10 Jun 2027 07:02:30.593,773.741
105,10 Jun 2027 08:26:11.707,10 Jun 2027 08:38:24.479,732.772
106,10 Jun 2027 10:05:31.248,10 Jun 2027 10:13:45.772,494.524
107,10 Jun 2027 18:22:33.980,10 Jun 2027 18:31:21.855,527.875
108,10 Jun 2027 19:58:01.054,10 Jun 2027 20:10:23.404,742.351
109,10 Jun 2027 21:33:55.805,10 Jun 2027 21:46:46.874,771.070
110,10 Jun 2027 23:09:49.473,10 Jun 2027 23:21:18.181,688.708
111,11 Jun 2027 00:45:19.277,11 Jun 2027 00:54:41.705,562.428
112,11 Jun 2027 02:19:48.340,11 Jun 2027 02:28:14.410,506.070
113,11 Jun 2027 03:53:11.514,11 Jun 2027 04:02:59.507,587.993
114,11 Jun 2027 05:26:44.272,11 Jun 2027 05:38:36.979,712.707
115,11 Jun 2027 07:01:36.395,11 Jun 2027 07:14:32.487,776.092
116,11 Jun 2027 08:38:28.509,11 Jun 2027 08:50:24.770,716.260
117,11 Jun 2027 10:18:17.109,11 Jun 2027 10:25:35.212,438.103
118,11 Jun 2027 18:34:28.096,11 Jun 2027 18:43:58.913,570.817
119,11 Jun 2027 20:10:01.987,11 Jun 2027 20:22:36.050,754.063
120,11 Jun 2027 21:45:57.690,11 Jun 2027 21:58:43.361,765.671
121,11 Jun 2027 23:21:49.814,11 Jun 2027 23:33:03.163,673.350
122,12 Jun 2027 00:57:14.218,12 Jun 2027 01:06:22.884,548.666
123,12 Jun 2027 02:31:33.393,12 Jun 2027 02:40:02.898,509.505
124,12 Jun 2027 04:04:52.766,12 Jun 2027 04:14:56.899,604.133
125,12 Jun 2027 05:38:32.538,12 Jun 2027 05:50:38.159,725.620
126,12 Jun 2027 07:13:37.847,12 Jun 2027 07:26:34.341,776.494
127,12 Jun 2027 08:50:47.950,12 Jun 2027 09:02:24.558,696.609
128,12 Jun 2027 10:31:10.385,12 Jun 2027 10:37:19.749,369.365
129,12 Jun 2027 18:46:23.965,12 Jun 2027 18:56:31.833,607.868
130,12 Jun 2027 20:22:03.209,12 Jun 2027 20:34:46.376,763.167
131,12 Jun 2027 21:57:59.520,12 Jun 2027 22:10:38.124,758.604
132,12 Jun 2027 23:33:49.743,12 Jun 2027 23:44:47.131,657.388
133,13 Jun 2027 01:09:08.079,13 Jun 2027 01:18:04.405,536.326
134,13 Jun 2027 02:43:17.342,13 Jun 2027 02:51:52.731,515.389
135,13 Jun 2027 04:16:34.396,13 Jun 2027 04:26:55.020,620.625
136,13 Jun 2027 05:50:22.211,13 Jun 2027 06:02:39.559,737.348
137,13 Jun 2027 07:25:41.275,13 Jun 2027 07:38:36.115,774.841
138,13 Jun 2027 09:03:10.192,13 Jun 2027 09:14:23.727,673.536
139,13 Jun 2027 10:44:15.250,13 Jun 2027 10:48:55.248,279.998
140,13 Jun 2027 17:25:08.695,13 Jun 2027 17:26:13.156,64.461
141,13 Jun 2027 18:58:21.144,13 Jun 2027 19:09:01.103,639.958
142,13 Jun 2027 20:34:04.654,13 Jun 2027 20:46:54.472,769.817
143,13 Jun 2027 22:10:01.262,13 Jun 2027 22:22:31.225,749.963
144,13 Jun 2027 23:45:49.193,13 Jun 2027 23:56:30.208,641.015
