dataset/facility_timing/facility_Facility-Anadyr1/Anadyr1-To-KinoSat_111709.csv

Acces,Start Time (UTCG),Stop Time (UTCG),Duration (sec)
1,1 Jun 2027 00:47:10.360,1 Jun 2027 00:55:45.908,515.548
2,1 Jun 2027 02:20:57.649,1 Jun 2027 02:29:56.397,538.749
3,1 Jun 2027 03:54:15.372,1 Jun 2027 04:05:15.332,659.960
4,1 Jun 2027 05:28:25.867,1 Jun 2027 05:41:05.607,759.740
5,1 Jun 2027 07:04:19.687,1 Jun 2027 07:17:01.644,761.957
6,1 Jun 2027 08:42:37.225,1 Jun 2027 08:52:39.954,602.729
7,1 Jun 2027 17:01:43.698,1 Jun 2027 17:08:00.822,377.123
8,1 Jun 2027 18:36:40.447,1 Jun 2027 18:48:19.260,698.813
9,1 Jun 2027 20:12:30.695,1 Jun 2027 20:25:27.222,776.527
10,1 Jun 2027 21:48:26.606,1 Jun 2027 22:00:30.982,724.376
11,1 Jun 2027 23:24:07.204,1 Jun 2027 23:34:10.019,602.815
12,2 Jun 2027 00:58:59.952,2 Jun 2027 01:07:29.973,510.021
13,2 Jun 2027 02:32:39.097,2 Jun 2027 02:41:50.330,551.233
14,2 Jun 2027 04:05:59.441,2 Jun 2027 04:17:15.230,675.789
15,2 Jun 2027 05:40:20.798,2 Jun 2027 05:53:07.350,766.552
16,2 Jun 2027 07:16:30.232,2 Jun 2027 07:29:02.732,752.499
17,2 Jun 2027 08:55:10.580,2 Jun 2027 09:04:35.487,564.907
18,2 Jun 2027 17:13:28.780,2 Jun 2027 17:20:53.035,444.255
19,2 Jun 2027 18:48:40.204,2 Jun 2027 19:00:38.290,718.085
20,2 Jun 2027 20:24:32.467,2 Jun 2027 20:37:28.378,775.912
21,2 Jun 2027 22:00:27.653,2 Jun 2027 22:12:19.060,711.407
22,2 Jun 2027 23:36:04.399,2 Jun 2027 23:45:51.235,586.836
23,3 Jun 2027 01:10:48.214,3 Jun 2027 01:19:15.150,506.936
24,3 Jun 2027 02:44:20.236,3 Jun 2027 02:53:45.331,565.095
25,3 Jun 2027 04:17:44.539,3 Jun 2027 04:29:15.529,690.990
26,3 Jun 2027 05:52:17.460,3 Jun 2027 06:05:09.150,771.690
27,3 Jun 2027 07:28:43.114,3 Jun 2027 07:41:03.523,740.408
28,3 Jun 2027 09:07:48.148,3 Jun 2027 09:16:29.196,521.049
29,3 Jun 2027 17:25:18.510,3 Jun 2027 17:33:38.102,499.592
30,3 Jun 2027 19:00:40.452,3 Jun 2027 19:12:54.702,734.250
31,3 Jun 2027 20:36:34.267,3 Jun 2027 20:49:27.646,773.379
32,3 Jun 2027 22:12:28.435,3 Jun 2027 22:24:05.847,697.412
33,3 Jun 2027 23:48:00.758,3 Jun 2027 23:57:32.286,571.529
34,4 Jun 2027 01:22:35.166,4 Jun 2027 01:31:01.555,506.389
35,4 Jun 2027 02:56:01.257,4 Jun 2027 03:05:41.303,580.046
36,4 Jun 2027 04:29:30.783,4 Jun 2027 04:41:16.176,705.393
37,4 Jun 2027 06:04:15.924,4 Jun 2027 06:17:10.956,775.032
38,4 Jun 2027 07:40:58.424,4 Jun 2027 07:53:03.949,725.525
39,4 Jun 2027 09:20:30.694,4 Jun 2027 09:28:20.362,469.668
40,4 Jun 2027 17:37:11.229,4 Jun 2027 17:46:17.724,546.495
41,4 Jun 2027 19:12:41.095,4 Jun 2027 19:25:08.629,747.534
42,4 Jun 2027 20:48:36.073,4 Jun 2027 21:01:25.087,769.015
43,4 Jun 2027 22:24:28.888,4 Jun 2027 22:35:51.438,682.550
44,4 Jun 2027 23:59:56.186,5 Jun 2027 00:09:13.358,557.172
45,5 Jun 2027 01:34:20.853,5 Jun 2027 01:42:49.247,508.395
46,5 Jun 2027 03:07:42.371,5 Jun 2027 03:17:38.150,595.779
47,5 Jun 2027 04:41:18.274,5 Jun 2027 04:53:17.120,718.846
48,5 Jun 2027 06:16:16.247,5 Jun 2027 06:29:12.743,776.496
49,5 Jun 2027 07:53:16.296,5 Jun 2027 08:05:03.923,707.627
50,5 Jun 2027 09:33:19.510,5 Jun 2027 09:40:07.747,408.237
51,5 Jun 2027 17:49:06.042,5 Jun 2027 17:58:52.847,586.805
52,5 Jun 2027 19:24:42.061,5 Jun 2027 19:37:20.185,758.124
53,5 Jun 2027 21:00:37.844,5 Jun 2027 21:13:20.774,762.930
54,5 Jun 2027 22:36:28.964,5 Jun 2027 22:47:35.945,666.981
55,6 Jun 2027 00:11:50.587,6 Jun 2027 00:20:54.655,544.068
56,6 Jun 2027 01:46:05.384,6 Jun 2027 01:54:38.267,512.884
57,6 Jun 2027 03:19:23.759,6 Jun 2027 03:29:35.782,612.024
58,6 Jun 2027 04:53:07.118,6 Jun 2027 05:05:18.310,731.192
59,6 Jun 2027 06:28:18.501,6 Jun 2027 06:41:14.472,775.971
60,6 Jun 2027 08:05:36.865,6 Jun 2027 08:17:03.354,686.489
61,6 Jun 2027 09:46:17.161,6 Jun 2027 09:51:48.815,331.654
62,6 Jun 2027 18:01:02.399,6 Jun 2027 18:11:24.063,621.665
63,6 Jun 2027 19:36:43.288,6 Jun 2027 19:49:29.465,766.177
64,6 Jun 2027 21:12:39.543,6 Jun 2027 21:25:14.766,755.223
65,6 Jun 2027 22:48:28.599,6 Jun 2027 22:59:19.500,650.902
66,7 Jun 2027 00:23:43.867,7 Jun 2027 00:32:36.377,532.510
67,7 Jun 2027 01:57:48.871,7 Jun 2027 02:06:28.616,519.745
68,7 Jun 2027 03:31:05.602,7 Jun 2027 03:41:34.104,628.503
69,7 Jun 2027 05:04:57.403,7 Jun 2027 05:17:19.697,742.294
70,7 Jun 2027 06:40:22.757,7 Jun 2027 06:53:16.100,773.343
71,7 Jun 2027 08:18:00.319,7 Jun 2027 08:29:02.097,661.778
72,7 Jun 2027 09:59:30.746,7 Jun 2027 10:03:16.516,225.770
73,7 Jun 2027 16:39:04.727,7 Jun 2027 16:41:55.127,170.400
74,7 Jun 2027 18:12:59.939,7 Jun 2027 18:23:51.790,651.851
75,7 Jun 2027 19:48:44.714,7 Jun 2027 20:01:36.566,771.851
76,7 Jun 2027 21:24:41.135,7 Jun 2027 21:37:07.134,745.999
77,7 Jun 2027 23:00:27.731,7 Jun 2027 23:11:02.225,634.494
78,8 Jun 2027 00:35:35.947,8 Jun 2027 00:44:18.725,522.778
79,8 Jun 2027 02:09:31.489,8 Jun 2027 02:18:20.249,528.759
80,8 Jun 2027 03:42:48.062,8 Jun 2027 03:53:33.033,644.971
81,8 Jun 2027 05:16:49.201,8 Jun 2027 05:29:21.243,752.042
82,8 Jun 2027 06:52:29.083,8 Jun 2027 07:05:17.592,768.509
83,8 Jun 2027 08:30:26.865,8 Jun 2027 08:40:59.986,633.122
84,8 Jun 2027 16:50:22.055,8 Jun 2027 16:55:20.031,297.976
85,8 Jun 2027 18:24:58.399,8 Jun 2027 18:36:16.334,677.934
86,8 Jun 2027 20:00:46.299,8 Jun 2027 20:13:41.566,775.267
87,8 Jun 2027 21:36:42.585,8 Jun 2027 21:48:57.959,735.374
88,8 Jun 2027 23:12:26.274,8 Jun 2027 23:22:44.284,618.010
89,9 Jun 2027 00:47:26.751,9 Jun 2027 00:56:01.890,515.139
90,9 Jun 2027 02:21:13.407,9 Jun 2027 02:30:13.113,539.705
91,9 Jun 2027 03:54:31.290,9 Jun 2027 04:05:32.497,661.207
92,9 Jun 2027 05:28:42.595,9 Jun 2027 05:41:22.905,760.310
93,9 Jun 2027 07:04:37.566,9 Jun 2027 07:17:18.894,761.328
94,9 Jun 2027 08:42:56.781,9 Jun 2027 08:52:56.802,600.021
95,9 Jun 2027 17:01:59.606,9 Jun 2027 17:08:22.136,382.530
96,9 Jun 2027 18:36:57.599,9 Jun 2027 18:48:37.930,700.330
97,9 Jun 2027 20:12:47.995,9 Jun 2027 20:25:44.539,776.544
98,9 Jun 2027 21:48:43.841,9 Jun 2027 22:00:47.317,723.476
99,9 Jun 2027 23:24:24.153,9 Jun 2027 23:34:25.824,601.671
100,10 Jun 2027 00:59:16.243,10 Jun 2027 01:07:46.038,509.795
101,10 Jun 2027 02:32:54.829,10 Jun 2027 02:42:07.123,552.295
102,10 Jun 2027 04:06:15.434,10 Jun 2027 04:17:32.425,676.991
103,10 Jun 2027 05:40:37.654,10 Jun 2027 05:53:24.658,767.004
104,10 Jun 2027 07:16:48.287,10 Jun 2027 07:29:19.956,751.668
105,10 Jun 2027 08:55:30.433,10 Jun 2027 09:04:52.214,561.781
106,10 Jun 2027 17:13:45.113,10 Jun 2027 17:21:13.736,448.623
107,10 Jun 2027 18:48:57.393,10 Jun 2027 19:00:56.756,719.363
108,10 Jun 2027 20:24:49.767,10 Jun 2027 20:37:45.557,775.790
109,10 Jun 2027 22:00:44.874,10 Jun 2027 22:12:35.296,710.422
110,10 Jun 2027 23:36:21.285,10 Jun 2027 23:46:07.018,585.733
111,11 Jun 2027 01:11:04.405,11 Jun 2027 01:19:31.301,506.897
112,11 Jun 2027 02:44:35.949,11 Jun 2027 02:54:02.197,566.248
113,11 Jun 2027 04:18:00.615,11 Jun 2027 04:29:32.754,692.139
114,11 Jun 2027 05:52:34.446,11 Jun 2027 06:05:26.449,772.003
115,11 Jun 2027 07:29:01.347,11 Jun 2027 07:41:20.715,739.368
116,11 Jun 2027 09:08:08.351,11 Jun 2027 09:16:45.750,517.399
117,11 Jun 2027 17:25:35.096,11 Jun 2027 17:33:58.363,503.267
118,11 Jun 2027 19:00:57.669,11 Jun 2027 19:13:12.981,735.313
119,11 Jun 2027 20:36:51.569,11 Jun 2027 20:49:44.685,773.115
120,11 Jun 2027 22:12:45.625,11 Jun 2027 22:24:21.990,696.365
121,11 Jun 2027 23:48:17.578,11 Jun 2027 23:57:48.062,570.484
122,12 Jun 2027 01:22:51.257,12 Jun 2027 01:31:17.799,506.542
123,12 Jun 2027 02:56:16.977,12 Jun 2027 03:05:58.238,581.261
124,12 Jun 2027 04:29:46.955,12 Jun 2027 04:41:33.418,706.464
125,12 Jun 2027 06:04:33.046,12 Jun 2027 06:17:28.256,775.210
126,12 Jun 2027 07:41:16.845,12 Jun 2027 07:53:21.109,724.264
127,12 Jun 2027 09:20:51.314,12 Jun 2027 09:28:36.676,465.361
128,12 Jun 2027 17:37:27.985,12 Jun 2027 17:46:37.633,549.648
129,12 Jun 2027 19:12:58.335,12 Jun 2027 19:25:26.731,748.395
130,12 Jun 2027 20:48:53.367,12 Jun 2027 21:01:41.993,768.626
131,12 Jun 2027 22:24:46.051,12 Jun 2027 22:36:07.497,681.446
132,13 Jun 2027 00:00:12.926,13 Jun 2027 00:09:29.148,556.222
133,13 Jun 2027 01:34:36.856,13 Jun 2027 01:43:05.589,508.733
134,13 Jun 2027 03:07:58.104,13 Jun 2027 03:17:55.144,597.040
135,13 Jun 2027 04:41:34.548,13 Jun 2027 04:53:34.378,719.830
136,13 Jun 2027 06:16:33.511,13 Jun 2027 06:29:30.036,776.525
137,13 Jun 2027 07:53:34.915,13 Jun 2027 08:05:21.042,706.127
138,13 Jun 2027 09:33:40.691,13 Jun 2027 09:40:23.687,402.997
139,13 Jun 2027 17:49:22.924,13 Jun 2027 17:59:12.446,589.522
140,13 Jun 2027 19:24:59.319,13 Jun 2027 19:37:38.114,758.795
141,13 Jun 2027 21:00:55.131,13 Jun 2027 21:13:37.551,762.421
142,13 Jun 2027 22:36:46.093,13 Jun 2027 22:47:51.929,665.837
