dataset/facility_timing/facility_Facility-Anadyr1/Anadyr1-To-KinoSat_110310.csv

Acces,Start Time (UTCG),Stop Time (UTCG),Duration (sec)
1,1 Jun 2027 00:00:01.000,1 Jun 2027 00:04:28.121,267.121
2,1 Jun 2027 01:29:13.833,1 Jun 2027 01:40:12.697,658.864
3,1 Jun 2027 03:10:51.286,1 Jun 2027 03:14:19.730,208.444
4,1 Jun 2027 09:50:29.826,1 Jun 2027 09:52:55.461,145.635
5,1 Jun 2027 11:24:14.059,1 Jun 2027 11:35:02.789,648.730
6,1 Jun 2027 12:59:57.382,1 Jun 2027 13:12:48.591,771.209
7,1 Jun 2027 14:35:52.740,1 Jun 2027 14:48:19.888,747.148
8,1 Jun 2027 16:11:38.277,1 Jun 2027 16:22:15.928,637.652
9,1 Jun 2027 17:46:45.570,1 Jun 2027 17:55:33.466,527.896
10,1 Jun 2027 19:20:41.308,1 Jun 2027 19:29:34.977,533.669
11,1 Jun 2027 20:53:58.937,1 Jun 2027 21:04:46.730,647.793
12,1 Jun 2027 22:28:00.906,1 Jun 2027 22:40:33.865,752.959
13,2 Jun 2027 00:03:41.370,2 Jun 2027 00:16:29.148,767.778
14,2 Jun 2027 01:41:40.058,2 Jun 2027 01:52:10.050,629.992
15,2 Jun 2027 10:01:40.939,2 Jun 2027 10:06:25.633,284.694
16,2 Jun 2027 11:36:11.979,2 Jun 2027 11:47:27.041,675.061
17,2 Jun 2027 13:11:58.505,2 Jun 2027 13:24:53.344,774.839
18,2 Jun 2027 14:47:53.741,2 Jun 2027 15:00:10.584,736.843
19,2 Jun 2027 16:23:36.393,2 Jun 2027 16:33:57.947,621.554
20,2 Jun 2027 17:58:36.089,2 Jun 2027 18:07:16.523,520.434
21,2 Jun 2027 19:32:23.180,2 Jun 2027 19:41:27.476,544.296
22,2 Jun 2027 21:05:42.113,2 Jun 2027 21:16:45.750,663.637
23,2 Jun 2027 22:39:54.116,2 Jun 2027 22:52:35.080,760.964
24,3 Jun 2027 00:15:49.553,3 Jun 2027 00:28:29.984,760.431
25,3 Jun 2027 01:54:09.639,3 Jun 2027 02:04:06.298,596.658
26,3 Jun 2027 10:13:16.443,3 Jun 2027 10:19:28.864,372.421
27,3 Jun 2027 11:48:10.652,3 Jun 2027 11:59:48.358,697.707
28,3 Jun 2027 13:23:59.739,3 Jun 2027 13:36:56.103,776.364
29,3 Jun 2027 14:59:54.560,3 Jun 2027 15:11:59.833,725.273
30,3 Jun 2027 16:35:33.867,3 Jun 2027 16:45:39.464,605.597
31,3 Jun 2027 18:10:25.339,3 Jun 2027 18:19:00.526,515.186
32,3 Jun 2027 19:44:04.571,3 Jun 2027 19:53:21.092,556.521
33,3 Jun 2027 21:17:26.176,3 Jun 2027 21:28:45.223,679.048
34,3 Jun 2027 22:51:48.964,3 Jun 2027 23:04:36.378,767.414
35,4 Jun 2027 00:27:59.936,4 Jun 2027 00:40:30.586,750.650
36,4 Jun 2027 02:06:42.953,4 Jun 2027 02:16:01.122,558.169
37,4 Jun 2027 10:25:00.670,4 Jun 2027 10:32:20.862,440.192
38,4 Jun 2027 12:00:09.932,4 Jun 2027 12:12:06.930,716.998
39,4 Jun 2027 13:36:01.057,4 Jun 2027 13:48:56.924,775.868
40,4 Jun 2027 15:11:55.153,4 Jun 2027 15:23:47.729,712.576
41,4 Jun 2027 16:47:30.601,4 Jun 2027 16:57:20.635,590.033
42,4 Jun 2027 18:22:13.304,4 Jun 2027 18:30:45.602,512.298
43,4 Jun 2027 19:55:45.673,4 Jun 2027 20:05:15.746,570.073
44,4 Jun 2027 21:29:11.256,4 Jun 2027 21:40:45.096,693.840
45,4 Jun 2027 23:03:45.513,4 Jun 2027 23:16:37.720,772.207
46,5 Jun 2027 00:40:12.632,5 Jun 2027 00:52:30.881,738.249
47,5 Jun 2027 02:19:20.539,5 Jun 2027 02:27:54.032,513.492
48,5 Jun 2027 10:36:49.673,5 Jun 2027 10:45:05.616,495.943
49,5 Jun 2027 12:12:09.708,5 Jun 2027 12:24:22.916,733.207
50,5 Jun 2027 13:48:02.408,5 Jun 2027 14:00:55.890,773.482
51,5 Jun 2027 15:23:55.473,5 Jun 2027 15:35:34.363,698.890
52,5 Jun 2027 16:59:26.520,5 Jun 2027 17:09:01.649,575.129
53,5 Jun 2027 18:34:00.005,5 Jun 2027 18:42:31.863,511.858
54,5 Jun 2027 20:07:26.679,5 Jun 2027 20:17:11.351,584.672
55,5 Jun 2027 21:40:57.468,5 Jun 2027 21:52:45.307,707.839
56,5 Jun 2027 23:15:43.839,5 Jun 2027 23:28:39.077,775.238
57,6 Jun 2027 00:52:27.736,6 Jun 2027 01:04:30.808,723.072
58,6 Jun 2027 02:32:03.204,6 Jun 2027 02:39:44.266,461.063
59,6 Jun 2027 10:48:41.742,6 Jun 2027 10:57:44.887,543.146
60,6 Jun 2027 12:24:09.877,6 Jun 2027 12:36:36.452,746.576
61,6 Jun 2027 14:00:03.757,6 Jun 2027 14:12:53.060,769.303
62,6 Jun 2027 15:35:55.472,6 Jun 2027 15:47:19.828,684.356
63,6 Jun 2027 17:11:21.524,6 Jun 2027 17:20:42.690,561.166
64,6 Jun 2027 18:45:45.491,6 Jun 2027 18:54:19.369,513.878
65,6 Jun 2027 20:19:07.774,6 Jun 2027 20:29:07.805,600.032
66,6 Jun 2027 21:52:44.903,6 Jun 2027 22:04:45.807,720.904
67,6 Jun 2027 23:27:43.999,6 Jun 2027 23:40:40.407,776.408
68,7 Jun 2027 01:04:45.378,7 Jun 2027 01:16:30.271,704.893
69,7 Jun 2027 02:44:52.350,7 Jun 2027 02:51:30.467,398.117
70,7 Jun 2027 11:00:35.952,7 Jun 2027 11:10:19.640,583.689
71,7 Jun 2027 12:36:10.375,7 Jun 2027 12:48:47.643,757.268
72,7 Jun 2027 14:12:05.080,7 Jun 2027 14:24:48.506,763.427
73,7 Jun 2027 15:47:55.095,7 Jun 2027 15:59:04.235,669.140
74,7 Jun 2027 17:23:15.518,7 Jun 2027 17:32:23.953,548.435
75,7 Jun 2027 18:57:29.865,7 Jun 2027 19:06:08.163,518.298
76,7 Jun 2027 20:30:49.152,7 Jun 2027 20:41:05.024,615.872
77,7 Jun 2027 22:04:33.666,7 Jun 2027 22:16:46.546,732.881
78,7 Jun 2027 23:39:46.059,7 Jun 2027 23:52:41.680,775.620
79,8 Jun 2027 01:17:05.700,8 Jun 2027 01:28:29.177,683.477
80,8 Jun 2027 02:57:50.853,8 Jun 2027 03:03:09.802,318.949
81,8 Jun 2027 11:12:31.737,8 Jun 2027 11:22:50.494,618.757
82,8 Jun 2027 12:48:11.137,8 Jun 2027 13:00:56.587,765.450
83,8 Jun 2027 14:24:06.324,8 Jun 2027 14:36:42.287,755.963
84,8 Jun 2027 15:59:54.281,8 Jun 2027 16:10:47.712,653.431
85,8 Jun 2027 17:35:08.426,8 Jun 2027 17:44:05.637,537.211
86,8 Jun 2027 19:09:13.236,8 Jun 2027 19:17:58.235,524.999
87,8 Jun 2027 20:42:30.976,8 Jun 2027 20:53:02.920,631.944
88,8 Jun 2027 22:16:23.843,8 Jun 2027 22:28:47.491,743.648
89,8 Jun 2027 23:51:50.100,9 Jun 2027 00:04:42.844,772.744
90,9 Jun 2027 01:29:28.891,9 Jun 2027 01:40:27.384,658.493
91,9 Jun 2027 03:11:07.290,9 Jun 2027 03:14:33.742,206.452
92,9 Jun 2027 09:50:43.314,9 Jun 2027 09:53:11.995,148.681
93,9 Jun 2027 11:24:28.728,9 Jun 2027 11:35:17.866,649.138
94,9 Jun 2027 13:00:12.102,9 Jun 2027 13:13:03.383,771.282
95,9 Jun 2027 14:36:07.467,9 Jun 2027 14:48:34.473,747.006
96,9 Jun 2027 16:11:52.971,9 Jun 2027 16:22:30.378,637.408
97,9 Jun 2027 17:47:00.164,9 Jun 2027 17:55:47.918,527.754
98,9 Jun 2027 19:20:55.774,9 Jun 2027 19:29:49.562,533.788
99,9 Jun 2027 20:54:13.405,9 Jun 2027 21:05:01.416,648.011
100,9 Jun 2027 22:28:15.509,9 Jun 2027 22:40:48.589,753.080
101,10 Jun 2027 00:03:56.180,10 Jun 2027 00:16:43.873,767.693
102,10 Jun 2027 01:41:55.159,10 Jun 2027 01:52:24.723,629.564
103,10 Jun 2027 10:01:55.176,10 Jun 2027 10:06:41.381,286.205
104,10 Jun 2027 11:36:26.659,10 Jun 2027 11:47:42.077,675.418
105,10 Jun 2027 13:12:13.230,10 Jun 2027 13:25:08.107,774.877
106,10 Jun 2027 14:48:08.466,10 Jun 2027 15:00:25.144,736.677
107,10 Jun 2027 16:23:51.079,10 Jun 2027 16:34:12.394,621.316
108,10 Jun 2027 17:58:50.664,10 Jun 2027 18:07:30.991,520.328
109,10 Jun 2027 19:32:37.635,10 Jun 2027 19:41:42.074,544.439
110,10 Jun 2027 21:05:56.590,10 Jun 2027 21:17:00.441,663.852
111,10 Jun 2027 22:40:08.742,10 Jun 2027 22:52:49.802,761.060
112,11 Jun 2027 00:16:04.388,11 Jun 2027 00:28:44.710,760.322
113,11 Jun 2027 01:54:24.791,11 Jun 2027 02:04:20.955,596.164
114,11 Jun 2027 10:13:30.865,11 Jun 2027 10:19:44.391,373.526
115,11 Jun 2027 11:48:25.342,11 Jun 2027 12:00:03.353,698.011
116,11 Jun 2027 13:24:14.466,11 Jun 2027 13:37:10.837,776.371
117,11 Jun 2027 15:00:09.282,11 Jun 2027 15:12:14.377,725.095
118,11 Jun 2027 16:35:48.541,11 Jun 2027 16:45:53.902,605.361
119,11 Jun 2027 18:10:39.895,11 Jun 2027 18:19:15.006,515.112
120,11 Jun 2027 19:44:19.019,11 Jun 2027 19:53:35.711,556.692
121,11 Jun 2027 21:17:40.669,11 Jun 2027 21:28:59.924,679.255
122,11 Jun 2027 22:52:03.613,11 Jun 2027 23:04:51.105,767.493
123,12 Jun 2027 00:28:14.808,12 Jun 2027 00:40:45.304,750.497
124,12 Jun 2027 02:06:58.160,12 Jun 2027 02:16:15.754,557.594
125,12 Jun 2027 10:25:15.183,12 Jun 2027 10:32:36.262,441.078
126,12 Jun 2027 12:00:24.631,12 Jun 2027 12:12:21.886,717.255
127,12 Jun 2027 13:36:15.785,12 Jun 2027 13:49:11.631,775.847
128,12 Jun 2027 15:12:09.872,12 Jun 2027 15:24:02.255,712.383
129,12 Jun 2027 16:47:45.264,12 Jun 2027 16:57:35.069,589.806
130,12 Jun 2027 18:22:27.840,12 Jun 2027 18:31:00.100,512.260
131,12 Jun 2027 19:56:00.117,12 Jun 2027 20:05:30.381,570.263
132,12 Jun 2027 21:29:25.764,12 Jun 2027 21:40:59.803,694.039
133,12 Jun 2027 23:04:00.186,12 Jun 2027 23:16:52.448,772.262
134,13 Jun 2027 00:40:27.537,13 Jun 2027 00:52:45.594,738.057
135,13 Jun 2027 02:19:35.812,13 Jun 2027 02:28:08.631,512.819
136,13 Jun 2027 10:37:04.243,13 Jun 2027 10:45:20.925,496.682
137,13 Jun 2027 12:12:24.415,13 Jun 2027 12:24:37.836,733.421
138,13 Jun 2027 13:48:17.137,13 Jun 2027 14:01:10.571,773.434
139,13 Jun 2027 15:24:10.187,13 Jun 2027 15:35:48.871,698.684
140,13 Jun 2027 16:59:41.170,13 Jun 2027 17:09:16.084,574.914
141,13 Jun 2027 18:34:14.522,13 Jun 2027 18:42:46.380,511.858
142,13 Jun 2027 20:07:41.123,13 Jun 2027 20:17:26.000,584.877
143,13 Jun 2027 21:41:11.992,13 Jun 2027 21:53:00.020,708.028
144,13 Jun 2027 23:15:58.538,13 Jun 2027 23:28:53.806,775.268
