dataset/facility_timing/facility_Facility-Anadyr1/Anadyr1-To-KinoSat_111007.csv

Acces,Start Time (UTCG),Stop Time (UTCG),Duration (sec)
1,1 Jun 2027 00:00:01.000,1 Jun 2027 00:03:33.947,212.947
2,1 Jun 2027 01:27:25.961,1 Jun 2027 01:39:05.561,699.600
3,1 Jun 2027 03:02:05.220,1 Jun 2027 03:14:58.918,773.698
4,1 Jun 2027 04:38:39.359,1 Jun 2027 04:50:51.728,732.369
5,1 Jun 2027 06:17:58.414,1 Jun 2027 06:26:11.475,493.062
6,1 Jun 2027 14:35:06.006,1 Jun 2027 14:43:44.263,518.257
7,1 Jun 2027 16:10:30.208,1 Jun 2027 16:22:49.822,739.613
8,1 Jun 2027 17:46:23.685,1 Jun 2027 17:59:15.511,771.827
9,1 Jun 2027 19:22:16.401,1 Jun 2027 19:33:48.700,692.298
10,1 Jun 2027 20:57:45.565,1 Jun 2027 21:07:13.724,568.159
11,1 Jun 2027 22:32:15.048,1 Jun 2027 22:40:46.476,511.429
12,2 Jun 2027 00:05:39.501,2 Jun 2027 00:15:30.017,590.516
13,2 Jun 2027 01:39:12.712,2 Jun 2027 01:51:05.993,713.282
14,2 Jun 2027 03:14:04.375,2 Jun 2027 03:27:00.357,775.982
15,2 Jun 2027 04:50:55.605,2 Jun 2027 05:02:51.565,715.960
16,2 Jun 2027 06:30:43.677,2 Jun 2027 06:38:00.349,436.672
17,2 Jun 2027 14:46:59.224,2 Jun 2027 14:56:21.531,562.306
18,2 Jun 2027 16:22:30.626,2 Jun 2027 16:35:02.389,751.763
19,2 Jun 2027 17:58:25.112,2 Jun 2027 18:11:11.967,766.855
20,2 Jun 2027 19:34:16.331,2 Jun 2027 19:45:33.714,677.383
21,2 Jun 2027 21:09:40.211,2 Jun 2027 21:18:54.856,554.645
22,2 Jun 2027 22:44:00.064,2 Jun 2027 22:52:34.593,514.529
23,3 Jun 2027 00:17:20.705,3 Jun 2027 00:27:26.900,606.195
24,3 Jun 2027 01:51:00.733,3 Jun 2027 02:03:06.694,725.961
25,3 Jun 2027 03:26:05.400,3 Jun 2027 03:39:01.755,776.356
26,3 Jun 2027 05:03:14.458,3 Jun 2027 05:14:50.897,696.439
27,3 Jun 2027 06:43:36.338,3 Jun 2027 06:49:44.297,367.959
28,3 Jun 2027 14:58:54.305,3 Jun 2027 15:08:54.579,600.275
29,3 Jun 2027 16:34:31.338,3 Jun 2027 16:47:12.653,761.315
30,3 Jun 2027 18:10:26.493,3 Jun 2027 18:23:06.722,760.229
31,3 Jun 2027 19:46:15.854,3 Jun 2027 19:57:17.719,661.864
32,3 Jun 2027 21:21:33.814,3 Jun 2027 21:30:36.291,542.477
33,3 Jun 2027 22:55:44.005,3 Jun 2027 23:04:24.000,519.995
34,4 Jun 2027 00:29:02.261,4 Jun 2027 00:39:24.512,622.250
35,4 Jun 2027 02:02:50.128,4 Jun 2027 02:15:07.613,737.485
36,4 Jun 2027 03:38:08.369,4 Jun 2027 03:51:03.071,774.702
37,4 Jun 2027 05:15:36.078,4 Jun 2027 05:26:49.613,673.536
38,4 Jun 2027 06:56:40.643,4 Jun 2027 07:01:19.119,278.476
39,4 Jun 2027 15:10:50.765,4 Jun 2027 15:21:23.936,633.171
40,4 Jun 2027 16:46:32.288,4 Jun 2027 16:59:20.706,768.419
41,4 Jun 2027 18:22:27.788,4 Jun 2027 18:34:59.836,752.048
42,4 Jun 2027 19:58:14.914,4 Jun 2027 20:09:00.841,645.927
43,4 Jun 2027 21:33:26.282,4 Jun 2027 21:42:18.228,531.946
44,4 Jun 2027 23:07:27.009,4 Jun 2027 23:16:14.693,527.685
45,5 Jun 2027 00:40:44.338,5 Jun 2027 00:51:22.764,638.426
46,5 Jun 2027 02:14:40.974,5 Jun 2027 02:27:08.720,747.746
47,5 Jun 2027 03:50:13.342,5 Jun 2027 04:03:04.271,770.930
48,5 Jun 2027 05:28:00.648,5 Jun 2027 05:38:47.563,646.915
49,5 Jun 2027 07:10:14.496,5 Jun 2027 07:12:26.958,132.462
50,5 Jun 2027 13:48:35.969,5 Jun 2027 13:52:19.352,223.383
51,5 Jun 2027 15:22:48.304,5 Jun 2027 15:33:49.957,661.653
52,5 Jun 2027 16:58:33.422,5 Jun 2027 17:11:26.646,773.224
53,5 Jun 2027 18:34:28.962,5 Jun 2027 18:46:51.385,742.424
54,5 Jun 2027 20:10:13.439,5 Jun 2027 20:20:43.215,629.776
55,5 Jun 2027 21:45:17.542,5 Jun 2027 21:54:00.856,523.314
56,5 Jun 2027 23:19:09.242,5 Jun 2027 23:28:06.616,537.374
57,6 Jun 2027 00:52:27.091,6 Jun 2027 01:03:21.588,654.497
58,6 Jun 2027 02:26:33.350,6 Jun 2027 02:39:09.959,756.608
59,6 Jun 2027 04:02:20.402,6 Jun 2027 04:15:05.313,764.911
60,6 Jun 2027 05:40:28.417,6 Jun 2027 05:50:44.555,616.139
61,6 Jun 2027 14:00:02.908,6 Jun 2027 14:05:32.726,329.818
62,6 Jun 2027 15:34:46.690,6 Jun 2027 15:46:12.915,686.225
63,6 Jun 2027 17:10:34.689,6 Jun 2027 17:23:30.537,775.848
64,6 Jun 2027 18:46:29.971,6 Jun 2027 18:58:41.442,731.471
65,6 Jun 2027 20:22:11.358,6 Jun 2027 20:32:25.001,613.643
66,6 Jun 2027 21:57:07.543,6 Jun 2027 22:05:44.351,516.808
67,6 Jun 2027 23:30:50.882,6 Jun 2027 23:39:59.704,548.822
68,7 Jun 2027 01:04:10.663,7 Jun 2027 01:15:20.910,670.246
69,7 Jun 2027 02:38:27.331,7 Jun 2027 02:51:11.304,763.973
70,7 Jun 2027 04:14:29.636,7 Jun 2027 04:27:06.140,756.504
71,7 Jun 2027 05:52:59.701,7 Jun 2027 06:02:40.311,580.611
72,7 Jun 2027 14:11:43.434,7 Jun 2027 14:18:29.983,406.549
73,7 Jun 2027 15:46:45.755,7 Jun 2027 15:58:33.029,707.275
74,7 Jun 2027 17:22:36.058,7 Jun 2027 17:35:32.451,776.393
75,7 Jun 2027 18:58:30.772,7 Jun 2027 19:10:30.094,719.322
76,7 Jun 2027 20:34:08.580,7 Jun 2027 20:44:06.351,597.770
77,7 Jun 2027 22:08:56.253,7 Jun 2027 22:17:28.863,512.610
78,7 Jun 2027 23:42:32.120,7 Jun 2027 23:51:53.883,561.763
79,8 Jun 2027 01:15:55.191,8 Jun 2027 01:27:20.664,685.473
80,8 Jun 2027 02:50:22.985,8 Jun 2027 03:03:12.716,769.730
81,8 Jun 2027 04:26:41.117,8 Jun 2027 04:39:06.696,745.578
82,8 Jun 2027 06:05:34.941,8 Jun 2027 06:14:34.454,539.513
83,8 Jun 2027 14:23:30.329,8 Jun 2027 14:31:18.369,468.041
84,8 Jun 2027 15:58:45.369,8 Jun 2027 16:10:50.466,725.097
85,8 Jun 2027 17:34:37.482,8 Jun 2027 17:47:32.466,774.985
86,8 Jun 2027 19:10:31.331,8 Jun 2027 19:22:17.428,706.097
87,8 Jun 2027 20:46:05.030,8 Jun 2027 20:55:47.439,582.409
88,8 Jun 2027 22:20:43.677,8 Jun 2027 22:29:14.510,510.832
89,8 Jun 2027 23:54:13.160,9 Jun 2027 00:03:49.063,575.903
90,9 Jun 2027 01:27:40.794,9 Jun 2027 01:39:20.782,699.988
91,9 Jun 2027 03:02:20.380,9 Jun 2027 03:15:14.157,773.778
92,9 Jun 2027 04:38:54.961,9 Jun 2027 04:51:06.925,731.963
93,9 Jun 2027 06:18:14.762,9 Jun 2027 06:26:26.393,491.631
94,9 Jun 2027 14:35:21.039,9 Jun 2027 14:44:00.481,519.442
95,9 Jun 2027 16:10:45.430,9 Jun 2027 16:23:05.381,739.951
96,9 Jun 2027 17:46:38.925,9 Jun 2027 17:59:30.646,771.721
97,9 Jun 2027 19:22:31.598,9 Jun 2027 19:34:03.534,691.936
98,9 Jun 2027 20:58:00.613,9 Jun 2027 21:07:28.453,567.839
99,9 Jun 2027 22:32:29.839,9 Jun 2027 22:41:01.382,511.543
100,10 Jun 2027 00:05:54.185,10 Jun 2027 00:15:45.152,590.967
101,10 Jun 2027 01:39:27.573,10 Jun 2027 01:51:21.223,713.650
102,10 Jun 2027 03:14:19.580,10 Jun 2027 03:27:15.597,776.017
103,10 Jun 2027 04:51:11.279,10 Jun 2027 05:03:06.742,715.463
104,10 Jun 2027 06:31:00.198,10 Jun 2027 06:38:15.155,434.957
105,10 Jun 2027 14:47:14.308,10 Jun 2027 14:56:37.633,563.325
106,10 Jun 2027 16:22:45.853,10 Jun 2027 16:35:17.885,752.032
107,10 Jun 2027 17:58:40.348,10 Jun 2027 18:11:27.056,766.708
108,10 Jun 2027 19:34:31.511,10 Jun 2027 19:45:48.521,677.009
109,10 Jun 2027 21:09:55.231,10 Jun 2027 21:19:09.591,554.360
110,10 Jun 2027 22:44:14.825,10 Jun 2027 22:52:49.532,514.707
111,11 Jun 2027 00:17:35.396,11 Jun 2027 00:27:42.053,606.657
112,11 Jun 2027 01:51:15.629,11 Jun 2027 02:03:21.928,726.299
113,11 Jun 2027 03:26:20.655,11 Jun 2027 03:39:16.991,776.336
114,11 Jun 2027 05:03:30.203,11 Jun 2027 05:15:06.056,695.853
115,11 Jun 2027 06:43:53.106,11 Jun 2027 06:49:58.920,365.815
116,11 Jun 2027 14:59:09.425,11 Jun 2027 15:09:10.580,601.155
117,11 Jun 2027 16:34:46.570,11 Jun 2027 16:47:28.091,761.521
118,11 Jun 2027 18:10:41.725,11 Jun 2027 18:23:21.767,760.042
119,11 Jun 2027 19:46:31.020,11 Jun 2027 19:57:32.502,661.482
120,11 Jun 2027 21:21:48.802,11 Jun 2027 21:30:51.038,542.236
121,11 Jun 2027 22:55:58.739,11 Jun 2027 23:04:38.972,520.233
122,12 Jun 2027 00:29:16.964,12 Jun 2027 00:39:39.681,622.717
123,12 Jun 2027 02:03:05.063,12 Jun 2027 02:15:22.850,737.788
124,12 Jun 2027 03:38:23.677,12 Jun 2027 03:51:18.302,774.625
125,12 Jun 2027 05:15:51.900,12 Jun 2027 05:27:04.750,672.850
126,12 Jun 2027 06:56:57.853,12 Jun 2027 07:01:33.364,275.511
127,12 Jun 2027 15:11:05.913,12 Jun 2027 15:21:39.847,633.933
128,12 Jun 2027 16:46:47.523,12 Jun 2027 16:59:36.087,768.565
129,12 Jun 2027 18:22:43.015,12 Jun 2027 18:35:14.840,751.825
130,12 Jun 2027 19:58:30.063,12 Jun 2027 20:09:15.603,645.540
131,12 Jun 2027 21:33:41.237,12 Jun 2027 21:42:32.992,531.755
132,12 Jun 2027 23:07:41.720,12 Jun 2027 23:16:29.698,527.978
133,13 Jun 2027 00:40:59.057,13 Jun 2027 00:51:37.947,638.889
134,13 Jun 2027 02:14:55.948,13 Jun 2027 02:27:23.959,748.011
135,13 Jun 2027 03:50:28.703,13 Jun 2027 04:03:19.496,770.792
136,13 Jun 2027 05:28:16.552,13 Jun 2027 05:39:02.673,646.121
137,13 Jun 2027 07:10:33.552,13 Jun 2027 07:12:39.423,125.871
138,13 Jun 2027 13:48:50.076,13 Jun 2027 13:52:36.751,226.675
139,13 Jun 2027 15:23:03.474,13 Jun 2027 15:34:05.785,662.311
140,13 Jun 2027 16:58:48.658,13 Jun 2027 17:11:41.972,773.313
141,13 Jun 2027 18:34:44.178,13 Jun 2027 18:47:06.350,742.171
142,13 Jun 2027 20:10:28.570,13 Jun 2027 20:20:57.961,629.390
143,13 Jun 2027 21:45:32.462,13 Jun 2027 21:54:15.642,523.180
144,13 Jun 2027 23:19:23.935,13 Jun 2027 23:28:21.652,537.717
