dataset/facility_timing/facility_Facility-Anadyr1/Anadyr1-To-KinoSat_110704.csv

Acces,Start Time (UTCG),Stop Time (UTCG),Duration (sec)
1,1 Jun 2027 00:31:53.484,1 Jun 2027 00:44:09.938,736.454
2,1 Jun 2027 02:07:10.234,1 Jun 2027 02:20:05.162,774.928
3,1 Jun 2027 03:44:35.868,1 Jun 2027 03:55:51.786,675.919
4,1 Jun 2027 05:25:35.554,1 Jun 2027 05:30:23.870,288.316
5,1 Jun 2027 13:39:53.779,1 Jun 2027 13:50:22.657,628.878
6,1 Jun 2027 15:15:34.532,1 Jun 2027 15:28:22.081,767.549
7,1 Jun 2027 16:51:29.804,1 Jun 2027 17:04:03.080,753.277
8,1 Jun 2027 18:27:17.016,1 Jun 2027 18:38:05.396,648.380
9,1 Jun 2027 20:02:29.017,1 Jun 2027 20:11:23.048,534.031
10,1 Jun 2027 21:36:30.854,1 Jun 2027 21:45:18.469,527.614
11,1 Jun 2027 23:09:48.412,1 Jun 2027 23:20:25.495,637.083
12,2 Jun 2027 00:43:44.130,2 Jun 2027 00:56:10.935,746.805
13,2 Jun 2027 02:19:14.916,2 Jun 2027 02:32:06.290,771.374
14,2 Jun 2027 03:57:00.012,2 Jun 2027 04:07:49.732,649.719
15,2 Jun 2027 05:39:03.896,2 Jun 2027 05:41:36.717,152.821
16,2 Jun 2027 12:17:45.869,2 Jun 2027 12:21:09.056,203.187
17,2 Jun 2027 13:51:51.096,2 Jun 2027 14:02:48.998,657.902
18,2 Jun 2027 15:27:35.557,2 Jun 2027 15:40:28.216,772.659
19,2 Jun 2027 17:03:30.909,2 Jun 2027 17:15:54.781,743.873
20,2 Jun 2027 18:39:15.525,2 Jun 2027 18:49:47.841,632.316
21,2 Jun 2027 20:14:20.363,2 Jun 2027 20:23:05.565,525.202
22,2 Jun 2027 21:48:13.158,2 Jun 2027 21:57:10.181,537.024
23,2 Jun 2027 23:21:31.067,2 Jun 2027 23:32:24.172,653.105
24,3 Jun 2027 00:55:36.287,3 Jun 2027 01:08:12.071,755.784
25,3 Jun 2027 02:31:21.665,3 Jun 2027 02:44:07.265,765.599
26,3 Jun 2027 04:09:27.321,3 Jun 2027 04:19:46.748,619.427
27,3 Jun 2027 12:29:09.222,3 Jun 2027 12:34:26.135,316.913
28,3 Jun 2027 14:03:49.287,3 Jun 2027 14:15:12.249,682.962
29,3 Jun 2027 15:39:36.720,3 Jun 2027 15:52:32.299,775.579
30,3 Jun 2027 17:15:31.854,3 Jun 2027 17:27:44.985,733.132
31,3 Jun 2027 18:51:13.441,3 Jun 2027 19:01:29.681,616.240
32,3 Jun 2027 20:26:10.463,3 Jun 2027 20:34:48.923,518.459
33,3 Jun 2027 21:59:54.848,3 Jun 2027 22:09:03.061,548.213
34,3 Jun 2027 23:33:14.521,3 Jun 2027 23:44:23.349,668.828
35,4 Jun 2027 01:07:30.035,4 Jun 2027 01:20:13.321,763.285
36,4 Jun 2027 02:43:30.573,4 Jun 2027 02:56:08.030,757.457
37,4 Jun 2027 04:21:58.100,4 Jun 2027 04:31:42.558,584.459
38,4 Jun 2027 12:40:48.352,4 Jun 2027 12:47:24.914,396.562
39,4 Jun 2027 14:15:48.178,4 Jun 2027 14:27:32.640,704.463
40,4 Jun 2027 15:51:37.989,4 Jun 2027 16:04:34.402,776.413
41,4 Jun 2027 17:27:32.596,4 Jun 2027 17:39:33.779,721.182
42,4 Jun 2027 19:03:10.671,4 Jun 2027 19:13:11.066,600.395
43,4 Jun 2027 20:37:59.284,4 Jun 2027 20:46:33.277,513.993
44,4 Jun 2027 22:11:36.119,4 Jun 2027 22:20:57.038,560.919
45,4 Jun 2027 23:44:58.911,4 Jun 2027 23:56:22.965,684.054
46,5 Jun 2027 01:19:25.443,5 Jun 2027 01:32:14.638,769.195
47,5 Jun 2027 02:55:41.715,5 Jun 2027 03:08:08.532,746.817
48,5 Jun 2027 04:34:32.772,5 Jun 2027 04:43:36.806,544.034
49,5 Jun 2027 12:52:34.435,5 Jun 2027 13:00:14.232,459.796
50,5 Jun 2027 14:27:47.634,5 Jun 2027 14:39:50.340,722.706
51,5 Jun 2027 16:03:39.321,5 Jun 2027 16:16:34.604,775.283
52,5 Jun 2027 17:39:33.103,5 Jun 2027 17:51:21.250,708.147
53,5 Jun 2027 19:15:07.146,5 Jun 2027 19:24:52.171,585.025
54,5 Jun 2027 20:49:46.825,5 Jun 2027 20:58:18.739,511.914
55,5 Jun 2027 22:23:17.163,5 Jun 2027 22:32:52.020,574.856
56,5 Jun 2027 23:56:44.359,6 Jun 2027 00:08:22.955,698.596
57,6 Jun 2027 01:31:22.577,6 Jun 2027 01:44:15.990,773.413
58,6 Jun 2027 03:07:55.201,6 Jun 2027 03:20:08.711,733.510
59,6 Jun 2027 04:47:11.943,6 Jun 2027 04:55:28.923,496.981
60,6 Jun 2027 13:04:24.596,6 Jun 2027 13:12:57.019,512.424
61,6 Jun 2027 14:39:47.550,6 Jun 2027 14:52:05.500,737.950
62,6 Jun 2027 16:15:40.675,6 Jun 2027 16:28:32.968,772.293
63,6 Jun 2027 17:51:33.324,6 Jun 2027 18:03:07.485,694.161
64,6 Jun 2027 19:27:02.765,6 Jun 2027 19:36:33.173,570.408
65,6 Jun 2027 21:01:33.109,6 Jun 2027 21:10:05.416,512.306
66,6 Jun 2027 22:34:58.181,6 Jun 2027 22:44:47.921,589.741
67,7 Jun 2027 00:08:30.965,7 Jun 2027 00:20:23.274,712.309
68,7 Jun 2027 01:43:21.503,7 Jun 2027 01:56:17.347,775.844
69,7 Jun 2027 03:20:11.135,7 Jun 2027 03:32:08.496,717.360
70,7 Jun 2027 04:59:56.573,7 Jun 2027 05:07:18.001,441.428
71,7 Jun 2027 13:16:17.457,7 Jun 2027 13:25:34.708,557.250
72,7 Jun 2027 14:51:47.839,7 Jun 2027 15:04:18.244,750.404
73,7 Jun 2027 16:27:42.020,7 Jun 2027 16:40:29.558,767.538
74,7 Jun 2027 18:03:33.199,7 Jun 2027 18:14:52.586,679.386
75,7 Jun 2027 19:38:57.437,7 Jun 2027 19:48:14.276,556.839
76,7 Jun 2027 21:13:18.209,7 Jun 2027 21:21:53.354,515.145
77,7 Jun 2027 22:46:39.351,7 Jun 2027 22:56:44.642,605.291
78,8 Jun 2027 00:20:18.831,8 Jun 2027 00:32:23.861,725.030
79,8 Jun 2027 01:55:22.289,8 Jun 2027 02:08:18.661,776.372
80,8 Jun 2027 03:32:29.656,8 Jun 2027 03:44:07.785,698.130
81,8 Jun 2027 05:12:48.400,8 Jun 2027 05:19:02.347,373.947
82,8 Jun 2027 13:28:12.243,8 Jun 2027 13:38:08.107,595.864
83,8 Jun 2027 15:03:48.431,8 Jun 2027 15:16:28.681,760.249
84,8 Jun 2027 16:39:43.319,8 Jun 2027 16:52:24.446,761.127
85,8 Jun 2027 18:15:32.682,8 Jun 2027 18:26:36.678,663.996
86,8 Jun 2027 19:50:51.079,8 Jun 2027 19:59:55.660,544.582
87,8 Jun 2027 21:25:02.230,8 Jun 2027 21:33:42.573,520.343
88,8 Jun 2027 22:58:20.852,8 Jun 2027 23:08:42.098,621.246
89,9 Jun 2027 00:32:08.057,9 Jun 2027 00:44:24.670,736.613
90,9 Jun 2027 02:07:25.007,9 Jun 2027 02:20:19.896,774.889
91,9 Jun 2027 03:44:50.921,9 Jun 2027 03:56:06.471,675.550
92,9 Jun 2027 05:25:51.335,9 Jun 2027 05:30:38.092,286.757
93,9 Jun 2027 13:40:08.465,9 Jun 2027 13:50:37.770,629.305
94,9 Jun 2027 15:15:49.266,9 Jun 2027 15:28:36.902,767.636
95,9 Jun 2027 16:51:44.536,9 Jun 2027 17:04:17.692,753.156
96,9 Jun 2027 18:27:31.707,9 Jun 2027 18:38:19.874,648.167
97,9 Jun 2027 20:02:43.602,9 Jun 2027 20:11:37.523,533.921
98,9 Jun 2027 21:36:45.306,9 Jun 2027 21:45:33.075,527.769
99,9 Jun 2027 23:10:02.865,9 Jun 2027 23:20:40.201,637.336
100,10 Jun 2027 00:43:58.720,10 Jun 2027 00:56:25.672,746.952
101,10 Jun 2027 02:19:29.718,10 Jun 2027 02:32:21.021,771.302
102,10 Jun 2027 03:57:15.110,10 Jun 2027 04:08:04.401,649.291
103,10 Jun 2027 05:39:20.456,10 Jun 2027 05:41:50.203,149.747
104,10 Jun 2027 12:17:59.887,10 Jun 2027 12:21:25.084,205.196
105,10 Jun 2027 13:52:05.794,10 Jun 2027 14:03:04.066,658.272
106,10 Jun 2027 15:27:50.293,10 Jun 2027 15:40:43.006,772.713
107,10 Jun 2027 17:03:45.637,10 Jun 2027 17:16:09.371,743.734
108,10 Jun 2027 18:39:30.206,10 Jun 2027 18:50:02.310,632.104
109,10 Jun 2027 20:14:34.929,10 Jun 2027 20:23:20.053,525.124
110,10 Jun 2027 21:48:27.598,10 Jun 2027 21:57:24.805,537.206
111,10 Jun 2027 23:21:45.530,10 Jun 2027 23:32:38.882,653.352
112,11 Jun 2027 00:55:50.900,11 Jun 2027 01:08:26.809,755.910
113,11 Jun 2027 02:31:36.498,11 Jun 2027 02:44:21.991,765.493
114,11 Jun 2027 04:09:42.468,11 Jun 2027 04:20:01.399,618.932
115,11 Jun 2027 12:29:23.603,11 Jun 2027 12:34:41.761,318.158
116,11 Jun 2027 14:04:03.994,11 Jun 2027 14:15:27.275,683.281
117,11 Jun 2027 15:39:51.457,11 Jun 2027 15:52:47.060,775.603
118,11 Jun 2027 17:15:46.578,11 Jun 2027 17:27:59.555,732.977
119,11 Jun 2027 18:51:28.110,11 Jun 2027 19:01:44.143,616.033
120,11 Jun 2027 20:26:25.009,11 Jun 2027 20:35:03.424,518.415
121,11 Jun 2027 22:00:09.282,11 Jun 2027 22:09:17.700,548.418
122,11 Jun 2027 23:33:28.997,11 Jun 2027 23:44:38.067,669.070
123,12 Jun 2027 01:07:44.671,12 Jun 2027 01:20:28.059,763.387
124,12 Jun 2027 02:43:45.438,12 Jun 2027 02:56:22.751,757.313
125,12 Jun 2027 04:22:13.301,12 Jun 2027 04:31:57.186,583.885
126,12 Jun 2027 12:41:02.861,12 Jun 2027 12:47:40.374,397.513
127,12 Jun 2027 14:16:02.893,12 Jun 2027 14:27:47.626,704.733
128,12 Jun 2027 15:51:52.726,12 Jun 2027 16:04:49.135,776.409
129,12 Jun 2027 17:27:47.315,12 Jun 2027 17:39:48.329,721.013
130,12 Jun 2027 19:03:25.328,12 Jun 2027 19:13:25.524,600.196
131,12 Jun 2027 20:38:13.809,12 Jun 2027 20:46:47.794,513.985
132,12 Jun 2027 22:11:50.546,12 Jun 2027 22:21:11.692,561.146
133,12 Jun 2027 23:45:13.401,12 Jun 2027 23:56:37.688,684.287
134,13 Jun 2027 01:19:40.103,13 Jun 2027 01:32:29.375,769.272
135,13 Jun 2027 02:55:56.613,13 Jun 2027 03:08:23.246,746.634
136,13 Jun 2027 04:34:48.036,13 Jun 2027 04:43:51.403,543.367
137,13 Jun 2027 12:52:49.013,13 Jun 2027 13:00:29.586,460.573
138,13 Jun 2027 14:28:02.355,13 Jun 2027 14:40:05.288,722.933
139,13 Jun 2027 16:03:54.057,13 Jun 2027 16:16:49.310,775.253
140,13 Jun 2027 17:39:47.816,13 Jun 2027 17:51:35.782,707.966
141,13 Jun 2027 19:15:21.788,13 Jun 2027 19:25:06.625,584.837
142,13 Jun 2027 20:50:01.329,13 Jun 2027 20:58:33.273,511.944
143,13 Jun 2027 22:23:31.592,13 Jun 2027 22:33:06.688,575.097
144,13 Jun 2027 23:56:58.865,14 Jun 2027 00:00:01.000,182.135
