dataset/facility_timing/facility_Facility-Anadyr1/Anadyr1-To-KinoSat_110206.csv

Acces,Start Time (UTCG),Stop Time (UTCG),Duration (sec)
1,1 Jun 2027 00:36:02.903,1 Jun 2027 00:47:27.579,684.676
2,1 Jun 2027 02:16:45.844,1 Jun 2027 02:22:09.537,323.693
3,1 Jun 2027 10:31:30.091,1 Jun 2027 10:41:47.447,617.356
4,1 Jun 2027 12:07:09.349,1 Jun 2027 12:19:54.500,765.152
5,1 Jun 2027 13:43:04.564,1 Jun 2027 13:55:40.878,756.314
6,1 Jun 2027 15:18:52.672,1 Jun 2027 15:29:46.738,654.066
7,1 Jun 2027 16:54:07.171,1 Jun 2027 17:03:04.671,537.499
8,1 Jun 2027 18:28:12.429,1 Jun 2027 18:36:56.848,524.419
9,1 Jun 2027 20:01:30.167,1 Jun 2027 20:12:01.215,631.048
10,1 Jun 2027 21:35:22.580,1 Jun 2027 21:47:45.697,743.118
11,1 Jun 2027 23:10:48.140,1 Jun 2027 23:23:41.091,772.951
12,2 Jun 2027 00:48:25.964,2 Jun 2027 00:59:25.846,659.882
13,2 Jun 2027 02:30:00.861,2 Jun 2027 02:33:34.820,213.959
14,2 Jun 2027 09:09:44.971,2 Jun 2027 09:12:04.870,139.900
15,2 Jun 2027 10:43:27.057,2 Jun 2027 10:54:14.992,647.935
16,2 Jun 2027 12:19:10.324,2 Jun 2027 12:32:01.410,771.086
17,2 Jun 2027 13:55:05.734,2 Jun 2027 14:07:33.146,747.412
18,2 Jun 2027 15:30:51.408,2 Jun 2027 15:41:29.441,638.033
19,2 Jun 2027 17:05:58.980,2 Jun 2027 17:14:46.922,527.943
20,2 Jun 2027 18:39:55.009,2 Jun 2027 18:48:48.129,533.120
21,2 Jun 2027 20:13:12.567,2 Jun 2027 20:23:59.703,647.135
22,2 Jun 2027 21:47:14.182,2 Jun 2027 21:59:46.809,752.627
23,2 Jun 2027 23:22:54.135,2 Jun 2027 23:35:42.149,768.014
24,3 Jun 2027 01:00:52.097,3 Jun 2027 01:11:23.256,631.160
25,3 Jun 2027 09:20:54.667,3 Jun 2027 09:25:36.584,281.918
26,3 Jun 2027 10:55:24.970,3 Jun 2027 11:06:39.362,674.392
27,3 Jun 2027 12:31:11.467,3 Jun 2027 12:44:06.242,774.775
28,3 Jun 2027 14:07:06.761,3 Jun 2027 14:19:23.897,737.135
29,3 Jun 2027 15:42:49.564,3 Jun 2027 15:53:11.482,621.918
30,3 Jun 2027 17:17:49.558,3 Jun 2027 17:26:29.955,520.398
31,3 Jun 2027 18:51:36.902,3 Jun 2027 19:00:40.605,543.702
32,3 Jun 2027 20:24:55.721,3 Jun 2027 20:35:58.726,663.005
33,3 Jun 2027 21:59:07.348,3 Jun 2027 22:11:48.042,760.694
34,3 Jun 2027 23:35:02.260,3 Jun 2027 23:47:43.013,760.754
35,4 Jun 2027 01:13:21.576,4 Jun 2027 01:23:19.573,597.997
36,4 Jun 2027 09:32:29.851,4 Jun 2027 09:38:40.259,370.408
37,4 Jun 2027 11:07:23.645,4 Jun 2027 11:19:00.786,697.141
38,4 Jun 2027 12:43:12.719,4 Jun 2027 12:56:09.075,776.356
39,4 Jun 2027 14:19:07.608,4 Jun 2027 14:31:13.196,725.589
40,4 Jun 2027 15:54:47.081,4 Jun 2027 16:04:53.013,605.932
41,4 Jun 2027 17:29:38.863,4 Jun 2027 17:38:13.930,515.067
42,4 Jun 2027 19:03:18.308,4 Jun 2027 19:12:34.202,555.893
43,4 Jun 2027 20:36:39.757,4 Jun 2027 20:47:58.206,678.449
44,4 Jun 2027 22:11:02.150,4 Jun 2027 22:23:49.358,767.208
45,4 Jun 2027 23:47:12.584,4 Jun 2027 23:59:43.647,751.063
46,5 Jun 2027 01:25:54.774,5 Jun 2027 01:35:14.480,559.706
47,5 Jun 2027 09:44:13.936,5 Jun 2027 09:51:32.523,438.587
48,5 Jun 2027 11:19:22.930,5 Jun 2027 11:31:19.457,716.528
49,5 Jun 2027 12:55:14.056,5 Jun 2027 13:08:09.968,775.912
50,5 Jun 2027 14:31:08.230,5 Jun 2027 14:43:01.139,712.910
51,5 Jun 2027 16:06:43.860,5 Jun 2027 16:16:34.193,590.333
52,5 Jun 2027 17:41:26.881,5 Jun 2027 17:49:58.976,512.095
53,5 Jun 2027 19:14:59.419,5 Jun 2027 19:24:28.842,569.423
54,5 Jun 2027 20:48:24.807,5 Jun 2027 20:59:58.087,693.280
55,5 Jun 2027 22:22:58.653,5 Jun 2027 22:35:50.719,772.066
56,5 Jun 2027 23:59:25.218,6 Jun 2027 00:11:43.975,738.757
57,6 Jun 2027 01:38:32.222,6 Jun 2027 01:47:07.491,515.269
58,6 Jun 2027 09:56:02.861,6 Jun 2027 10:04:17.475,494.613
59,6 Jun 2027 11:31:22.715,6 Jun 2027 11:43:35.537,732.822
60,6 Jun 2027 13:07:15.428,6 Jun 2027 13:20:09.001,773.574
61,6 Jun 2027 14:43:08.580,6 Jun 2027 14:54:47.815,699.235
62,6 Jun 2027 16:18:39.826,6 Jun 2027 16:28:15.210,575.384
63,6 Jun 2027 17:53:13.631,6 Jun 2027 18:01:45.207,511.576
64,6 Jun 2027 19:26:40.427,6 Jun 2027 19:36:24.436,584.009
65,6 Jun 2027 21:00:10.986,6 Jun 2027 21:11:58.310,707.323
66,6 Jun 2027 22:34:56.932,6 Jun 2027 22:47:52.097,775.165
67,7 Jun 2027 00:11:40.259,7 Jun 2027 00:23:43.938,723.678
68,7 Jun 2027 01:51:14.713,7 Jun 2027 01:58:57.868,463.155
69,7 Jun 2027 10:07:54.885,7 Jun 2027 10:16:56.907,542.022
70,7 Jun 2027 11:43:22.895,7 Jun 2027 11:55:49.163,746.268
71,7 Jun 2027 13:19:16.799,7 Jun 2027 13:32:06.236,769.437
72,7 Jun 2027 14:55:08.611,7 Jun 2027 15:06:33.319,684.708
73,7 Jun 2027 16:30:34.878,7 Jun 2027 16:39:56.248,561.369
74,7 Jun 2027 18:04:59.162,7 Jun 2027 18:13:32.684,513.522
75,7 Jun 2027 19:38:21.517,7 Jun 2027 19:48:20.885,599.367
76,7 Jun 2027 21:11:58.386,7 Jun 2027 21:23:58.821,720.435
77,7 Jun 2027 22:46:57.045,7 Jun 2027 22:59:53.451,776.406
78,8 Jun 2027 00:23:57.835,8 Jun 2027 00:35:43.440,705.606
79,8 Jun 2027 02:04:03.616,8 Jun 2027 02:10:44.275,400.659
80,8 Jun 2027 10:19:49.069,8 Jun 2027 10:29:31.801,582.732
81,8 Jun 2027 11:55:23.406,8 Jun 2027 12:08:00.438,757.033
82,8 Jun 2027 13:31:18.144,8 Jun 2027 13:44:01.743,763.599
83,8 Jun 2027 15:07:08.267,8 Jun 2027 15:18:17.759,669.492
84,8 Jun 2027 16:42:28.924,8 Jun 2027 16:51:37.502,548.579
85,8 Jun 2027 18:16:43.575,8 Jun 2027 18:25:21.448,517.873
86,8 Jun 2027 19:50:02.887,8 Jun 2027 20:00:18.101,615.215
87,8 Jun 2027 21:23:47.116,8 Jun 2027 21:35:59.579,732.463
88,8 Jun 2027 22:58:59.057,8 Jun 2027 23:11:54.748,775.691
89,9 Jun 2027 00:36:18.085,9 Jun 2027 00:47:42.391,684.305
90,9 Jun 2027 02:17:01.729,9 Jun 2027 02:22:23.969,322.240
91,9 Jun 2027 10:31:44.841,9 Jun 2027 10:42:02.780,617.939
92,9 Jun 2027 12:07:24.184,9 Jun 2027 12:20:09.463,765.279
93,9 Jun 2027 13:43:19.413,9 Jun 2027 13:55:55.581,756.169
94,9 Jun 2027 15:19:07.490,9 Jun 2027 15:30:01.265,653.776
95,9 Jun 2027 16:54:21.884,9 Jun 2027 17:03:19.172,537.288
96,9 Jun 2027 18:28:26.980,9 Jun 2027 18:37:11.496,524.515
97,9 Jun 2027 20:01:44.696,9 Jun 2027 20:12:15.998,631.301
98,9 Jun 2027 21:35:37.252,9 Jun 2027 21:48:00.536,743.283
99,9 Jun 2027 23:11:03.049,9 Jun 2027 23:23:55.937,772.889
100,10 Jun 2027 00:48:41.201,10 Jun 2027 00:59:40.647,659.446
101,10 Jun 2027 02:30:17.187,10 Jun 2027 02:33:48.859,211.671
102,10 Jun 2027 09:09:58.238,10 Jun 2027 09:12:21.971,143.734
103,10 Jun 2027 10:43:41.827,10 Jun 2027 10:54:30.265,648.439
104,10 Jun 2027 12:19:25.164,10 Jun 2027 12:32:16.336,771.172
105,10 Jun 2027 13:55:20.581,10 Jun 2027 14:07:47.822,747.241
106,10 Jun 2027 15:31:06.217,10 Jun 2027 15:41:43.955,637.739
107,10 Jun 2027 17:06:13.674,10 Jun 2027 17:15:01.435,527.761
108,10 Jun 2027 18:40:09.546,10 Jun 2027 18:49:02.799,533.254
109,10 Jun 2027 20:13:27.107,10 Jun 2027 20:24:14.497,647.390
110,10 Jun 2027 21:47:28.880,10 Jun 2027 22:00:01.650,752.771
111,10 Jun 2027 23:23:09.079,10 Jun 2027 23:35:56.994,767.915
112,11 Jun 2027 01:01:07.387,11 Jun 2027 01:11:38.041,630.655
113,11 Jun 2027 09:21:08.904,11 Jun 2027 09:25:52.674,283.770
114,11 Jun 2027 10:55:39.757,11 Jun 2027 11:06:54.582,674.825
115,11 Jun 2027 12:31:26.310,11 Jun 2027 12:44:21.132,774.822
116,11 Jun 2027 14:07:21.607,11 Jun 2027 14:19:38.543,736.936
117,11 Jun 2027 15:43:04.364,11 Jun 2027 15:53:25.990,621.626
118,11 Jun 2027 17:18:04.227,11 Jun 2027 17:26:44.486,520.259
119,11 Jun 2027 18:51:51.427,11 Jun 2027 19:00:55.293,543.866
120,11 Jun 2027 20:25:10.270,11 Jun 2027 20:36:13.528,663.258
121,11 Jun 2027 21:59:22.073,11 Jun 2027 22:12:02.882,760.809
122,11 Jun 2027 23:35:17.236,11 Jun 2027 23:47:57.860,760.624
123,12 Jun 2027 01:13:36.927,12 Jun 2027 01:23:34.339,597.413
124,12 Jun 2027 09:32:44.321,12 Jun 2027 09:38:56.076,371.755
125,12 Jun 2027 11:07:38.445,12 Jun 2027 11:19:15.957,697.512
126,12 Jun 2027 12:43:27.565,12 Jun 2027 12:56:23.932,776.366
127,12 Jun 2027 14:19:22.450,12 Jun 2027 14:31:27.823,725.373
128,12 Jun 2027 15:55:01.868,12 Jun 2027 16:05:07.511,605.642
129,12 Jun 2027 17:29:53.509,12 Jun 2027 17:38:28.476,514.967
130,12 Jun 2027 19:03:32.825,12 Jun 2027 19:12:48.914,556.089
131,12 Jun 2027 20:36:54.324,12 Jun 2027 20:48:13.019,678.695
132,12 Jun 2027 22:11:16.903,12 Jun 2027 22:24:04.205,767.302
133,12 Jun 2027 23:47:27.602,12 Jun 2027 23:59:58.485,750.883
134,13 Jun 2027 01:26:10.190,13 Jun 2027 01:35:29.218,559.028
135,13 Jun 2027 09:44:28.518,13 Jun 2027 09:51:48.185,439.668
136,13 Jun 2027 11:19:37.741,13 Jun 2027 11:31:34.582,716.841
137,13 Jun 2027 12:55:28.904,13 Jun 2027 13:08:24.792,775.888
138,13 Jun 2027 14:31:23.069,13 Jun 2027 14:43:15.744,712.675
139,13 Jun 2027 16:06:58.634,13 Jun 2027 16:16:48.686,590.052
140,13 Jun 2027 17:41:41.504,13 Jun 2027 17:50:13.543,512.039
141,13 Jun 2027 19:15:13.931,13 Jun 2027 19:24:43.574,569.642
142,13 Jun 2027 20:48:39.392,13 Jun 2027 21:00:12.908,693.516
143,13 Jun 2027 22:23:13.436,13 Jun 2027 22:36:05.568,772.133
144,13 Jun 2027 23:59:40.273,14 Jun 2027 00:00:01.000,20.727
