dataset/facility_timing/facility_Facility-Anadyr1/Anadyr1-To-KinoSat_110201.csv

Acces,Start Time (UTCG),Stop Time (UTCG),Duration (sec)
1,1 Jun 2027 01:25:47.069,1 Jun 2027 01:35:07.104,560.035
2,1 Jun 2027 09:44:06.649,1 Jun 2027 09:51:24.687,438.038
3,1 Jun 2027 11:19:15.525,1 Jun 2027 11:31:11.894,716.368
4,1 Jun 2027 12:55:06.631,1 Jun 2027 13:08:02.556,775.924
5,1 Jun 2027 14:31:00.810,1 Jun 2027 14:42:53.838,713.028
6,1 Jun 2027 16:06:36.470,1 Jun 2027 16:16:26.949,590.478
7,1 Jun 2027 17:41:19.565,1 Jun 2027 17:49:51.696,512.131
8,1 Jun 2027 19:14:52.160,1 Jun 2027 19:24:21.479,569.319
9,1 Jun 2027 20:48:17.513,1 Jun 2027 20:59:50.678,693.165
10,1 Jun 2027 22:22:51.262,1 Jun 2027 22:35:43.295,772.033
11,1 Jun 2027 23:59:17.689,2 Jun 2027 00:11:36.557,738.867
12,2 Jun 2027 01:38:24.479,2 Jun 2027 01:47:00.136,515.658
13,2 Jun 2027 09:55:55.540,2 Jun 2027 10:04:09.695,494.154
14,2 Jun 2027 11:31:15.306,2 Jun 2027 11:43:27.996,732.689
15,2 Jun 2027 13:07:08.003,2 Jun 2027 13:20:01.605,773.602
16,2 Jun 2027 14:43:01.161,2 Jun 2027 14:54:40.525,699.363
17,2 Jun 2027 16:18:32.443,2 Jun 2027 16:28:07.967,575.523
18,2 Jun 2027 17:53:06.327,2 Jun 2027 18:01:37.916,511.589
19,2 Jun 2027 19:26:33.170,2 Jun 2027 19:36:17.065,583.896
20,2 Jun 2027 21:00:03.683,2 Jun 2027 21:11:50.898,707.214
21,2 Jun 2027 22:34:49.526,2 Jun 2027 22:47:44.673,775.146
22,3 Jun 2027 00:11:32.711,3 Jun 2027 00:23:36.523,723.813
23,3 Jun 2027 01:51:06.924,3 Jun 2027 01:58:50.538,463.615
24,3 Jun 2027 10:07:47.541,3 Jun 2027 10:16:49.172,541.631
25,3 Jun 2027 11:43:15.482,3 Jun 2027 11:55:41.643,746.160
26,3 Jun 2027 13:19:09.374,3 Jun 2027 13:31:58.855,769.481
27,3 Jun 2027 14:55:01.195,3 Jun 2027 15:06:26.038,684.843
28,3 Jun 2027 16:30:27.504,3 Jun 2027 16:39:49.004,561.499
29,3 Jun 2027 18:04:51.869,3 Jun 2027 18:13:25.382,513.513
30,3 Jun 2027 19:38:14.259,3 Jun 2027 19:48:13.506,599.247
31,3 Jun 2027 21:11:51.073,3 Jun 2027 21:23:51.406,720.334
32,3 Jun 2027 22:46:49.624,3 Jun 2027 22:59:46.027,776.403
33,4 Jun 2027 00:23:50.264,4 Jun 2027 00:35:36.030,705.766
34,4 Jun 2027 02:03:55.766,4 Jun 2027 02:10:36.986,401.219
35,4 Jun 2027 10:19:41.707,4 Jun 2027 10:29:24.103,582.396
36,4 Jun 2027 11:55:15.990,4 Jun 2027 12:07:52.938,756.948
37,4 Jun 2027 13:31:10.719,4 Jun 2027 13:43:54.377,763.658
38,4 Jun 2027 15:07:00.855,4 Jun 2027 15:18:10.488,669.632
39,4 Jun 2027 16:42:21.559,4 Jun 2027 16:51:30.256,548.697
40,4 Jun 2027 18:16:36.292,4 Jun 2027 18:25:14.135,517.843
41,4 Jun 2027 19:49:55.626,4 Jun 2027 20:00:10.716,615.089
42,4 Jun 2027 21:23:39.792,4 Jun 2027 21:35:52.162,732.370
43,4 Jun 2027 22:58:51.619,4 Jun 2027 23:11:47.324,775.705
44,5 Jun 2027 00:36:10.492,5 Jun 2027 00:47:34.985,684.493
45,5 Jun 2027 02:16:53.784,5 Jun 2027 02:22:16.755,322.971
46,5 Jun 2027 10:31:37.466,5 Jun 2027 10:41:55.115,617.648
47,5 Jun 2027 12:07:16.766,5 Jun 2027 12:20:01.982,765.217
48,5 Jun 2027 13:43:11.989,5 Jun 2027 13:55:48.230,756.241
49,5 Jun 2027 15:19:00.082,5 Jun 2027 15:29:54.001,653.920
50,5 Jun 2027 16:54:14.529,5 Jun 2027 17:03:11.921,537.392
51,5 Jun 2027 18:28:19.706,5 Jun 2027 18:37:04.170,524.464
52,5 Jun 2027 20:01:37.432,5 Jun 2027 20:12:08.606,631.174
53,5 Jun 2027 21:35:29.916,5 Jun 2027 21:47:53.116,743.200
54,5 Jun 2027 23:10:55.595,5 Jun 2027 23:23:48.515,772.920
55,6 Jun 2027 00:48:33.582,6 Jun 2027 00:59:33.248,659.665
56,6 Jun 2027 02:30:09.020,6 Jun 2027 02:33:41.845,212.825
57,6 Jun 2027 09:09:51.591,6 Jun 2027 09:12:13.434,141.843
58,6 Jun 2027 10:43:34.441,6 Jun 2027 10:54:22.630,648.188
59,6 Jun 2027 12:19:17.744,6 Jun 2027 12:32:08.873,771.129
60,6 Jun 2027 13:55:13.158,6 Jun 2027 14:07:40.484,747.326
61,6 Jun 2027 15:30:58.813,6 Jun 2027 15:41:36.698,637.884
62,6 Jun 2027 17:06:06.330,6 Jun 2027 17:14:54.178,527.848
63,6 Jun 2027 18:40:02.279,6 Jun 2027 18:48:55.463,533.184
64,6 Jun 2027 20:13:19.838,6 Jun 2027 20:24:07.099,647.261
65,6 Jun 2027 21:47:21.531,6 Jun 2027 21:59:54.230,752.699
66,6 Jun 2027 23:23:01.607,6 Jun 2027 23:35:49.572,767.965
67,7 Jun 2027 01:00:59.741,7 Jun 2027 01:11:30.650,630.909
68,7 Jun 2027 09:21:01.781,7 Jun 2027 09:25:44.633,282.852
69,7 Jun 2027 10:55:32.363,7 Jun 2027 11:06:46.973,674.610
70,7 Jun 2027 12:31:18.888,7 Jun 2027 12:44:13.687,774.799
71,7 Jun 2027 14:07:14.184,7 Jun 2027 14:19:31.222,737.037
72,7 Jun 2027 15:42:56.965,7 Jun 2027 15:53:18.734,621.769
73,7 Jun 2027 17:17:56.894,7 Jun 2027 17:26:37.218,520.324
74,7 Jun 2027 18:51:44.166,7 Jun 2027 19:00:47.949,543.783
75,7 Jun 2027 20:25:02.998,7 Jun 2027 20:36:06.127,663.129
76,7 Jun 2027 21:59:14.710,7 Jun 2027 22:11:55.464,760.753
77,7 Jun 2027 23:35:09.749,7 Jun 2027 23:47:50.434,760.685
78,8 Jun 2027 01:13:29.249,8 Jun 2027 01:23:26.956,597.707
79,8 Jun 2027 09:32:37.082,8 Jun 2027 09:38:48.170,371.087
80,8 Jun 2027 11:07:31.044,8 Jun 2027 11:19:08.372,697.328
81,8 Jun 2027 12:43:20.141,8 Jun 2027 12:56:16.503,776.362
82,8 Jun 2027 14:19:15.029,8 Jun 2027 14:31:20.509,725.480
83,8 Jun 2027 15:54:54.475,8 Jun 2027 16:05:00.261,605.785
84,8 Jun 2027 17:29:46.187,8 Jun 2027 17:38:21.201,515.014
85,8 Jun 2027 19:03:25.568,8 Jun 2027 19:12:41.556,555.989
86,8 Jun 2027 20:36:47.041,8 Jun 2027 20:48:05.611,678.571
87,8 Jun 2027 22:11:09.526,8 Jun 2027 22:23:56.781,767.254
88,8 Jun 2027 23:47:20.092,8 Jun 2027 23:59:51.066,750.974
89,9 Jun 2027 01:26:02.480,9 Jun 2027 01:35:21.850,559.369
90,9 Jun 2027 09:44:21.224,9 Jun 2027 09:51:40.355,439.131
91,9 Jun 2027 11:19:30.334,9 Jun 2027 11:31:27.019,716.685
92,9 Jun 2027 12:55:21.479,9 Jun 2027 13:08:17.379,775.900
93,9 Jun 2027 14:31:15.649,9 Jun 2027 14:43:08.441,712.791
94,9 Jun 2027 16:06:51.247,9 Jun 2027 16:16:41.438,590.191
95,9 Jun 2027 17:41:34.193,9 Jun 2027 17:50:06.257,512.064
96,9 Jun 2027 19:15:06.675,9 Jun 2027 19:24:36.206,569.531
97,9 Jun 2027 20:48:32.099,9 Jun 2027 21:00:05.496,693.397
98,9 Jun 2027 22:23:06.044,9 Jun 2027 22:35:58.143,772.099
99,9 Jun 2027 23:59:32.746,10 Jun 2027 00:11:51.391,738.645
100,10 Jun 2027 01:38:39.967,10 Jun 2027 01:47:14.843,514.876
101,10 Jun 2027 09:56:10.184,10 Jun 2027 10:04:25.251,495.067
102,10 Jun 2027 11:31:30.124,10 Jun 2027 11:43:43.077,732.953
103,10 Jun 2027 13:07:22.852,10 Jun 2027 13:20:16.397,773.545
104,10 Jun 2027 14:43:15.997,10 Jun 2027 14:54:55.106,699.109
105,10 Jun 2027 16:18:47.206,10 Jun 2027 16:28:22.455,575.249
106,10 Jun 2027 17:53:20.932,10 Jun 2027 18:01:52.500,511.567
107,10 Jun 2027 19:26:47.683,10 Jun 2027 19:36:31.809,584.126
108,10 Jun 2027 21:00:18.288,10 Jun 2027 21:12:05.722,707.434
109,10 Jun 2027 22:35:04.338,10 Jun 2027 22:47:59.521,775.183
110,11 Jun 2027 00:11:47.809,11 Jun 2027 00:23:51.351,723.542
111,11 Jun 2027 01:51:22.505,11 Jun 2027 01:59:05.194,462.689
112,11 Jun 2027 10:08:02.233,11 Jun 2027 10:17:04.640,542.407
113,11 Jun 2027 11:43:30.308,11 Jun 2027 11:55:56.683,746.375
114,11 Jun 2027 13:19:24.223,11 Jun 2027 13:32:13.617,769.393
115,11 Jun 2027 14:55:16.025,11 Jun 2027 15:06:40.600,684.575
116,11 Jun 2027 16:30:42.250,11 Jun 2027 16:40:03.494,561.244
117,11 Jun 2027 18:05:06.453,11 Jun 2027 18:13:39.987,513.534
118,11 Jun 2027 19:38:28.774,11 Jun 2027 19:48:28.266,599.492
119,11 Jun 2027 21:12:05.698,11 Jun 2027 21:24:06.237,720.539
120,11 Jun 2027 22:47:04.467,11 Jun 2027 23:00:00.875,776.408
121,12 Jun 2027 00:24:05.406,12 Jun 2027 00:35:50.850,705.443
122,12 Jun 2027 02:04:11.472,12 Jun 2027 02:10:51.560,400.088
123,12 Jun 2027 10:19:56.434,12 Jun 2027 10:29:39.497,583.063
124,12 Jun 2027 11:55:30.823,12 Jun 2027 12:08:07.938,757.116
125,12 Jun 2027 13:31:25.569,12 Jun 2027 13:44:09.110,763.541
126,12 Jun 2027 15:07:15.679,12 Jun 2027 15:18:25.033,669.354
127,12 Jun 2027 16:42:36.287,12 Jun 2027 16:51:44.752,548.465
128,12 Jun 2027 18:16:50.857,12 Jun 2027 18:25:28.765,517.908
129,12 Jun 2027 19:50:10.146,12 Jun 2027 20:00:25.490,615.344
130,12 Jun 2027 21:23:54.440,12 Jun 2027 21:36:06.998,732.558
131,12 Jun 2027 22:59:06.495,12 Jun 2027 23:12:02.172,775.677
132,13 Jun 2027 00:36:25.681,13 Jun 2027 00:47:49.795,684.114
133,13 Jun 2027 02:17:09.682,13 Jun 2027 02:22:31.177,321.496
134,13 Jun 2027 10:31:52.220,13 Jun 2027 10:42:10.445,618.225
135,13 Jun 2027 12:07:31.603,13 Jun 2027 12:20:16.945,765.341
136,13 Jun 2027 13:43:26.838,13 Jun 2027 13:56:02.934,756.097
137,13 Jun 2027 15:19:14.898,13 Jun 2027 15:30:08.532,653.634
138,13 Jun 2027 16:54:29.237,13 Jun 2027 17:03:26.426,537.189
139,13 Jun 2027 18:28:34.254,13 Jun 2027 18:37:18.825,524.571
140,13 Jun 2027 20:01:51.960,13 Jun 2027 20:12:23.393,631.432
141,13 Jun 2027 21:35:44.589,13 Jun 2027 21:48:07.957,743.368
142,13 Jun 2027 23:11:10.505,13 Jun 2027 23:24:03.362,772.857
