dataset/facility_timing/facility_Facility-Anadyr1/Anadyr1-To-KinoSat_110808.csv

Acces,Start Time (UTCG),Stop Time (UTCG),Duration (sec)
1,1 Jun 2027 00:00:01.000,1 Jun 2027 00:01:44.276,103.276
2,1 Jun 2027 01:24:57.547,1 Jun 2027 01:37:31.831,754.284
3,1 Jun 2027 03:00:40.314,1 Jun 2027 03:13:27.124,766.810
4,1 Jun 2027 04:38:42.255,1 Jun 2027 04:49:07.435,625.180
5,1 Jun 2027 12:58:33.682,1 Jun 2027 13:03:34.778,301.097
6,1 Jun 2027 14:33:09.464,1 Jun 2027 14:44:28.466,679.002
7,1 Jun 2027 16:08:56.495,1 Jun 2027 16:21:51.730,775.234
8,1 Jun 2027 17:44:51.731,1 Jun 2027 17:57:06.761,735.030
9,1 Jun 2027 19:20:33.931,1 Jun 2027 19:30:52.790,618.859
10,1 Jun 2027 20:55:32.405,1 Jun 2027 21:04:11.623,519.218
11,1 Jun 2027 22:29:18.170,1 Jun 2027 22:38:24.104,545.934
12,2 Jun 2027 00:02:37.392,2 Jun 2027 00:13:43.396,666.004
13,2 Jun 2027 01:36:51.022,2 Jun 2027 01:49:33.085,762.064
14,2 Jun 2027 03:12:48.853,2 Jun 2027 03:25:27.947,759.094
15,2 Jun 2027 04:51:12.421,2 Jun 2027 05:01:03.504,591.083
16,2 Jun 2027 13:10:11.128,2 Jun 2027 13:16:35.719,384.591
17,2 Jun 2027 14:45:08.269,2 Jun 2027 14:56:49.353,701.084
18,2 Jun 2027 16:20:57.768,2 Jun 2027 16:33:54.187,776.419
19,2 Jun 2027 17:56:52.537,2 Jun 2027 18:08:55.797,723.260
20,2 Jun 2027 19:32:31.309,2 Jun 2027 19:42:34.248,602.939
21,2 Jun 2027 21:07:21.456,2 Jun 2027 21:15:55.796,514.340
22,2 Jun 2027 22:40:59.503,2 Jun 2027 22:50:17.912,558.409
23,3 Jun 2027 00:14:21.610,3 Jun 2027 00:25:42.961,681.351
24,3 Jun 2027 01:48:46.146,3 Jun 2027 02:01:34.412,768.266
25,3 Jun 2027 03:24:59.617,3 Jun 2027 03:37:28.523,748.906
26,3 Jun 2027 05:03:46.393,3 Jun 2027 05:12:58.090,551.697
27,3 Jun 2027 13:21:56.340,3 Jun 2027 13:29:26.382,450.042
28,3 Jun 2027 14:57:07.661,3 Jun 2027 15:09:07.520,719.859
29,3 Jun 2027 16:32:59.115,3 Jun 2027 16:45:54.725,775.610
30,3 Jun 2027 18:08:53.112,3 Jun 2027 18:20:43.494,710.382
31,3 Jun 2027 19:44:27.938,3 Jun 2027 19:54:15.386,587.447
32,3 Jun 2027 21:19:09.224,3 Jun 2027 21:27:41.070,511.846
33,3 Jun 2027 22:52:40.577,3 Jun 2027 23:02:12.746,572.169
34,4 Jun 2027 00:26:06.867,4 Jun 2027 00:37:42.914,696.047
35,4 Jun 2027 02:00:42.984,4 Jun 2027 02:13:35.785,772.801
36,4 Jun 2027 03:37:12.708,4 Jun 2027 03:49:28.790,736.082
37,4 Jun 2027 05:16:24.740,4 Jun 2027 05:24:50.659,505.918
38,4 Jun 2027 13:33:45.964,4 Jun 2027 13:42:10.178,504.214
39,4 Jun 2027 15:09:07.532,4 Jun 2027 15:21:23.124,735.592
40,4 Jun 2027 16:45:00.491,4 Jun 2027 16:57:53.413,772.921
41,4 Jun 2027 18:20:53.403,4 Jun 2027 18:32:29.942,696.540
42,4 Jun 2027 19:56:23.734,4 Jun 2027 20:05:56.399,572.665
43,4 Jun 2027 21:30:55.733,4 Jun 2027 21:39:27.544,511.811
44,4 Jun 2027 23:04:21.584,4 Jun 2027 23:14:08.516,586.932
45,5 Jun 2027 00:37:53.274,5 Jun 2027 00:49:43.199,709.924
46,5 Jun 2027 02:12:41.611,5 Jun 2027 02:25:37.164,775.553
47,5 Jun 2027 03:49:28.228,5 Jun 2027 04:01:28.672,720.444
48,5 Jun 2027 05:29:08.340,5 Jun 2027 05:36:40.395,452.055
49,5 Jun 2027 13:45:38.458,5 Jun 2027 13:54:48.688,550.229
50,5 Jun 2027 15:21:07.782,5 Jun 2027 15:33:36.295,748.512
51,5 Jun 2027 16:57:01.859,5 Jun 2027 17:09:50.314,768.455
52,5 Jun 2027 18:32:53.365,5 Jun 2027 18:44:15.239,681.874
53,5 Jun 2027 20:08:18.598,5 Jun 2027 20:17:37.474,558.876
54,5 Jun 2027 21:42:41.039,5 Jun 2027 21:51:15.273,514.235
55,5 Jun 2027 23:16:02.716,5 Jun 2027 23:26:05.122,602.407
56,6 Jun 2027 00:49:40.921,6 Jun 2027 01:01:43.764,722.844
57,6 Jun 2027 02:24:42.085,6 Jun 2027 02:37:38.505,776.420
58,6 Jun 2027 04:01:46.309,6 Jun 2027 04:13:28.073,701.764
59,6 Jun 2027 05:41:58.740,6 Jun 2027 05:48:25.787,387.047
60,6 Jun 2027 13:57:32.988,6 Jun 2027 14:07:22.796,589.808
61,6 Jun 2027 15:33:08.349,6 Jun 2027 15:45:47.136,758.786
62,6 Jun 2027 17:09:03.191,6 Jun 2027 17:21:45.501,762.310
63,6 Jun 2027 18:44:52.941,6 Jun 2027 18:55:59.498,666.556
64,6 Jun 2027 20:20:12.440,6 Jun 2027 20:29:18.798,546.358
65,6 Jun 2027 21:54:25.243,6 Jun 2027 22:03:04.286,519.042
66,6 Jun 2027 23:27:44.149,6 Jun 2027 23:38:02.479,618.330
67,7 Jun 2027 01:01:29.915,7 Jun 2027 01:13:44.561,734.645
68,7 Jun 2027 02:36:44.474,7 Jun 2027 02:49:39.783,775.308
69,7 Jun 2027 04:14:07.101,7 Jun 2027 04:25:26.900,679.799
70,7 Jun 2027 05:54:59.239,7 Jun 2027 06:00:03.578,304.339
71,7 Jun 2027 14:09:29.018,7 Jun 2027 14:19:53.082,624.064
72,7 Jun 2027 15:45:09.169,7 Jun 2027 15:57:55.744,766.575
73,7 Jun 2027 17:21:04.445,7 Jun 2027 17:33:39.032,754.587
74,7 Jun 2027 18:56:52.070,7 Jun 2027 19:07:42.836,650.765
75,7 Jun 2027 20:32:05.175,7 Jun 2027 20:41:00.570,535.395
76,7 Jun 2027 22:06:08.475,7 Jun 2027 22:14:54.586,526.110
77,7 Jun 2027 23:39:26.066,7 Jun 2027 23:50:00.499,634.433
78,8 Jun 2027 01:13:20.332,8 Jun 2027 01:25:45.555,745.222
79,8 Jun 2027 02:48:48.852,8 Jun 2027 03:01:40.952,772.100
80,8 Jun 2027 04:26:30.790,8 Jun 2027 04:37:24.999,654.209
81,8 Jun 2027 06:08:20.772,8 Jun 2027 06:11:22.879,182.106
82,8 Jun 2027 12:47:29.340,8 Jun 2027 12:50:28.614,179.274
83,8 Jun 2027 14:21:26.199,8 Jun 2027 14:32:19.944,653.745
84,8 Jun 2027 15:57:10.191,8 Jun 2027 16:10:02.216,772.026
85,8 Jun 2027 17:33:05.592,8 Jun 2027 17:45:30.983,745.391
86,8 Jun 2027 19:08:50.686,8 Jun 2027 19:19:25.399,634.713
87,8 Jun 2027 20:43:56.726,8 Jun 2027 20:52:42.976,526.250
88,8 Jun 2027 22:17:50.895,8 Jun 2027 22:26:46.124,535.229
89,8 Jun 2027 23:51:08.611,9 Jun 2027 00:01:59.108,650.497
90,9 Jun 2027 01:25:12.255,9 Jun 2027 01:37:46.695,754.440
91,9 Jun 2027 03:00:55.285,9 Jun 2027 03:13:41.975,766.689
92,9 Jun 2027 04:38:57.601,9 Jun 2027 04:49:22.199,624.598
93,9 Jun 2027 12:58:48.078,9 Jun 2027 13:03:50.755,302.677
94,9 Jun 2027 14:33:24.290,9 Jun 2027 14:44:43.682,679.392
95,9 Jun 2027 16:09:11.354,9 Jun 2027 16:22:06.629,775.275
96,9 Jun 2027 17:45:06.583,9 Jun 2027 17:57:21.422,734.839
97,9 Jun 2027 19:20:48.718,9 Jun 2027 19:31:07.327,618.609
98,9 Jun 2027 20:55:47.036,9 Jun 2027 21:04:26.197,519.160
99,9 Jun 2027 22:29:32.671,9 Jun 2027 22:38:38.841,546.170
100,10 Jun 2027 00:02:51.933,10 Jun 2027 00:13:58.231,666.297
101,10 Jun 2027 01:37:05.758,10 Jun 2027 01:49:47.945,762.187
102,10 Jun 2027 03:13:03.864,10 Jun 2027 03:25:42.796,758.932
103,10 Jun 2027 04:51:27.831,10 Jun 2027 05:01:18.241,590.411
104,10 Jun 2027 13:10:25.698,10 Jun 2027 13:16:51.480,385.781
105,10 Jun 2027 14:45:23.104,10 Jun 2027 14:57:04.523,701.419
106,10 Jun 2027 16:21:12.632,10 Jun 2027 16:34:09.051,776.419
107,10 Jun 2027 17:57:07.379,10 Jun 2027 18:09:10.438,723.059
108,10 Jun 2027 19:32:46.078,10 Jun 2027 19:42:48.774,602.697
109,10 Jun 2027 21:07:36.068,10 Jun 2027 21:16:10.391,514.323
110,10 Jun 2027 22:41:13.994,10 Jun 2027 22:50:32.671,558.677
111,11 Jun 2027 00:14:36.173,11 Jun 2027 00:25:57.806,681.633
112,11 Jun 2027 01:49:00.911,11 Jun 2027 02:01:49.275,768.364
113,11 Jun 2027 03:25:14.666,11 Jun 2027 03:37:43.363,748.697
114,11 Jun 2027 05:04:01.877,11 Jun 2027 05:13:12.790,550.914
115,11 Jun 2027 13:22:10.998,11 Jun 2027 13:29:42.008,451.010
116,11 Jun 2027 14:57:22.503,11 Jun 2027 15:09:22.644,720.142
117,11 Jun 2027 16:33:13.976,11 Jun 2027 16:46:09.556,775.579
118,11 Jun 2027 18:09:07.947,11 Jun 2027 18:20:58.113,710.165
119,11 Jun 2027 19:44:42.691,11 Jun 2027 19:54:29.910,587.219
120,11 Jun 2027 21:19:23.812,11 Jun 2027 21:27:55.685,511.872
121,11 Jun 2027 22:52:55.065,11 Jun 2027 23:02:27.522,572.457
122,12 Jun 2027 00:26:21.449,12 Jun 2027 00:37:57.764,696.315
123,12 Jun 2027 02:00:57.780,12 Jun 2027 02:13:50.645,772.865
124,12 Jun 2027 03:37:27.799,12 Jun 2027 03:49:43.619,735.820
125,12 Jun 2027 05:16:40.310,12 Jun 2027 05:25:05.314,505.005
126,12 Jun 2027 13:34:00.678,12 Jun 2027 13:42:25.705,505.026
127,12 Jun 2027 15:09:22.380,12 Jun 2027 15:21:38.205,735.826
128,12 Jun 2027 16:45:15.351,12 Jun 2027 16:58:08.212,772.861
129,12 Jun 2027 18:21:08.231,12 Jun 2027 18:32:44.541,696.310
130,12 Jun 2027 19:56:38.469,12 Jun 2027 20:06:10.924,572.455
131,12 Jun 2027 21:31:10.298,12 Jun 2027 21:39:42.181,511.883
132,12 Jun 2027 23:04:36.073,12 Jun 2027 23:14:23.306,587.234
133,13 Jun 2027 00:38:07.877,13 Jun 2027 00:49:58.052,710.175
134,13 Jun 2027 02:12:56.439,13 Jun 2027 02:25:52.024,775.585
135,13 Jun 2027 03:49:43.363,13 Jun 2027 04:01:43.490,720.127
136,13 Jun 2027 05:29:24.018,13 Jun 2027 05:36:54.983,450.965
137,13 Jun 2027 13:45:53.210,13 Jun 2027 13:55:04.134,550.924
138,13 Jun 2027 15:21:22.634,13 Jun 2027 15:33:51.334,748.701
139,13 Jun 2027 16:57:16.716,13 Jun 2027 17:10:05.083,768.367
140,13 Jun 2027 18:33:08.185,13 Jun 2027 18:44:29.820,681.635
141,13 Jun 2027 20:08:33.313,13 Jun 2027 20:17:52.003,558.690
142,13 Jun 2027 21:42:55.583,13 Jun 2027 21:51:29.933,514.351
143,13 Jun 2027 23:16:17.208,13 Jun 2027 23:26:19.925,602.717
