dataset/facility_timing/facility_Facility-Anadyr1/Anadyr1-To-KinoSat_110602.csv

Acces,Start Time (UTCG),Stop Time (UTCG),Duration (sec)
1,1 Jun 2027 00:54:45.857,1 Jun 2027 01:07:38.259,772.403
2,1 Jun 2027 02:31:13.796,1 Jun 2027 02:43:31.323,737.527
3,1 Jun 2027 04:10:23.040,1 Jun 2027 04:18:53.989,510.949
4,1 Jun 2027 12:27:49.794,1 Jun 2027 12:36:08.038,498.244
5,1 Jun 2027 14:03:10.203,1 Jun 2027 14:15:24.083,733.879
6,1 Jun 2027 15:39:02.933,1 Jun 2027 15:51:56.264,773.331
7,1 Jun 2027 17:14:55.912,1 Jun 2027 17:26:34.175,698.263
8,1 Jun 2027 18:50:26.692,1 Jun 2027 19:00:01.252,574.560
9,1 Jun 2027 20:24:59.703,1 Jun 2027 20:33:31.777,512.074
10,1 Jun 2027 21:58:26.156,1 Jun 2027 22:08:11.690,585.534
11,1 Jun 2027 23:31:57.262,1 Jun 2027 23:43:45.822,708.560
12,2 Jun 2027 01:06:44.263,2 Jun 2027 01:19:39.606,775.344
13,2 Jun 2027 02:43:29.019,2 Jun 2027 02:55:31.216,722.196
14,2 Jun 2027 04:23:05.987,2 Jun 2027 04:30:44.039,458.052
15,2 Jun 2027 12:39:41.969,2 Jun 2027 12:48:47.062,545.093
16,2 Jun 2027 14:15:10.382,2 Jun 2027 14:27:37.491,747.110
17,2 Jun 2027 15:51:04.272,2 Jun 2027 16:03:53.343,769.071
18,2 Jun 2027 17:26:55.877,2 Jun 2027 17:38:19.587,683.709
19,2 Jun 2027 19:02:21.635,2 Jun 2027 19:11:42.302,560.667
20,2 Jun 2027 20:36:45.124,2 Jun 2027 20:45:19.342,514.218
21,2 Jun 2027 22:10:07.262,2 Jun 2027 22:20:08.175,600.913
22,2 Jun 2027 23:43:44.756,2 Jun 2027 23:55:46.323,721.567
23,3 Jun 2027 01:18:44.509,3 Jun 2027 01:31:40.920,776.412
24,3 Jun 2027 02:55:46.782,3 Jun 2027 03:07:30.638,703.857
25,3 Jun 2027 04:35:55.517,3 Jun 2027 04:42:29.952,394.435
26,3 Jun 2027 12:51:36.250,3 Jun 2027 13:01:21.612,585.362
27,3 Jun 2027 14:27:10.881,3 Jun 2027 14:39:48.564,757.683
28,3 Jun 2027 16:03:05.579,3 Jun 2027 16:15:48.704,763.125
29,3 Jun 2027 17:38:55.467,3 Jun 2027 17:50:03.946,668.479
30,3 Jun 2027 19:14:15.565,3 Jun 2027 19:23:23.583,548.018
31,3 Jun 2027 20:48:29.441,3 Jun 2027 20:57:08.194,518.753
32,3 Jun 2027 22:21:48.653,3 Jun 2027 22:32:05.419,616.765
33,3 Jun 2027 23:55:33.581,4 Jun 2027 00:07:47.061,733.480
34,4 Jun 2027 01:30:46.657,4 Jun 2027 01:43:42.176,775.518
35,4 Jun 2027 03:08:07.232,4 Jun 2027 03:19:29.498,682.266
36,4 Jun 2027 04:48:54.637,4 Jun 2027 04:54:08.762,314.125
37,4 Jun 2027 13:03:32.085,4 Jun 2027 13:13:52.284,620.199
38,4 Jun 2027 14:39:11.642,4 Jun 2027 14:51:57.396,765.754
39,4 Jun 2027 16:15:06.807,4 Jun 2027 16:27:42.403,755.596
40,4 Jun 2027 17:50:54.617,4 Jun 2027 18:01:47.382,652.765
41,4 Jun 2027 19:26:08.407,4 Jun 2027 19:35:05.293,536.886
42,4 Jun 2027 21:00:12.764,4 Jun 2027 21:08:58.322,525.557
43,4 Jun 2027 22:33:30.502,4 Jun 2027 22:44:03.334,632.832
44,5 Jun 2027 00:07:23.827,5 Jun 2027 00:19:48.002,744.175
45,5 Jun 2027 01:42:50.790,5 Jun 2027 01:55:43.321,772.531
46,5 Jun 2027 03:20:30.560,5 Jun 2027 03:31:27.650,657.090
47,5 Jun 2027 05:02:12.619,5 Jun 2027 05:05:31.260,198.641
48,5 Jun 2027 11:41:40.475,5 Jun 2027 11:44:17.776,157.301
49,5 Jun 2027 13:15:29.111,5 Jun 2027 13:26:19.490,650.379
50,5 Jun 2027 14:51:12.602,5 Jun 2027 15:04:04.084,771.482
51,5 Jun 2027 16:27:07.931,5 Jun 2027 16:39:34.512,746.581
52,5 Jun 2027 18:02:53.267,5 Jun 2027 18:13:30.017,636.750
53,5 Jun 2027 19:38:00.076,5 Jun 2027 19:46:47.610,527.534
54,5 Jun 2027 21:11:55.262,5 Jun 2027 21:20:49.700,534.437
55,5 Jun 2027 22:45:12.963,5 Jun 2027 22:56:01.846,648.883
56,6 Jun 2027 00:19:15.563,6 Jun 2027 00:31:49.094,753.531
57,6 Jun 2027 01:54:56.964,6 Jun 2027 02:07:44.329,767.365
58,6 Jun 2027 03:32:56.978,6 Jun 2027 03:43:24.924,627.945
59,6 Jun 2027 11:52:54.369,6 Jun 2027 11:57:44.984,290.615
60,6 Jun 2027 13:27:27.067,6 Jun 2027 13:38:43.549,676.482
61,6 Jun 2027 15:03:13.724,6 Jun 2027 15:16:08.704,774.980
62,6 Jun 2027 16:39:08.908,6 Jun 2027 16:51:25.114,736.206
63,6 Jun 2027 18:14:51.331,6 Jun 2027 18:25:12.000,620.670
64,6 Jun 2027 19:49:50.505,6 Jun 2027 19:58:30.722,520.216
65,6 Jun 2027 21:23:37.095,6 Jun 2027 21:32:42.263,545.168
66,6 Jun 2027 22:56:56.190,6 Jun 2027 23:08:00.885,664.694
67,7 Jun 2027 00:31:08.869,7 Jun 2027 00:43:50.303,761.434
68,7 Jun 2027 02:07:05.270,7 Jun 2027 02:19:45.136,759.866
69,7 Jun 2027 03:45:26.775,7 Jun 2027 03:55:21.073,594.297
70,7 Jun 2027 12:04:30.571,7 Jun 2027 12:10:47.337,376.766
71,7 Jun 2027 13:39:25.767,7 Jun 2027 13:51:04.683,698.916
72,7 Jun 2027 15:15:14.951,7 Jun 2027 15:28:11.331,776.381
73,7 Jun 2027 16:51:09.700,7 Jun 2027 17:03:14.274,724.575
74,7 Jun 2027 18:26:48.744,7 Jun 2027 18:36:53.493,604.749
75,7 Jun 2027 20:01:39.665,7 Jun 2027 20:10:14.782,515.117
76,7 Jun 2027 21:35:18.461,7 Jun 2027 21:44:35.937,557.476
77,7 Jun 2027 23:08:40.310,7 Jun 2027 23:20:00.374,680.064
78,8 Jun 2027 00:43:03.815,8 Jun 2027 00:55:51.592,767.777
79,8 Jun 2027 02:19:15.790,8 Jun 2027 02:31:45.703,749.913
80,8 Jun 2027 03:58:00.334,8 Jun 2027 04:07:15.773,555.439
81,8 Jun 2027 12:16:15.135,8 Jun 2027 12:23:38.818,443.682
82,8 Jun 2027 13:51:25.066,8 Jun 2027 14:03:23.082,718.016
83,8 Jun 2027 15:27:16.258,8 Jun 2027 15:40:12.034,775.776
84,8 Jun 2027 17:03:10.263,8 Jun 2027 17:15:02.088,711.824
85,8 Jun 2027 18:38:45.418,8 Jun 2027 18:48:34.650,589.232
86,8 Jun 2027 20:13:27.541,8 Jun 2027 20:21:59.932,512.391
87,8 Jun 2027 21:46:59.547,8 Jun 2027 21:56:30.643,571.097
88,8 Jun 2027 23:20:25.454,8 Jun 2027 23:32:00.256,694.802
89,9 Jun 2027 00:55:00.466,9 Jun 2027 01:07:52.921,772.455
90,9 Jun 2027 02:31:28.625,9 Jun 2027 02:43:45.965,737.340
91,9 Jun 2027 04:10:38.205,9 Jun 2027 04:19:08.515,510.311
92,9 Jun 2027 12:28:04.341,9 Jun 2027 12:36:23.196,498.855
93,9 Jun 2027 14:03:24.856,9 Jun 2027 14:15:38.905,734.049
94,9 Jun 2027 15:39:17.597,9 Jun 2027 15:52:10.882,773.285
95,9 Jun 2027 17:15:10.550,9 Jun 2027 17:26:48.646,698.096
96,9 Jun 2027 18:50:41.268,9 Jun 2027 19:00:15.664,574.396
97,9 Jun 2027 20:25:14.156,9 Jun 2027 20:33:46.267,512.111
98,9 Jun 2027 21:58:40.551,9 Jun 2027 22:08:26.294,585.742
99,9 Jun 2027 23:32:11.736,9 Jun 2027 23:44:00.475,708.739
100,10 Jun 2027 01:06:58.898,10 Jun 2027 01:19:54.267,775.369
101,10 Jun 2027 02:43:43.875,10 Jun 2027 02:55:45.850,721.976
102,10 Jun 2027 04:23:21.225,10 Jun 2027 04:30:58.518,457.293
103,10 Jun 2027 12:39:56.540,10 Jun 2027 12:49:02.163,545.622
104,10 Jun 2027 14:15:25.033,10 Jun 2027 14:27:52.287,747.254
105,10 Jun 2027 15:51:18.931,10 Jun 2027 16:04:07.940,769.009
106,10 Jun 2027 17:27:10.513,10 Jun 2027 17:38:34.043,683.531
107,10 Jun 2027 19:02:36.198,10 Jun 2027 19:11:56.716,560.518
108,10 Jun 2027 20:36:59.564,10 Jun 2027 20:45:33.851,514.287
109,10 Jun 2027 22:10:21.660,10 Jun 2027 22:20:22.787,601.128
110,10 Jun 2027 23:43:59.246,10 Jun 2027 23:56:00.979,721.733
111,11 Jun 2027 01:18:59.167,11 Jun 2027 01:31:55.580,776.413
112,11 Jun 2027 02:56:01.671,11 Jun 2027 03:07:45.265,703.594
113,11 Jun 2027 04:36:10.856,11 Jun 2027 04:42:44.359,393.503
114,11 Jun 2027 12:51:50.843,11 Jun 2027 13:01:36.659,585.815
115,11 Jun 2027 14:27:25.536,11 Jun 2027 14:40:03.331,757.795
116,11 Jun 2027 16:03:20.237,11 Jun 2027 16:16:03.279,763.042
117,11 Jun 2027 17:39:10.095,11 Jun 2027 17:50:18.390,668.295
118,11 Jun 2027 19:14:30.113,11 Jun 2027 19:23:38.002,547.889
119,11 Jun 2027 20:48:43.866,11 Jun 2027 20:57:22.716,518.851
120,11 Jun 2027 22:22:03.055,11 Jun 2027 22:32:20.040,616.984
121,11 Jun 2027 23:55:48.088,12 Jun 2027 00:08:01.718,733.630
122,12 Jun 2027 01:31:01.340,12 Jun 2027 01:43:56.832,775.492
123,12 Jun 2027 03:08:22.156,12 Jun 2027 03:19:44.114,681.958
124,12 Jun 2027 04:49:10.140,12 Jun 2027 04:54:23.036,312.896
125,12 Jun 2027 13:03:46.694,12 Jun 2027 13:14:07.284,620.590
126,12 Jun 2027 14:39:26.299,12 Jun 2027 14:52:12.135,765.836
127,12 Jun 2027 16:15:21.462,12 Jun 2027 16:27:56.958,755.496
128,12 Jun 2027 17:51:09.238,12 Jun 2027 18:02:01.817,652.579
129,12 Jun 2027 19:26:22.939,12 Jun 2027 19:35:19.720,536.781
130,12 Jun 2027 21:00:27.177,12 Jun 2027 21:09:12.862,525.685
131,12 Jun 2027 22:33:44.911,12 Jun 2027 22:44:17.963,633.052
132,13 Jun 2027 00:07:38.353,13 Jun 2027 00:20:02.661,744.308
133,13 Jun 2027 01:43:05.498,13 Jun 2027 01:55:57.975,772.476
134,13 Jun 2027 03:20:45.523,13 Jun 2027 03:31:42.254,656.731
135,13 Jun 2027 05:02:28.538,13 Jun 2027 05:05:45.148,196.609
136,13 Jun 2027 11:41:54.245,13 Jun 2027 11:44:33.832,159.587
137,13 Jun 2027 13:15:43.732,13 Jun 2027 13:26:34.449,650.717
138,13 Jun 2027 14:51:27.260,13 Jun 2027 15:04:18.797,771.536
139,13 Jun 2027 16:27:22.583,13 Jun 2027 16:39:49.047,746.464
140,13 Jun 2027 18:03:07.879,13 Jun 2027 18:13:44.443,636.564
141,13 Jun 2027 19:38:14.590,13 Jun 2027 19:47:02.047,527.457
142,13 Jun 2027 21:12:09.665,13 Jun 2027 21:21:04.255,534.590
143,13 Jun 2027 22:45:27.381,13 Jun 2027 22:56:16.482,649.101
