dataset/facility_timing/facility_Facility-Anadyr1/Anadyr1-To-KinoSat_110303.csv

Acces,Start Time (UTCG),Stop Time (UTCG),Duration (sec)
1,1 Jun 2027 00:59:39.535,1 Jun 2027 01:11:32.249,712.714
2,1 Jun 2027 02:39:32.998,1 Jun 2027 02:46:38.430,425.432
3,1 Jun 2027 10:55:39.816,1 Jun 2027 11:05:07.592,567.776
4,1 Jun 2027 12:31:11.841,1 Jun 2027 12:43:45.033,753.192
5,1 Jun 2027 14:07:06.243,1 Jun 2027 14:19:52.279,766.036
6,1 Jun 2027 15:42:56.997,1 Jun 2027 15:54:12.454,675.457
7,1 Jun 2027 17:18:19.801,1 Jun 2027 17:27:33.310,553.509
8,1 Jun 2027 18:52:38.092,1 Jun 2027 19:01:14.315,516.223
9,1 Jun 2027 20:25:58.441,1 Jun 2027 20:36:07.786,609.346
10,1 Jun 2027 21:59:39.808,1 Jun 2027 22:11:47.925,728.117
11,1 Jun 2027 23:34:46.682,1 Jun 2027 23:47:42.872,776.190
12,2 Jun 2027 01:11:58.737,2 Jun 2027 01:23:31.401,692.664
13,2 Jun 2027 02:52:27.142,2 Jun 2027 02:58:21.098,353.956
14,2 Jun 2027 11:07:35.012,2 Jun 2027 11:17:39.982,604.970
15,2 Jun 2027 12:43:12.500,2 Jun 2027 12:55:54.891,762.390
16,2 Jun 2027 14:19:07.526,2 Jun 2027 14:31:46.738,759.212
17,2 Jun 2027 15:54:56.371,2 Jun 2027 16:05:56.299,659.928
18,2 Jun 2027 17:30:13.166,2 Jun 2027 17:39:14.795,541.629
19,2 Jun 2027 19:04:21.859,2 Jun 2027 19:13:03.862,522.003
20,2 Jun 2027 20:37:40.062,2 Jun 2027 20:48:05.416,625.354
21,2 Jun 2027 22:11:29.397,2 Jun 2027 22:23:48.786,739.389
22,2 Jun 2027 23:46:49.906,2 Jun 2027 23:59:44.082,774.176
23,3 Jun 2027 01:24:20.732,3 Jun 2027 01:35:29.909,669.177
24,3 Jun 2027 03:05:34.278,3 Jun 2027 03:09:53.296,259.018
25,3 Jun 2027 11:19:31.545,3 Jun 2027 11:30:08.746,637.201
26,3 Jun 2027 12:55:13.389,3 Jun 2027 13:08:02.559,769.171
27,3 Jun 2027 14:31:08.716,3 Jun 2027 14:43:39.567,750.851
28,3 Jun 2027 16:06:55.274,3 Jun 2027 16:17:39.280,644.005
29,3 Jun 2027 17:42:05.390,3 Jun 2027 17:50:56.804,531.414
30,3 Jun 2027 19:16:04.722,3 Jun 2027 19:24:54.682,529.960
31,3 Jun 2027 20:49:22.225,3 Jun 2027 21:00:03.674,641.449
32,3 Jun 2027 22:23:20.443,3 Jun 2027 22:35:49.828,749.385
33,3 Jun 2027 23:58:55.139,4 Jun 2027 00:11:45.172,770.033
34,4 Jun 2027 01:36:45.708,4 Jun 2027 01:47:27.628,641.920
35,4 Jun 2027 03:19:23.487,4 Jun 2027 03:20:45.980,82.493
36,4 Jun 2027 09:57:11.666,4 Jun 2027 10:01:11.703,240.037
37,4 Jun 2027 11:31:29.114,4 Jun 2027 11:42:34.221,665.107
38,4 Jun 2027 13:07:14.456,4 Jun 2027 13:20:08.123,773.668
39,4 Jun 2027 14:43:09.779,4 Jun 2027 14:55:30.856,741.077
40,4 Jun 2027 16:18:53.626,4 Jun 2027 16:29:21.544,627.918
41,4 Jun 2027 17:53:56.407,4 Jun 2027 18:02:39.532,523.125
42,4 Jun 2027 19:27:46.838,4 Jun 2027 19:36:46.716,539.878
43,4 Jun 2027 21:01:05.087,4 Jun 2027 21:12:02.490,657.403
44,4 Jun 2027 22:35:13.025,4 Jun 2027 22:47:50.996,757.971
45,5 Jun 2027 00:11:02.466,5 Jun 2027 00:23:46.096,763.630
46,5 Jun 2027 01:49:13.919,5 Jun 2027 01:59:24.351,610.431
47,5 Jun 2027 10:08:41.125,5 Jun 2027 10:14:21.978,340.853
48,5 Jun 2027 11:43:27.508,5 Jun 2027 11:54:56.674,689.166
49,5 Jun 2027 13:19:15.651,5 Jun 2027 13:32:11.661,776.010
50,5 Jun 2027 14:55:10.679,5 Jun 2027 15:07:20.665,729.986
51,5 Jun 2027 16:30:51.367,5 Jun 2027 16:41:03.241,611.874
52,5 Jun 2027 18:05:46.164,5 Jun 2027 18:14:23.145,516.981
53,5 Jun 2027 19:39:28.399,5 Jun 2027 19:48:39.898,551.498
54,5 Jun 2027 21:12:48.781,5 Jun 2027 21:24:01.790,673.009
55,5 Jun 2027 22:47:07.216,5 Jun 2027 22:59:52.270,765.053
56,6 Jun 2027 00:23:11.968,6 Jun 2027 00:35:46.796,754.828
57,6 Jun 2027 02:01:45.705,6 Jun 2027 02:11:19.785,574.080
58,6 Jun 2027 10:20:22.607,6 Jun 2027 10:27:17.711,415.104
59,6 Jun 2027 11:55:26.563,6 Jun 2027 12:07:16.314,709.750
60,6 Jun 2027 13:31:16.943,6 Jun 2027 13:44:13.237,776.293
61,6 Jun 2027 15:07:11.362,6 Jun 2027 15:19:09.087,717.725
62,6 Jun 2027 16:42:48.401,6 Jun 2027 16:52:44.528,596.127
63,6 Jun 2027 18:17:34.636,6 Jun 2027 18:26:07.781,513.145
64,6 Jun 2027 19:51:09.590,6 Jun 2027 20:00:34.153,564.564
65,6 Jun 2027 21:24:33.446,6 Jun 2027 21:36:01.514,688.069
66,6 Jun 2027 22:59:03.085,6 Jun 2027 23:11:53.596,770.511
67,7 Jun 2027 00:35:23.737,7 Jun 2027 00:47:47.217,743.480
68,7 Jun 2027 02:14:21.522,7 Jun 2027 02:23:13.524,532.003
69,7 Jun 2027 10:32:09.996,7 Jun 2027 10:40:05.055,475.059
70,7 Jun 2027 12:07:26.157,7 Jun 2027 12:19:33.304,727.147
71,7 Jun 2027 13:43:18.284,7 Jun 2027 13:56:12.930,774.646
72,7 Jun 2027 15:19:11.795,7 Jun 2027 15:30:56.210,704.415
73,7 Jun 2027 16:54:44.653,7 Jun 2027 17:04:25.581,580.929
74,7 Jun 2027 18:29:21.835,7 Jun 2027 18:37:53.564,511.728
75,7 Jun 2027 20:02:50.611,7 Jun 2027 20:12:29.393,578.782
76,7 Jun 2027 21:36:19.199,7 Jun 2027 21:48:01.595,702.396
77,7 Jun 2027 23:11:00.699,7 Jun 2027 23:23:54.952,774.253
78,8 Jun 2027 00:47:37.875,8 Jun 2027 00:59:47.298,729.423
79,8 Jun 2027 02:27:02.046,8 Jun 2027 02:35:04.932,482.885
80,8 Jun 2027 10:44:00.993,8 Jun 2027 10:52:46.342,525.349
81,8 Jun 2027 12:19:26.177,8 Jun 2027 12:31:47.796,741.619
82,8 Jun 2027 13:55:19.637,8 Jun 2027 14:08:10.802,771.165
83,8 Jun 2027 15:31:11.930,8 Jun 2027 15:42:42.124,690.194
84,8 Jun 2027 17:06:40.030,8 Jun 2027 17:16:06.587,566.557
85,8 Jun 2027 18:41:07.789,8 Jun 2027 18:49:40.573,512.784
86,8 Jun 2027 20:14:31.645,8 Jun 2027 20:24:25.523,593.878
87,8 Jun 2027 21:48:06.137,8 Jun 2027 22:00:01.990,715.853
88,8 Jun 2027 23:23:00.121,8 Jun 2027 23:35:56.301,776.180
89,9 Jun 2027 00:59:54.492,9 Jun 2027 01:11:46.960,712.469
90,9 Jun 2027 02:39:48.402,9 Jun 2027 02:46:52.951,424.548
91,9 Jun 2027 10:55:54.435,9 Jun 2027 11:05:22.797,568.362
92,9 Jun 2027 12:31:26.555,9 Jun 2027 12:43:59.900,753.345
93,9 Jun 2027 14:07:20.973,9 Jun 2027 14:20:06.920,765.948
94,9 Jun 2027 15:43:11.708,9 Jun 2027 15:54:26.937,675.229
95,9 Jun 2027 17:18:34.432,9 Jun 2027 17:27:47.744,553.312
96,9 Jun 2027 18:52:52.588,9 Jun 2027 19:01:28.857,516.269
97,9 Jun 2027 20:26:12.892,9 Jun 2027 20:36:22.450,609.558
98,9 Jun 2027 21:59:54.363,9 Jun 2027 22:12:02.642,728.279
99,9 Jun 2027 23:35:01.423,9 Jun 2027 23:47:57.600,776.177
100,10 Jun 2027 01:12:13.736,10 Jun 2027 01:23:46.100,692.364
101,10 Jun 2027 02:52:42.680,10 Jun 2027 02:58:35.525,352.845
102,10 Jun 2027 11:07:49.655,10 Jun 2027 11:17:55.131,605.476
103,10 Jun 2027 12:43:27.218,10 Jun 2027 12:56:09.725,762.507
104,10 Jun 2027 14:19:22.254,10 Jun 2027 14:32:01.355,759.101
105,10 Jun 2027 15:55:11.073,10 Jun 2027 16:06:10.767,659.695
106,10 Jun 2027 17:30:27.782,10 Jun 2027 17:39:29.236,541.454
107,10 Jun 2027 19:04:36.339,10 Jun 2027 19:13:18.422,522.083
108,10 Jun 2027 20:37:54.519,10 Jun 2027 20:48:20.090,625.571
109,10 Jun 2027 22:11:43.971,10 Jun 2027 22:24:03.507,739.536
110,10 Jun 2027 23:47:04.675,10 Jun 2027 23:59:58.809,774.134
111,11 Jun 2027 01:24:35.771,11 Jun 2027 01:35:44.598,668.826
112,11 Jun 2027 03:05:50.071,11 Jun 2027 03:10:07.504,257.433
113,11 Jun 2027 11:19:46.206,11 Jun 2027 11:30:23.844,637.638
114,11 Jun 2027 12:55:28.110,11 Jun 2027 13:08:17.363,769.253
115,11 Jun 2027 14:31:23.443,11 Jun 2027 14:43:54.162,750.718
116,11 Jun 2027 16:07:09.969,11 Jun 2027 16:17:53.737,643.767
117,11 Jun 2027 17:42:19.988,11 Jun 2027 17:51:11.255,531.266
118,11 Jun 2027 19:16:19.189,11 Jun 2027 19:25:09.261,530.072
119,11 Jun 2027 20:49:36.689,11 Jun 2027 21:00:18.358,641.669
120,11 Jun 2027 22:23:35.037,11 Jun 2027 22:36:04.551,749.514
121,11 Jun 2027 23:59:09.936,12 Jun 2027 00:11:59.897,769.960
122,12 Jun 2027 01:37:00.792,12 Jun 2027 01:47:42.304,641.513
123,12 Jun 2027 03:19:41.159,12 Jun 2027 03:20:58.342,77.184
124,12 Jun 2027 09:57:25.762,12 Jun 2027 10:01:27.604,241.843
125,12 Jun 2027 11:31:43.790,12 Jun 2027 11:42:49.273,665.483
126,12 Jun 2027 13:07:29.182,12 Jun 2027 13:20:22.897,773.715
127,12 Jun 2027 14:43:24.504,12 Jun 2027 14:55:45.429,740.925
128,12 Jun 2027 16:19:08.312,12 Jun 2027 16:29:35.992,627.680
129,12 Jun 2027 17:54:10.986,12 Jun 2027 18:02:53.994,523.008
130,12 Jun 2027 19:28:01.295,12 Jun 2027 19:37:01.314,540.019
131,12 Jun 2027 21:01:19.561,12 Jun 2027 21:12:17.183,657.621
132,12 Jun 2027 22:35:27.641,12 Jun 2027 22:48:05.721,758.080
133,13 Jun 2027 00:11:17.294,13 Jun 2027 00:24:00.818,763.524
134,13 Jun 2027 01:49:29.051,13 Jun 2027 01:59:39.010,609.960
135,13 Jun 2027 10:08:55.497,13 Jun 2027 10:14:37.570,342.073
136,13 Jun 2027 11:43:42.197,13 Jun 2027 11:55:11.684,689.488
137,13 Jun 2027 13:19:30.377,13 Jun 2027 13:32:26.406,776.029
138,13 Jun 2027 14:55:25.402,13 Jun 2027 15:07:35.218,729.816
139,13 Jun 2027 16:31:06.043,13 Jun 2027 16:41:17.683,611.639
140,13 Jun 2027 18:06:00.724,13 Jun 2027 18:14:37.623,516.898
141,13 Jun 2027 19:39:42.848,13 Jun 2027 19:48:54.513,551.665
142,13 Jun 2027 21:13:03.268,13 Jun 2027 21:24:16.490,673.222
143,13 Jun 2027 22:47:21.856,13 Jun 2027 23:00:06.997,765.141
