dataset/facility_timing/facility_Facility-Anadyr1/Anadyr1-To-KinoSat_111307.csv

Acces,Start Time (UTCG),Stop Time (UTCG),Duration (sec)
1,1 Jun 2027 01:18:11.797,1 Jun 2027 01:27:53.651,581.854
2,1 Jun 2027 02:51:41.762,1 Jun 2027 03:03:27.938,706.177
3,1 Jun 2027 04:26:27.120,1 Jun 2027 04:39:22.195,775.074
4,1 Jun 2027 06:03:09.775,1 Jun 2027 06:15:14.614,724.839
5,1 Jun 2027 07:42:42.705,1 Jun 2027 07:50:29.926,467.221
6,1 Jun 2027 15:59:23.882,1 Jun 2027 16:08:27.389,543.507
7,1 Jun 2027 17:34:52.685,1 Jun 2027 17:47:19.374,746.689
8,1 Jun 2027 19:10:47.096,1 Jun 2027 19:23:36.413,769.317
9,1 Jun 2027 20:46:39.413,1 Jun 2027 20:58:03.320,683.908
10,1 Jun 2027 22:22:06.256,1 Jun 2027 22:31:25.825,559.568
11,1 Jun 2027 23:56:30.882,2 Jun 2027 00:05:01.888,511.006
12,2 Jun 2027 01:29:52.898,2 Jun 2027 01:39:50.285,597.387
13,2 Jun 2027 03:03:29.190,2 Jun 2027 03:15:28.659,719.469
14,2 Jun 2027 04:38:27.312,2 Jun 2027 04:51:23.757,776.445
15,2 Jun 2027 06:15:27.460,2 Jun 2027 06:27:14.356,706.895
16,2 Jun 2027 07:55:31.460,2 Jun 2027 08:02:16.885,405.425
17,2 Jun 2027 16:11:18.351,2 Jun 2027 16:21:02.459,584.108
18,2 Jun 2027 17:46:53.415,2 Jun 2027 17:59:30.828,757.413
19,2 Jun 2027 19:22:48.648,2 Jun 2027 19:35:32.034,763.385
20,2 Jun 2027 20:58:39.279,2 Jun 2027 21:09:47.814,668.535
21,2 Jun 2027 22:34:00.491,2 Jun 2027 22:43:07.100,546.608
22,3 Jun 2027 00:08:15.369,3 Jun 2027 00:16:50.759,515.391
23,3 Jun 2027 01:41:34.269,3 Jun 2027 01:51:47.696,613.427
24,3 Jun 2027 03:15:17.954,3 Jun 2027 03:27:29.626,731.673
25,3 Jun 2027 04:50:29.412,3 Jun 2027 05:03:25.269,775.857
26,3 Jun 2027 06:27:47.826,3 Jun 2027 06:39:13.548,685.722
27,3 Jun 2027 08:08:29.172,3 Jun 2027 08:13:57.387,328.214
28,3 Jun 2027 16:23:14.388,3 Jun 2027 16:33:33.610,619.223
29,3 Jun 2027 17:58:54.407,3 Jun 2027 18:11:40.018,765.611
30,3 Jun 2027 19:34:50.127,3 Jun 2027 19:47:25.976,755.849
31,3 Jun 2027 21:10:38.709,3 Jun 2027 21:21:31.362,652.653
32,3 Jun 2027 22:45:53.624,3 Jun 2027 22:54:48.794,535.171
33,4 Jun 2027 00:19:58.828,4 Jun 2027 00:28:40.936,522.109
34,4 Jun 2027 01:53:16.087,4 Jun 2027 02:03:45.794,629.707
35,4 Jun 2027 03:27:08.143,4 Jun 2027 03:39:30.792,742.648
36,4 Jun 2027 05:02:33.505,4 Jun 2027 05:15:26.673,773.168
37,4 Jun 2027 06:40:11.064,4 Jun 2027 06:51:12.052,660.988
38,4 Jun 2027 08:21:43.306,4 Jun 2027 08:25:24.018,220.712
39,4 Jun 2027 15:01:23.332,4 Jun 2027 15:03:57.387,154.055
40,4 Jun 2027 16:35:11.633,4 Jun 2027 16:46:01.271,649.638
41,4 Jun 2027 18:10:55.605,4 Jun 2027 18:23:47.034,771.428
42,4 Jun 2027 19:46:51.503,4 Jun 2027 19:59:18.305,746.801
43,4 Jun 2027 21:22:37.640,4 Jun 2027 21:33:14.086,636.446
44,4 Jun 2027 22:57:45.574,4 Jun 2027 23:06:31.094,525.520
45,5 Jun 2027 00:31:41.430,5 Jun 2027 00:40:32.387,530.957
46,5 Jun 2027 02:04:58.514,5 Jun 2027 02:15:44.493,645.979
47,5 Jun 2027 03:38:59.832,5 Jun 2027 03:51:32.116,752.284
48,5 Jun 2027 05:14:39.649,5 Jun 2027 05:27:27.945,768.296
49,5 Jun 2027 06:52:37.380,5 Jun 2027 07:03:09.699,632.318
50,5 Jun 2027 15:12:36.734,5 Jun 2027 15:17:25.822,289.087
51,5 Jun 2027 16:47:09.809,5 Jun 2027 16:58:25.751,675.942
52,5 Jun 2027 18:22:56.966,5 Jun 2027 18:35:51.964,774.999
53,5 Jun 2027 19:58:52.736,5 Jun 2027 20:11:09.104,736.368
54,5 Jun 2027 21:34:35.988,5 Jun 2027 21:44:56.146,620.159
55,5 Jun 2027 23:09:36.266,5 Jun 2027 23:18:14.193,517.927
56,6 Jun 2027 00:43:23.339,6 Jun 2027 00:52:25.048,541.709
57,6 Jun 2027 02:16:41.700,6 Jun 2027 02:27:43.734,662.033
58,6 Jun 2027 03:50:53.095,6 Jun 2027 04:03:33.561,760.465
59,6 Jun 2027 05:26:47.934,6 Jun 2027 05:39:29.026,761.092
60,6 Jun 2027 07:05:07.055,6 Jun 2027 07:15:06.265,599.210
61,6 Jun 2027 15:24:13.020,6 Jun 2027 15:30:28.809,375.788
62,6 Jun 2027 16:59:08.738,6 Jun 2027 17:10:47.279,698.542
63,6 Jun 2027 18:34:58.433,6 Jun 2027 18:47:54.884,776.452
64,6 Jun 2027 20:10:53.785,6 Jun 2027 20:22:58.449,724.663
65,6 Jun 2027 21:46:33.685,6 Jun 2027 21:56:37.688,604.003
66,6 Jun 2027 23:21:25.670,6 Jun 2027 23:29:58.246,512.576
67,7 Jun 2027 00:55:04.757,7 Jun 2027 01:04:18.842,554.085
68,7 Jun 2027 02:28:25.780,7 Jun 2027 02:39:43.428,677.648
69,7 Jun 2027 04:02:48.016,7 Jun 2027 04:15:35.088,767.072
70,7 Jun 2027 05:38:58.440,7 Jun 2027 05:51:29.867,751.427
71,7 Jun 2027 07:17:40.452,7 Jun 2027 07:27:01.426,560.974
72,7 Jun 2027 15:35:57.765,7 Jun 2027 15:43:20.803,443.038
73,7 Jun 2027 17:11:08.269,7 Jun 2027 17:23:06.048,717.779
74,7 Jun 2027 18:46:59.982,7 Jun 2027 18:59:55.852,775.870
75,7 Jun 2027 20:22:54.609,7 Jun 2027 20:34:46.423,711.813
76,7 Jun 2027 21:58:30.638,7 Jun 2027 22:08:18.882,588.244
77,7 Jun 2027 23:33:13.765,7 Jun 2027 23:41:43.395,509.630
78,8 Jun 2027 01:06:45.873,8 Jun 2027 01:16:13.689,567.816
79,8 Jun 2027 02:40:10.887,8 Jun 2027 02:51:43.528,692.641
80,8 Jun 2027 04:14:44.649,8 Jun 2027 04:27:36.659,772.010
81,8 Jun 2027 05:51:11.268,8 Jun 2027 06:03:30.406,739.138
82,8 Jun 2027 07:30:18.105,8 Jun 2027 07:38:54.702,516.597
83,8 Jun 2027 15:47:47.186,8 Jun 2027 15:56:05.639,498.453
84,8 Jun 2027 17:23:08.289,8 Jun 2027 17:35:22.218,733.928
85,8 Jun 2027 18:59:01.564,8 Jun 2027 19:11:54.948,773.384
86,8 Jun 2027 20:34:55.155,8 Jun 2027 20:46:33.120,697.965
87,8 Jun 2027 22:10:26.766,8 Jun 2027 22:19:59.918,573.152
88,8 Jun 2027 23:45:00.572,8 Jun 2027 23:53:29.753,509.181
89,9 Jun 2027 01:18:26.891,9 Jun 2027 01:28:09.497,582.606
90,9 Jun 2027 02:51:57.137,9 Jun 2027 03:03:43.963,706.826
91,9 Jun 2027 04:26:43.075,9 Jun 2027 04:39:38.246,775.172
92,9 Jun 2027 06:03:26.519,9 Jun 2027 06:15:30.580,724.061
93,9 Jun 2027 07:43:00.795,9 Jun 2027 07:50:45.357,464.562
94,9 Jun 2027 15:59:39.618,9 Jun 2027 16:08:45.024,545.407
95,9 Jun 2027 17:35:08.707,9 Jun 2027 17:47:35.923,747.216
96,9 Jun 2027 19:11:03.143,9 Jun 2027 19:23:52.234,769.091
97,9 Jun 2027 20:46:55.379,9 Jun 2027 20:58:18.637,683.258
98,9 Jun 2027 22:22:21.969,9 Jun 2027 22:31:40.987,559.017
99,9 Jun 2027 23:56:46.144,10 Jun 2027 00:05:17.379,511.235
100,10 Jun 2027 01:30:08.001,10 Jun 2027 01:40:06.165,598.165
101,10 Jun 2027 03:03:44.621,10 Jun 2027 03:15:44.694,720.072
102,10 Jun 2027 04:38:43.348,10 Jun 2027 04:51:39.808,776.461
103,10 Jun 2027 06:15:44.321,10 Jun 2027 06:27:30.294,705.973
104,10 Jun 2027 07:55:49.897,10 Jun 2027 08:02:32.082,402.185
105,10 Jun 2027 16:11:34.159,10 Jun 2027 16:21:19.913,585.754
106,10 Jun 2027 17:47:09.447,10 Jun 2027 17:59:47.270,757.822
107,10 Jun 2027 19:23:04.691,10 Jun 2027 19:35:47.781,763.090
108,10 Jun 2027 20:58:55.224,10 Jun 2027 21:10:03.085,667.861
109,10 Jun 2027 22:34:16.149,10 Jun 2027 22:43:22.273,546.124
110,11 Jun 2027 00:08:30.581,11 Jun 2027 00:17:06.307,515.726
111,11 Jun 2027 01:41:49.389,11 Jun 2027 01:52:03.605,614.216
112,11 Jun 2027 03:15:33.448,11 Jun 2027 03:27:45.669,732.221
113,11 Jun 2027 04:50:45.536,11 Jun 2027 05:03:41.313,775.777
114,11 Jun 2027 06:28:04.814,11 Jun 2027 06:39:29.454,684.640
115,11 Jun 2027 08:08:48.144,11 Jun 2027 08:14:12.157,324.013
116,11 Jun 2027 16:23:30.255,11 Jun 2027 16:33:50.905,620.649
117,11 Jun 2027 17:59:10.451,11 Jun 2027 18:11:56.356,765.905
118,11 Jun 2027 19:35:06.165,11 Jun 2027 19:47:41.649,755.483
119,11 Jun 2027 21:10:54.629,11 Jun 2027 21:21:46.595,651.966
120,11 Jun 2027 22:46:09.229,11 Jun 2027 22:55:03.993,534.764
121,12 Jun 2027 00:20:13.997,12 Jun 2027 00:28:56.541,522.544
122,12 Jun 2027 01:53:31.233,12 Jun 2027 02:04:01.729,630.496
123,12 Jun 2027 03:27:23.705,12 Jun 2027 03:39:46.834,743.130
124,12 Jun 2027 05:02:49.722,12 Jun 2027 05:15:42.709,772.987
125,12 Jun 2027 06:40:28.189,12 Jun 2027 06:51:27.919,659.730
126,12 Jun 2027 08:22:03.505,12 Jun 2027 08:25:37.676,214.171
127,12 Jun 2027 15:01:36.121,12 Jun 2027 15:04:18.529,162.407
128,12 Jun 2027 16:35:27.539,12 Jun 2027 16:46:18.412,650.873
129,12 Jun 2027 18:11:11.650,12 Jun 2027 18:24:03.280,771.629
130,12 Jun 2027 19:47:07.533,12 Jun 2027 19:59:33.907,746.374
131,12 Jun 2027 21:22:53.533,12 Jun 2027 21:33:29.286,635.753
132,12 Jun 2027 22:58:01.119,12 Jun 2027 23:06:46.325,525.206
133,13 Jun 2027 00:31:56.564,13 Jun 2027 00:40:48.046,531.482
134,13 Jun 2027 02:05:13.692,13 Jun 2027 02:16:00.451,646.759
135,13 Jun 2027 03:39:15.463,13 Jun 2027 03:51:48.166,752.703
136,13 Jun 2027 05:14:55.961,13 Jun 2027 05:27:43.969,768.008
137,13 Jun 2027 06:52:54.653,13 Jun 2027 07:03:25.520,630.867
138,13 Jun 2027 15:12:51.444,13 Jun 2027 15:17:44.923,293.479
139,13 Jun 2027 16:47:25.749,13 Jun 2027 16:58:42.755,677.005
140,13 Jun 2027 18:23:13.014,13 Jun 2027 18:36:08.117,775.104
141,13 Jun 2027 19:59:08.756,13 Jun 2027 20:11:24.639,735.884
142,13 Jun 2027 21:34:51.849,13 Jun 2027 21:45:11.321,619.472
143,13 Jun 2027 23:09:51.751,13 Jun 2027 23:18:29.465,517.714
