dataset/facility_timing/facility_Facility-Anadyr1/Anadyr1-To-KinoSat_111108.csv

Acces,Start Time (UTCG),Stop Time (UTCG),Duration (sec)
1,1 Jun 2027 01:14:53.326,1 Jun 2027 01:25:41.193,647.867
2,1 Jun 2027 02:48:55.586,1 Jun 2027 03:01:28.763,753.177
3,1 Jun 2027 04:24:36.686,1 Jun 2027 04:37:24.342,767.655
4,1 Jun 2027 06:02:36.243,1 Jun 2027 06:13:05.453,629.210
5,1 Jun 2027 14:22:32.283,1 Jun 2027 14:27:26.347,294.064
6,1 Jun 2027 15:57:06.448,1 Jun 2027 16:08:23.659,677.211
7,1 Jun 2027 17:32:53.524,1 Jun 2027 17:45:48.620,775.096
8,1 Jun 2027 19:08:49.044,1 Jun 2027 19:21:04.868,735.824
9,1 Jun 2027 20:44:31.823,1 Jun 2027 20:54:51.486,619.663
10,1 Jun 2027 22:19:31.312,1 Jun 2027 22:28:09.887,518.575
11,1 Jun 2027 23:53:17.822,2 Jun 2027 00:02:21.441,543.619
12,2 Jun 2027 01:26:36.568,2 Jun 2027 01:37:40.368,663.800
13,2 Jun 2027 03:00:48.941,2 Jun 2027 03:13:30.116,761.176
14,2 Jun 2027 04:36:45.077,2 Jun 2027 04:49:25.299,760.222
15,2 Jun 2027 06:15:06.117,2 Jun 2027 06:25:01.793,595.676
16,2 Jun 2027 14:34:09.046,2 Jun 2027 14:40:28.454,379.408
17,2 Jun 2027 16:09:05.313,2 Jun 2027 16:20:44.904,699.591
18,2 Jun 2027 17:44:54.897,2 Jun 2027 17:57:51.333,776.436
19,2 Jun 2027 19:20:49.979,2 Jun 2027 19:32:54.075,724.096
20,2 Jun 2027 20:56:29.373,2 Jun 2027 21:06:32.992,603.620
21,2 Jun 2027 22:31:20.555,2 Jun 2027 22:39:53.989,513.434
22,3 Jun 2027 00:04:59.200,3 Jun 2027 00:14:15.234,556.034
23,3 Jun 2027 01:38:20.706,3 Jun 2027 01:49:40.000,679.294
24,3 Jun 2027 03:12:43.943,3 Jun 2027 03:25:31.550,767.607
25,3 Jun 2027 04:48:55.684,3 Jun 2027 05:01:26.017,750.333
26,3 Jun 2027 06:27:39.754,3 Jun 2027 06:36:56.696,556.942
27,3 Jun 2027 14:45:53.975,3 Jun 2027 14:53:19.876,445.901
28,3 Jun 2027 16:21:04.774,3 Jun 2027 16:33:03.407,718.633
29,3 Jun 2027 17:56:56.351,3 Jun 2027 18:09:52.113,775.763
30,3 Jun 2027 19:32:50.686,3 Jun 2027 19:44:41.927,711.240
31,3 Jun 2027 21:08:26.179,3 Jun 2027 21:18:14.162,587.982
32,3 Jun 2027 22:43:08.504,3 Jun 2027 22:51:39.191,510.687
33,4 Jun 2027 00:16:40.297,4 Jun 2027 00:26:10.069,569.771
34,4 Jun 2027 01:50:05.876,4 Jun 2027 02:01:40.027,694.151
35,4 Jun 2027 03:24:40.659,4 Jun 2027 03:37:33.025,772.366
36,4 Jun 2027 05:01:08.618,4 Jun 2027 05:13:26.432,737.814
37,4 Jun 2027 06:40:17.695,4 Jun 2027 06:48:49.660,511.965
38,4 Jun 2027 14:57:43.465,4 Jun 2027 15:06:04.262,500.797
39,4 Jun 2027 16:33:04.718,4 Jun 2027 16:45:19.327,734.609
40,4 Jun 2027 18:08:57.835,4 Jun 2027 18:21:51.030,773.195
41,4 Jun 2027 19:44:51.114,4 Jun 2027 19:56:28.516,697.402
42,4 Jun 2027 21:20:22.156,4 Jun 2027 21:29:55.188,573.031
43,4 Jun 2027 22:54:55.177,4 Jun 2027 23:03:25.595,510.418
44,5 Jun 2027 00:28:21.309,5 Jun 2027 00:38:05.853,584.544
45,5 Jun 2027 02:01:52.191,5 Jun 2027 02:13:40.390,708.199
46,5 Jun 2027 03:36:39.166,5 Jun 2027 03:49:34.513,775.348
47,5 Jun 2027 05:13:23.977,5 Jun 2027 05:25:26.471,722.494
48,5 Jun 2027 06:53:00.766,5 Jun 2027 07:00:39.913,459.147
49,5 Jun 2027 15:09:35.909,5 Jun 2027 15:18:43.270,547.361
50,5 Jun 2027 16:45:05.056,5 Jun 2027 16:57:32.797,747.742
51,5 Jun 2027 18:20:59.314,5 Jun 2027 18:33:48.147,768.833
52,5 Jun 2027 19:56:51.216,5 Jun 2027 20:08:13.937,682.721
53,5 Jun 2027 21:32:17.206,5 Jun 2027 21:41:36.258,559.052
54,5 Jun 2027 23:06:40.632,5 Jun 2027 23:15:13.261,512.630
55,6 Jun 2027 00:40:02.427,6 Jun 2027 00:50:02.485,600.058
56,6 Jun 2027 02:13:39.742,6 Jun 2027 02:25:41.039,721.297
57,6 Jun 2027 03:48:39.520,6 Jun 2027 04:01:35.972,776.452
58,6 Jun 2027 05:25:41.889,6 Jun 2027 05:37:26.041,704.151
59,6 Jun 2027 07:05:50.404,6 Jun 2027 07:12:26.060,395.656
60,6 Jun 2027 15:21:30.432,6 Jun 2027 15:31:17.818,587.387
61,6 Jun 2027 16:57:05.712,6 Jun 2027 17:09:43.922,758.210
62,6 Jun 2027 18:33:00.759,6 Jun 2027 18:45:43.536,762.777
63,6 Jun 2027 20:08:50.937,6 Jun 2027 20:19:58.301,667.364
64,6 Jun 2027 21:44:11.235,6 Jun 2027 21:53:17.558,546.323
65,6 Jun 2027 23:18:24.967,6 Jun 2027 23:27:02.220,517.253
66,7 Jun 2027 00:51:43.835,7 Jun 2027 01:01:59.880,616.045
67,7 Jun 2027 02:25:28.637,7 Jun 2027 02:37:41.925,733.288
68,7 Jun 2027 04:00:41.787,7 Jun 2027 04:13:37.371,775.584
69,7 Jun 2027 05:38:02.500,7 Jun 2027 05:49:25.047,682.547
70,7 Jun 2027 07:18:49.582,7 Jun 2027 07:24:05.167,315.585
71,7 Jun 2027 15:33:26.485,7 Jun 2027 15:43:48.504,622.019
72,7 Jun 2027 17:09:06.627,7 Jun 2027 17:21:52.798,766.171
73,7 Jun 2027 18:45:02.130,7 Jun 2027 18:57:37.257,755.127
74,7 Jun 2027 20:20:50.215,7 Jun 2027 20:31:41.739,651.524
75,7 Jun 2027 21:56:04.159,7 Jun 2027 22:04:59.301,535.142
76,7 Jun 2027 23:30:08.301,7 Jun 2027 23:38:52.474,524.172
77,8 Jun 2027 01:03:25.708,8 Jun 2027 01:13:57.949,632.241
78,8 Jun 2027 02:37:18.959,8 Jun 2027 02:49:43.012,744.054
79,8 Jun 2027 04:12:46.049,8 Jun 2027 04:25:38.658,772.609
80,8 Jun 2027 05:50:26.001,8 Jun 2027 06:01:23.346,657.346
81,8 Jun 2027 07:32:07.382,8 Jun 2027 07:35:28.209,200.827
82,8 Jun 2027 14:11:30.145,8 Jun 2027 14:14:19.317,169.172
83,8 Jun 2027 15:45:23.714,8 Jun 2027 15:56:15.729,652.016
84,8 Jun 2027 17:21:07.738,8 Jun 2027 17:33:59.524,771.786
85,8 Jun 2027 18:57:03.392,8 Jun 2027 19:09:29.381,745.989
86,8 Jun 2027 20:32:48.988,8 Jun 2027 20:43:24.375,635.387
87,8 Jun 2027 22:07:55.899,8 Jun 2027 22:16:41.662,525.763
88,8 Jun 2027 23:41:50.805,8 Jun 2027 23:50:43.987,533.182
89,9 Jun 2027 01:15:08.202,9 Jun 2027 01:25:56.614,648.412
90,9 Jun 2027 02:49:10.783,9 Jun 2027 03:01:44.250,753.467
91,9 Jun 2027 04:24:52.363,9 Jun 2027 04:37:39.807,767.444
92,9 Jun 2027 06:02:52.602,9 Jun 2027 06:13:20.766,628.164
93,9 Jun 2027 14:22:46.860,9 Jun 2027 14:27:43.946,297.086
94,9 Jun 2027 15:57:21.860,9 Jun 2027 16:08:39.810,677.950
95,9 Jun 2027 17:33:09.009,9 Jun 2027 17:46:04.175,775.166
96,9 Jun 2027 19:09:04.506,9 Jun 2027 19:21:19.990,735.485
97,9 Jun 2027 20:44:47.169,9 Jun 2027 20:55:06.358,619.189
98,9 Jun 2027 22:19:46.391,9 Jun 2027 22:28:24.833,518.443
99,9 Jun 2027 23:53:32.639,10 Jun 2027 00:02:36.695,544.057
100,10 Jun 2027 01:26:51.467,10 Jun 2027 01:37:55.807,664.340
101,10 Jun 2027 03:01:04.188,10 Jun 2027 03:13:45.604,761.417
102,10 Jun 2027 04:37:00.822,10 Jun 2027 04:49:40.755,759.933
103,10 Jun 2027 06:15:22.595,10 Jun 2027 06:25:17.060,594.465
104,10 Jun 2027 14:34:23.966,10 Jun 2027 14:40:45.627,381.661
105,10 Jun 2027 16:09:20.743,10 Jun 2027 16:21:00.965,700.223
106,10 Jun 2027 17:45:10.385,10 Jun 2027 17:58:06.825,776.440
107,10 Jun 2027 19:21:05.432,10 Jun 2027 19:33:09.153,723.721
108,10 Jun 2027 20:56:44.694,10 Jun 2027 21:06:47.853,603.159
109,10 Jun 2027 22:31:35.590,10 Jun 2027 22:40:08.969,513.379
110,11 Jun 2027 00:05:14.006,11 Jun 2027 00:14:30.521,556.515
111,11 Jun 2027 01:38:35.637,11 Jun 2027 01:49:55.450,679.813
112,11 Jun 2027 03:12:59.244,11 Jun 2027 03:25:47.037,767.793
113,11 Jun 2027 04:49:11.505,11 Jun 2027 05:01:41.461,749.956
114,11 Jun 2027 06:27:56.363,11 Jun 2027 06:37:11.904,555.541
115,11 Jun 2027 14:46:09.066,11 Jun 2027 14:53:36.793,447.728
116,11 Jun 2027 16:21:20.218,11 Jun 2027 16:33:19.384,719.167
117,11 Jun 2027 17:57:11.835,11 Jun 2027 18:10:07.545,775.710
118,11 Jun 2027 19:33:06.128,11 Jun 2027 19:44:56.963,710.835
119,11 Jun 2027 21:08:41.473,11 Jun 2027 21:18:29.016,587.543
120,11 Jun 2027 22:43:23.496,11 Jun 2027 22:51:54.208,510.712
121,12 Jun 2027 00:16:55.097,12 Jun 2027 00:26:25.385,570.287
122,12 Jun 2027 01:50:20.842,12 Jun 2027 02:01:55.485,694.643
123,12 Jun 2027 03:24:56.017,12 Jun 2027 03:37:48.512,772.494
124,12 Jun 2027 05:01:24.516,12 Jun 2027 05:13:41.862,737.346
125,12 Jun 2027 06:40:34.458,12 Jun 2027 06:49:04.788,510.329
126,12 Jun 2027 14:57:58.663,12 Jun 2027 15:06:20.994,502.330
127,12 Jun 2027 16:33:20.173,12 Jun 2027 16:45:35.225,735.052
128,12 Jun 2027 18:09:13.317,12 Jun 2027 18:22:06.402,773.086
129,12 Jun 2027 19:45:06.542,12 Jun 2027 19:56:43.514,696.972
130,12 Jun 2027 21:20:37.418,12 Jun 2027 21:30:10.041,572.623
131,12 Jun 2027 22:55:10.128,12 Jun 2027 23:03:40.652,510.524
132,13 Jun 2027 00:28:36.110,13 Jun 2027 00:38:21.196,585.086
133,13 Jun 2027 02:02:07.196,13 Jun 2027 02:13:55.856,708.661
134,13 Jun 2027 03:36:54.582,13 Jun 2027 03:49:49.997,775.415
135,13 Jun 2027 05:13:39.955,13 Jun 2027 05:25:41.884,721.929
136,13 Jun 2027 06:53:17.721,13 Jun 2027 07:00:54.926,457.206
137,13 Jun 2027 15:09:51.178,13 Jun 2027 15:18:59.851,548.673
138,13 Jun 2027 16:45:20.519,13 Jun 2027 16:57:48.618,748.099
139,13 Jun 2027 18:21:14.792,13 Jun 2027 18:34:03.464,768.671
140,13 Jun 2027 19:57:06.631,13 Jun 2027 20:08:28.901,682.270
141,13 Jun 2027 21:32:32.434,13 Jun 2027 21:41:51.118,558.685
142,13 Jun 2027 23:06:55.544,13 Jun 2027 23:15:28.359,512.816
