dataset/facility_timing/facility_Facility-Anadyr1/Anadyr1-To-KinoSat_111702.csv

Acces,Start Time (UTCG),Stop Time (UTCG),Duration (sec)
1,1 Jun 2027 00:18:47.062,1 Jun 2027 00:27:44.533,537.471
2,1 Jun 2027 01:52:56.473,1 Jun 2027 02:01:32.766,516.293
3,1 Jun 2027 03:26:13.747,1 Jun 2027 03:36:34.744,620.997
4,1 Jun 2027 05:00:01.601,1 Jun 2027 05:12:19.017,737.416
5,1 Jun 2027 06:35:20.557,1 Jun 2027 06:48:15.368,774.812
6,1 Jun 2027 08:12:49.309,1 Jun 2027 08:24:02.760,673.450
7,1 Jun 2027 09:53:54.457,1 Jun 2027 09:58:33.787,279.330
8,1 Jun 2027 16:35:00.600,1 Jun 2027 16:35:39.249,38.649
9,1 Jun 2027 18:08:00.882,1 Jun 2027 18:18:39.659,638.777
10,1 Jun 2027 19:43:44.027,1 Jun 2027 19:56:33.608,769.581
11,1 Jun 2027 21:19:40.420,1 Jun 2027 21:32:10.757,750.337
12,1 Jun 2027 22:55:28.194,1 Jun 2027 23:06:10.096,641.902
13,2 Jun 2027 00:30:39.692,2 Jun 2027 00:39:26.574,526.881
14,2 Jun 2027 02:04:39.464,2 Jun 2027 02:13:23.827,524.364
15,2 Jun 2027 03:37:55.909,2 Jun 2027 03:48:33.412,637.503
16,2 Jun 2027 05:11:52.707,2 Jun 2027 05:24:20.502,747.796
17,2 Jun 2027 06:47:25.942,2 Jun 2027 07:00:16.923,770.981
18,2 Jun 2027 08:25:14.426,2 Jun 2027 08:36:01.064,646.638
19,2 Jun 2027 10:07:28.611,2 Jun 2027 10:09:42.344,133.734
20,2 Jun 2027 16:45:37.035,2 Jun 2027 16:49:46.228,249.192
21,2 Jun 2027 18:19:58.956,2 Jun 2027 18:31:05.608,666.652
22,2 Jun 2027 19:55:45.548,2 Jun 2027 20:08:39.544,773.995
23,2 Jun 2027 21:31:41.938,2 Jun 2027 21:44:02.275,740.337
24,2 Jun 2027 23:07:27.009,2 Jun 2027 23:17:52.437,625.428
25,3 Jun 2027 00:42:31.083,3 Jun 2027 00:51:09.348,518.265
26,3 Jun 2027 02:16:21.672,3 Jun 2027 02:25:16.148,534.476
27,3 Jun 2027 03:49:38.771,3 Jun 2027 04:00:32.644,653.873
28,3 Jun 2027 05:23:45.368,3 Jun 2027 05:36:22.116,756.748
29,3 Jun 2027 06:59:33.436,3 Jun 2027 07:12:18.321,764.885
30,3 Jun 2027 08:37:42.778,3 Jun 2027 08:47:58.404,615.626
31,3 Jun 2027 16:57:08.342,3 Jun 2027 17:02:55.736,347.395
32,3 Jun 2027 18:31:57.846,3 Jun 2027 18:43:28.504,690.658
33,3 Jun 2027 20:07:47.197,3 Jun 2027 20:20:43.428,776.231
34,3 Jun 2027 21:43:43.294,3 Jun 2027 21:55:52.282,728.988
35,3 Jun 2027 23:19:25.206,3 Jun 2027 23:29:34.191,608.985
36,4 Jun 2027 00:54:21.175,4 Jun 2027 01:02:53.032,511.857
37,4 Jun 2027 02:28:03.289,4 Jun 2027 02:37:09.650,546.361
38,4 Jun 2027 04:01:22.482,4 Jun 2027 04:12:32.371,669.889
39,4 Jun 2027 05:35:39.665,4 Jun 2027 05:48:23.836,764.171
40,4 Jun 2027 07:11:43.137,4 Jun 2027 07:24:19.501,756.364
41,4 Jun 2027 08:50:14.682,4 Jun 2027 08:59:54.497,579.815
42,4 Jun 2027 17:08:50.912,4 Jun 2027 17:15:51.426,420.513
43,4 Jun 2027 18:43:57.390,4 Jun 2027 18:55:48.567,711.177
44,4 Jun 2027 20:19:48.944,4 Jun 2027 20:32:45.317,776.373
45,4 Jun 2027 21:55:44.431,4 Jun 2027 22:07:40.875,716.443
46,4 Jun 2027 23:31:22.687,4 Jun 2027 23:41:15.519,592.832
47,5 Jun 2027 01:06:09.939,5 Jun 2027 01:14:37.774,507.835
48,5 Jun 2027 02:39:44.519,5 Jun 2027 02:49:04.259,559.740
49,5 Jun 2027 04:13:07.177,5 Jun 2027 04:24:32.527,685.350
50,5 Jun 2027 05:47:35.666,5 Jun 2027 06:00:25.616,769.950
51,5 Jun 2027 07:23:55.121,5 Jun 2027 07:36:20.406,745.285
52,5 Jun 2027 09:02:50.592,5 Jun 2027 09:11:48.963,538.371
53,5 Jun 2027 17:20:39.142,5 Jun 2027 17:28:38.934,479.792
54,5 Jun 2027 18:55:57.463,5 Jun 2027 19:08:05.948,728.485
55,5 Jun 2027 20:31:50.738,5 Jun 2027 20:44:45.292,774.554
56,5 Jun 2027 22:07:45.318,5 Jun 2027 22:19:28.138,702.820
57,5 Jun 2027 23:43:19.376,5 Jun 2027 23:52:56.607,577.231
58,6 Jun 2027 01:17:57.382,6 Jun 2027 01:26:23.705,506.323
59,6 Jun 2027 02:51:25.567,6 Jun 2027 03:00:59.875,574.308
60,6 Jun 2027 04:24:52.981,6 Jun 2027 04:36:33.051,700.070
61,6 Jun 2027 05:59:33.437,6 Jun 2027 06:12:27.424,773.987
62,6 Jun 2027 07:36:09.500,6 Jun 2027 07:48:20.977,731.477
63,6 Jun 2027 09:15:31.142,6 Jun 2027 09:23:41.194,490.052
64,6 Jun 2027 17:32:30.859,6 Jun 2027 17:41:20.477,529.618
65,6 Jun 2027 19:07:57.965,6 Jun 2027 19:20:20.803,742.838
66,6 Jun 2027 20:43:52.543,6 Jun 2027 20:56:43.415,770.872
67,6 Jun 2027 22:19:45.905,6 Jun 2027 22:31:14.167,688.261
68,6 Jun 2027 23:55:15.166,7 Jun 2027 00:04:37.650,562.483
69,7 Jun 2027 01:29:43.535,7 Jun 2027 01:38:10.899,507.364
70,7 Jun 2027 03:03:06.619,7 Jun 2027 03:12:56.403,589.784
71,7 Jun 2027 04:36:39.993,7 Jun 2027 04:48:33.888,713.896
72,7 Jun 2027 06:11:33.051,7 Jun 2027 06:24:29.223,776.173
73,7 Jun 2027 07:48:26.393,7 Jun 2027 08:00:21.135,714.742
74,7 Jun 2027 09:28:17.387,7 Jun 2027 09:35:30.203,432.817
75,7 Jun 2027 17:44:24.954,7 Jun 2027 17:53:57.215,572.261
76,7 Jun 2027 19:19:58.817,7 Jun 2027 19:32:33.242,754.425
77,7 Jun 2027 20:55:54.329,7 Jun 2027 21:08:39.754,765.425
78,7 Jun 2027 22:31:46.127,7 Jun 2027 22:42:59.069,672.942
79,8 Jun 2027 00:07:09.962,8 Jun 2027 00:16:18.838,548.875
80,8 Jun 2027 01:41:28.488,8 Jun 2027 01:49:59.418,510.930
81,8 Jun 2027 03:14:47.884,8 Jun 2027 03:24:53.750,605.866
82,8 Jun 2027 04:48:28.317,8 Jun 2027 05:00:34.990,726.673
83,8 Jun 2027 06:23:34.569,8 Jun 2027 06:36:30.978,776.410
84,8 Jun 2027 08:00:45.923,8 Jun 2027 08:12:20.783,694.860
85,8 Jun 2027 09:41:11.257,8 Jun 2027 09:47:14.097,362.840
86,8 Jun 2027 17:56:20.781,8 Jun 2027 18:06:29.849,609.067
87,8 Jun 2027 19:31:59.949,8 Jun 2027 19:44:43.373,763.423
88,8 Jun 2027 21:07:56.060,8 Jun 2027 21:20:34.381,758.321
89,8 Jun 2027 22:43:45.935,8 Jun 2027 22:54:42.971,657.035
90,9 Jun 2027 00:19:03.679,9 Jun 2027 00:28:00.377,536.698
91,9 Jun 2027 01:53:12.353,9 Jun 2027 02:01:49.269,516.916
92,9 Jun 2027 03:26:29.536,9 Jun 2027 03:36:51.820,622.284
93,9 Jun 2027 05:00:18.045,9 Jun 2027 05:12:36.301,738.256
94,9 Jun 2027 06:35:38.061,9 Jun 2027 06:48:32.647,774.586
95,9 Jun 2027 08:13:08.270,9 Jun 2027 08:24:19.800,671.530
96,9 Jun 2027 09:54:17.299,9 Jun 2027 09:58:48.362,271.063
97,9 Jun 2027 16:35:00.191,9 Jun 2027 16:36:17.347,77.157
98,9 Jun 2027 18:08:17.903,9 Jun 2027 18:18:58.857,640.954
99,9 Jun 2027 19:44:01.310,9 Jun 2027 19:56:51.284,769.975
100,9 Jun 2027 21:19:57.699,9 Jun 2027 21:32:27.355,749.656
101,9 Jun 2027 22:55:45.262,9 Jun 2027 23:06:25.992,640.730
102,10 Jun 2027 00:30:56.218,10 Jun 2027 00:39:42.466,526.248
103,10 Jun 2027 02:04:55.284,10 Jun 2027 02:13:40.422,525.138
104,10 Jun 2027 03:38:11.744,10 Jun 2027 03:48:50.527,638.783
105,10 Jun 2027 05:12:09.262,10 Jun 2027 05:24:37.795,748.534
106,10 Jun 2027 06:47:43.595,10 Jun 2027 07:00:34.193,770.598
107,10 Jun 2027 08:25:33.617,10 Jun 2027 08:36:18.036,644.419
108,10 Jun 2027 10:07:56.864,10 Jun 2027 10:09:51.702,114.838
109,10 Jun 2027 16:45:51.504,10 Jun 2027 16:50:09.248,257.744
110,10 Jun 2027 18:20:16.041,10 Jun 2027 18:31:24.572,668.531
111,10 Jun 2027 19:56:02.840,10 Jun 2027 20:08:57.068,774.229
112,10 Jun 2027 21:31:59.201,10 Jun 2027 21:44:18.755,739.554
113,10 Jun 2027 23:07:44.034,10 Jun 2027 23:18:08.282,624.248
114,11 Jun 2027 00:42:47.511,11 Jun 2027 00:51:25.302,517.791
115,11 Jun 2027 02:16:37.443,11 Jun 2027 02:25:32.828,535.385
116,11 Jun 2027 03:49:54.668,11 Jun 2027 04:00:49.796,655.128
117,11 Jun 2027 05:24:02.044,11 Jun 2027 05:36:39.415,757.371
118,11 Jun 2027 06:59:51.255,11 Jun 2027 07:12:35.573,764.319
119,11 Jun 2027 08:38:02.225,11 Jun 2027 08:48:15.289,613.064
120,11 Jun 2027 16:57:24.009,11 Jun 2027 17:03:17.363,353.354
121,11 Jun 2027 18:32:14.980,11 Jun 2027 18:43:47.254,692.273
122,11 Jun 2027 20:08:04.493,11 Jun 2027 20:21:00.802,776.309
123,11 Jun 2027 21:44:00.539,11 Jun 2027 21:56:08.654,728.115
124,11 Jun 2027 23:19:42.178,11 Jun 2027 23:29:50.000,607.822
125,12 Jun 2027 00:54:37.502,12 Jun 2027 01:03:09.060,511.558
126,12 Jun 2027 02:28:19.026,12 Jun 2027 02:37:26.414,547.388
127,12 Jun 2027 04:01:38.448,12 Jun 2027 04:12:49.555,671.107
128,12 Jun 2027 05:35:56.466,12 Jun 2027 05:48:41.137,764.671
129,12 Jun 2027 07:12:01.125,12 Jun 2027 07:24:36.731,755.606
130,12 Jun 2027 08:50:34.418,12 Jun 2027 09:00:11.269,576.851
131,12 Jun 2027 17:09:07.106,12 Jun 2027 17:16:12.330,425.224
132,12 Jun 2027 18:44:14.563,12 Jun 2027 18:56:07.109,712.545
133,12 Jun 2027 20:20:06.242,12 Jun 2027 20:33:02.545,776.303
134,12 Jun 2027 21:56:01.658,12 Jun 2027 22:07:57.144,715.486
135,12 Jun 2027 23:31:39.600,12 Jun 2027 23:41:31.304,591.705
136,13 Jun 2027 01:06:26.165,13 Jun 2027 01:14:53.886,507.721
137,13 Jun 2027 02:40:00.236,13 Jun 2027 02:49:21.098,560.862
138,13 Jun 2027 04:13:23.224,13 Jun 2027 04:24:49.741,686.517
139,13 Jun 2027 05:47:52.597,13 Jun 2027 06:00:42.917,770.320
140,13 Jun 2027 07:24:13.283,13 Jun 2027 07:36:37.610,744.327
141,13 Jun 2027 09:03:10.651,13 Jun 2027 09:12:05.586,534.935
142,13 Jun 2027 17:20:55.639,13 Jun 2027 17:28:59.348,483.709
143,13 Jun 2027 18:56:14.668,13 Jun 2027 19:08:24.298,729.630
144,13 Jun 2027 20:32:08.035,13 Jun 2027 20:45:02.380,774.345
145,13 Jun 2027 22:08:02.519,13 Jun 2027 22:19:44.313,701.794
146,13 Jun 2027 23:43:36.221,13 Jun 2027 23:53:12.384,576.163
