dataset/area_timing/orbit_07/Russia-To-KinoSat_110702.csv

Acces,Start Time (UTCG),Stop Time (UTCG),Duration (sec)
1,1 Jun 2027 01:09:02.908,1 Jun 2027 01:13:03.427,240.519
2,1 Jun 2027 02:31:59.706,1 Jun 2027 02:34:43.099,163.393
3,1 Jun 2027 04:08:33.420,1 Jun 2027 04:12:06.531,213.111
4,1 Jun 2027 05:43:41.984,1 Jun 2027 05:49:27.079,345.095
5,1 Jun 2027 05:49:28.472,1 Jun 2027 05:50:30.714,62.242
6,1 Jun 2027 07:20:01.992,1 Jun 2027 07:26:24.588,382.596
7,1 Jun 2027 08:57:36.972,1 Jun 2027 09:01:57.372,260.401
8,1 Jun 2027 10:33:39.475,1 Jun 2027 10:37:51.031,251.556
9,1 Jun 2027 17:16:11.334,1 Jun 2027 17:18:50.012,158.678
10,1 Jun 2027 18:52:08.265,1 Jun 2027 18:58:14.676,366.411
11,1 Jun 2027 20:28:50.861,1 Jun 2027 20:35:14.670,383.809
12,1 Jun 2027 22:04:21.227,1 Jun 2027 22:11:35.186,433.960
13,1 Jun 2027 23:42:30.402,1 Jun 2027 23:43:32.480,62.078
14,1 Jun 2027 23:43:39.233,1 Jun 2027 23:48:43.323,304.090
15,2 Jun 2027 01:20:48.827,2 Jun 2027 01:21:20.559,31.732
16,2 Jun 2027 01:21:38.309,2 Jun 2027 01:24:39.588,181.278
17,2 Jun 2027 02:44:08.962,2 Jun 2027 02:47:20.386,191.425
18,2 Jun 2027 04:20:43.965,2 Jun 2027 04:24:11.826,207.861
19,2 Jun 2027 05:55:53.754,2 Jun 2027 06:02:29.612,395.858
20,2 Jun 2027 07:32:14.933,2 Jun 2027 07:38:24.193,369.261
21,2 Jun 2027 09:09:31.977,2 Jun 2027 09:14:12.365,280.388
22,2 Jun 2027 10:45:44.179,2 Jun 2027 10:50:35.221,291.042
23,2 Jun 2027 17:28:21.359,2 Jun 2027 17:31:28.480,187.121
24,2 Jun 2027 19:04:13.395,2 Jun 2027 19:09:51.395,338.000
25,2 Jun 2027 20:40:48.049,2 Jun 2027 20:47:01.899,373.850
26,2 Jun 2027 22:16:18.365,2 Jun 2027 22:23:09.094,410.729
27,2 Jun 2027 23:54:35.715,2 Jun 2027 23:54:43.003,7.289
28,2 Jun 2027 23:55:36.772,3 Jun 2027 00:00:44.243,307.471
29,3 Jun 2027 00:02:06.765,3 Jun 2027 00:03:33.816,87.052
30,3 Jun 2027 01:32:45.487,3 Jun 2027 01:33:24.506,39.020
31,3 Jun 2027 01:33:46.255,3 Jun 2027 01:36:18.356,152.101
32,3 Jun 2027 02:56:40.645,3 Jun 2027 02:59:24.467,163.822
33,3 Jun 2027 04:32:32.307,3 Jun 2027 04:36:40.298,247.992
34,3 Jun 2027 06:07:26.422,3 Jun 2027 06:14:38.683,432.262
35,3 Jun 2027 07:43:52.321,3 Jun 2027 07:50:17.360,385.039
36,3 Jun 2027 09:22:10.789,3 Jun 2027 09:26:05.410,234.620
37,3 Jun 2027 10:57:37.134,3 Jun 2027 11:01:38.668,241.535
38,3 Jun 2027 11:02:00.052,3 Jun 2027 11:02:58.854,58.802
39,3 Jun 2027 16:04:09.443,3 Jun 2027 16:05:57.508,108.065
40,3 Jun 2027 17:40:09.276,3 Jun 2027 17:43:29.729,200.454
41,3 Jun 2027 19:16:43.377,3 Jun 2027 19:21:56.973,313.596
42,3 Jun 2027 20:52:53.613,3 Jun 2027 20:59:41.309,407.696
43,3 Jun 2027 22:28:47.885,3 Jun 2027 22:35:30.363,402.478
44,4 Jun 2027 00:07:40.228,4 Jun 2027 00:13:11.012,330.784
45,4 Jun 2027 00:13:42.388,4 Jun 2027 00:15:18.079,95.691
46,4 Jun 2027 01:33:20.666,4 Jun 2027 01:34:26.503,65.837
47,4 Jun 2027 01:44:41.350,4 Jun 2027 01:46:21.951,100.600
48,4 Jun 2027 01:47:20.747,4 Jun 2027 01:47:44.732,23.985
49,4 Jun 2027 03:07:15.953,4 Jun 2027 03:08:20.431,64.478
50,4 Jun 2027 03:08:51.205,4 Jun 2027 03:11:58.369,187.164
51,4 Jun 2027 04:42:48.742,4 Jun 2027 04:43:38.656,49.915
52,4 Jun 2027 04:44:16.753,4 Jun 2027 04:48:55.119,278.366
53,4 Jun 2027 06:19:06.133,4 Jun 2027 06:26:39.454,453.321
54,4 Jun 2027 07:56:11.872,4 Jun 2027 08:02:32.853,380.981
55,4 Jun 2027 09:34:09.218,4 Jun 2027 09:38:06.996,237.778
56,4 Jun 2027 11:07:14.101,4 Jun 2027 11:13:34.074,379.972
57,4 Jun 2027 11:14:16.635,4 Jun 2027 11:15:15.775,59.140
58,4 Jun 2027 16:15:52.701,4 Jun 2027 16:18:37.428,164.727
59,4 Jun 2027 17:52:11.368,4 Jun 2027 17:55:38.147,206.780
60,4 Jun 2027 19:28:52.252,4 Jun 2027 19:35:04.822,372.571
61,4 Jun 2027 21:04:58.803,4 Jun 2027 21:11:38.683,399.879
62,4 Jun 2027 22:41:03.093,4 Jun 2027 22:47:15.554,372.461
63,5 Jun 2027 00:20:09.477,5 Jun 2027 00:27:17.714,428.237
64,5 Jun 2027 01:44:59.810,5 Jun 2027 01:46:34.805,94.995
65,5 Jun 2027 01:56:43.782,5 Jun 2027 01:57:45.702,61.921
66,5 Jun 2027 03:18:59.143,5 Jun 2027 03:20:04.969,65.826
67,5 Jun 2027 03:20:55.864,5 Jun 2027 03:24:11.655,195.791
68,5 Jun 2027 04:53:57.302,5 Jun 2027 04:55:51.482,114.180
69,5 Jun 2027 04:56:00.649,5 Jun 2027 05:01:17.733,317.084
70,5 Jun 2027 05:01:54.125,5 Jun 2027 05:02:18.665,24.541
71,5 Jun 2027 06:31:25.471,5 Jun 2027 06:38:43.543,438.072
72,5 Jun 2027 08:08:10.662,5 Jun 2027 08:14:22.398,371.736
73,5 Jun 2027 08:14:26.612,5 Jun 2027 08:14:42.509,15.897
74,5 Jun 2027 09:46:08.744,5 Jun 2027 09:50:19.237,250.493
75,5 Jun 2027 11:19:46.500,5 Jun 2027 11:27:10.491,443.992
76,5 Jun 2027 16:27:53.223,5 Jun 2027 16:30:36.684,163.460
77,5 Jun 2027 18:04:23.073,5 Jun 2027 18:07:45.302,202.228
78,5 Jun 2027 18:09:08.617,5 Jun 2027 18:11:49.801,161.184
79,5 Jun 2027 19:41:05.931,5 Jun 2027 19:47:04.518,358.587
80,5 Jun 2027 21:16:37.075,5 Jun 2027 21:16:54.227,17.152
81,5 Jun 2027 21:17:03.715,5 Jun 2027 21:24:01.276,417.561
82,5 Jun 2027 22:53:21.358,5 Jun 2027 22:53:52.291,30.933
83,5 Jun 2027 22:53:54.379,5 Jun 2027 22:54:32.503,38.124
84,5 Jun 2027 22:54:33.302,5 Jun 2027 22:55:33.985,60.682
85,5 Jun 2027 22:55:35.576,5 Jun 2027 22:59:23.908,228.331
86,6 Jun 2027 00:32:10.190,6 Jun 2027 00:39:13.406,423.215
87,6 Jun 2027 01:56:33.052,6 Jun 2027 01:58:39.164,126.112
88,6 Jun 2027 02:08:45.229,6 Jun 2027 02:09:16.792,31.563
89,6 Jun 2027 03:30:34.066,6 Jun 2027 03:31:51.889,77.822
90,6 Jun 2027 03:32:40.283,6 Jun 2027 03:36:24.156,223.873
91,6 Jun 2027 05:05:25.170,6 Jun 2027 05:13:27.862,482.693
92,6 Jun 2027 05:13:48.152,6 Jun 2027 05:14:46.397,58.245
93,6 Jun 2027 06:43:18.475,6 Jun 2027 06:50:43.250,444.774
94,6 Jun 2027 08:20:02.342,6 Jun 2027 08:25:53.593,351.251
95,6 Jun 2027 08:25:59.498,6 Jun 2027 08:26:46.464,46.966
96,6 Jun 2027 09:58:09.041,6 Jun 2027 10:02:18.208,249.166
97,6 Jun 2027 11:33:52.577,6 Jun 2027 11:38:16.461,263.884
98,6 Jun 2027 16:39:58.871,6 Jun 2027 16:42:51.875,173.005
99,6 Jun 2027 16:43:25.607,6 Jun 2027 16:44:01.427,35.820
100,6 Jun 2027 18:16:22.572,6 Jun 2027 18:20:40.964,258.393
101,6 Jun 2027 18:21:14.619,6 Jun 2027 18:24:24.990,190.371
102,6 Jun 2027 19:52:57.283,6 Jun 2027 19:59:29.981,392.698
103,6 Jun 2027 21:28:28.238,6 Jun 2027 21:36:11.672,463.434
104,6 Jun 2027 23:06:06.109,6 Jun 2027 23:07:45.672,99.563
105,6 Jun 2027 23:08:08.655,6 Jun 2027 23:11:40.766,212.111
106,7 Jun 2027 00:44:31.228,7 Jun 2027 00:49:41.845,310.617
107,7 Jun 2027 02:08:28.911,7 Jun 2027 02:10:45.520,136.610
108,7 Jun 2027 03:44:29.687,7 Jun 2027 03:48:22.271,232.583
109,7 Jun 2027 05:18:17.027,7 Jun 2027 05:25:42.366,445.339
110,7 Jun 2027 05:25:47.713,7 Jun 2027 05:26:47.612,59.899
111,7 Jun 2027 06:55:25.813,7 Jun 2027 07:02:44.003,438.190
112,7 Jun 2027 08:32:40.114,7 Jun 2027 08:37:12.258,272.144
113,7 Jun 2027 08:37:21.938,7 Jun 2027 08:38:33.029,71.091
114,7 Jun 2027 10:09:22.705,7 Jun 2027 10:14:16.772,294.067
115,7 Jun 2027 11:44:34.072,7 Jun 2027 11:44:48.202,14.129
116,7 Jun 2027 11:46:08.525,7 Jun 2027 11:49:17.805,189.281
117,7 Jun 2027 16:52:03.941,7 Jun 2027 16:54:33.130,149.188
118,7 Jun 2027 16:54:55.879,7 Jun 2027 16:57:31.839,155.959
119,7 Jun 2027 18:28:15.895,7 Jun 2027 18:35:12.646,416.750
120,7 Jun 2027 20:05:00.739,7 Jun 2027 20:11:28.712,387.973
121,7 Jun 2027 21:40:27.784,7 Jun 2027 21:48:01.608,453.824
122,7 Jun 2027 23:18:43.424,7 Jun 2027 23:19:26.525,43.101
123,7 Jun 2027 23:19:31.887,7 Jun 2027 23:20:18.901,47.015
124,7 Jun 2027 23:20:21.307,7 Jun 2027 23:24:51.931,270.624
125,8 Jun 2027 00:57:02.386,8 Jun 2027 01:01:42.990,280.604
126,8 Jun 2027 02:20:21.851,8 Jun 2027 02:22:55.885,154.034
127,8 Jun 2027 03:56:43.338,8 Jun 2027 04:00:12.394,209.057
128,8 Jun 2027 05:30:40.272,8 Jun 2027 05:37:39.211,418.938
129,8 Jun 2027 05:37:39.921,8 Jun 2027 05:38:46.322,66.401
130,8 Jun 2027 07:07:51.281,8 Jun 2027 07:14:33.322,402.041
131,8 Jun 2027 08:44:51.984,8 Jun 2027 08:50:14.901,322.917
132,8 Jun 2027 10:21:37.677,8 Jun 2027 10:26:07.825,270.148
133,8 Jun 2027 11:59:47.451,8 Jun 2027 12:00:53.713,66.263
134,8 Jun 2027 17:04:22.304,8 Jun 2027 17:06:39.957,137.653
135,8 Jun 2027 17:07:42.054,8 Jun 2027 17:08:34.469,52.416
136,8 Jun 2027 18:40:20.349,8 Jun 2027 18:46:52.665,392.316
137,8 Jun 2027 20:17:01.953,8 Jun 2027 20:23:25.202,383.248
138,8 Jun 2027 21:52:34.616,8 Jun 2027 22:00:04.547,449.931
139,8 Jun 2027 23:30:36.564,8 Jun 2027 23:30:41.911,5.347
140,8 Jun 2027 23:31:06.467,8 Jun 2027 23:36:51.118,344.652
141,9 Jun 2027 01:09:17.617,9 Jun 2027 01:13:18.096,240.479
142,9 Jun 2027 02:32:14.802,9 Jun 2027 02:34:57.674,162.872
143,9 Jun 2027 04:08:48.217,9 Jun 2027 04:12:21.134,212.917
144,9 Jun 2027 05:43:57.062,9 Jun 2027 05:49:42.001,344.939
145,9 Jun 2027 05:49:43.032,9 Jun 2027 05:50:45.635,62.603
146,9 Jun 2027 07:20:17.005,9 Jun 2027 07:26:39.422,382.417
147,9 Jun 2027 08:57:51.644,9 Jun 2027 09:02:12.508,260.864
148,9 Jun 2027 10:33:54.360,9 Jun 2027 10:38:05.372,251.012
149,9 Jun 2027 17:16:26.069,9 Jun 2027 17:19:04.999,158.930
150,9 Jun 2027 18:52:23.050,9 Jun 2027 18:58:28.783,365.733
151,9 Jun 2027 20:29:05.599,9 Jun 2027 20:35:28.881,383.282
152,9 Jun 2027 22:04:36.010,9 Jun 2027 22:11:49.482,433.472
153,9 Jun 2027 23:42:45.093,9 Jun 2027 23:43:47.266,62.173
154,9 Jun 2027 23:43:53.886,9 Jun 2027 23:48:57.600,303.713
155,10 Jun 2027 01:21:03.529,10 Jun 2027 01:21:35.489,31.960
156,10 Jun 2027 01:21:52.932,10 Jun 2027 01:24:53.947,181.015
157,10 Jun 2027 02:44:23.410,10 Jun 2027 02:47:35.231,191.820
158,10 Jun 2027 04:20:58.646,10 Jun 2027 04:24:26.314,207.668
159,10 Jun 2027 05:56:08.693,10 Jun 2027 06:02:44.320,395.628
160,10 Jun 2027 07:32:29.625,10 Jun 2027 07:38:38.031,368.406
161,10 Jun 2027 09:09:46.471,10 Jun 2027 09:14:27.383,280.912
162,10 Jun 2027 10:45:58.828,10 Jun 2027 10:50:50.166,291.338
163,10 Jun 2027 17:28:36.100,10 Jun 2027 17:31:43.308,187.209
164,10 Jun 2027 19:04:28.021,10 Jun 2027 19:10:06.165,338.144
165,10 Jun 2027 20:41:02.791,10 Jun 2027 20:47:16.313,373.521
166,10 Jun 2027 22:16:33.180,10 Jun 2027 22:23:29.670,416.490
167,10 Jun 2027 23:54:50.618,10 Jun 2027 23:54:54.258,3.640
168,10 Jun 2027 23:55:51.499,11 Jun 2027 00:00:58.455,306.955
169,11 Jun 2027 00:02:21.319,11 Jun 2027 00:03:48.453,87.135
170,11 Jun 2027 01:22:15.592,11 Jun 2027 01:22:16.976,1.384
171,11 Jun 2027 01:33:00.108,11 Jun 2027 01:33:39.239,39.131
172,11 Jun 2027 01:34:00.455,11 Jun 2027 01:36:33.456,153.001
173,11 Jun 2027 02:56:56.316,11 Jun 2027 02:59:39.283,162.968
174,11 Jun 2027 04:32:46.460,11 Jun 2027 04:36:55.086,248.625
175,11 Jun 2027 06:07:39.954,11 Jun 2027 06:14:53.459,433.504
176,11 Jun 2027 07:44:07.708,11 Jun 2027 07:50:32.099,384.391
177,11 Jun 2027 09:22:25.856,11 Jun 2027 09:26:20.262,234.406
178,11 Jun 2027 10:57:52.618,11 Jun 2027 11:01:53.819,241.201
179,11 Jun 2027 11:02:14.940,11 Jun 2027 11:03:14.013,59.072
180,11 Jun 2027 16:04:23.624,11 Jun 2027 16:06:12.531,108.907
181,11 Jun 2027 17:40:23.937,11 Jun 2027 17:43:44.347,200.409
182,11 Jun 2027 19:16:58.135,11 Jun 2027 19:22:11.926,313.791
183,11 Jun 2027 20:53:08.365,11 Jun 2027 20:59:55.809,407.445
184,11 Jun 2027 22:29:09.433,11 Jun 2027 22:35:44.594,395.161
185,12 Jun 2027 00:07:54.944,12 Jun 2027 00:13:25.492,330.547
186,12 Jun 2027 00:13:57.064,12 Jun 2027 00:15:33.173,96.109
187,12 Jun 2027 01:33:34.669,12 Jun 2027 01:34:41.368,66.698
188,12 Jun 2027 01:44:56.003,12 Jun 2027 01:46:36.580,100.577
189,12 Jun 2027 01:47:35.357,12 Jun 2027 01:47:58.732,23.375
190,12 Jun 2027 03:07:30.673,12 Jun 2027 03:08:34.939,64.266
191,12 Jun 2027 03:08:48.238,12 Jun 2027 03:12:13.233,204.995
192,12 Jun 2027 04:43:02.679,12 Jun 2027 04:43:53.275,50.595
193,12 Jun 2027 04:44:31.340,12 Jun 2027 04:49:10.037,278.697
194,12 Jun 2027 06:19:21.290,12 Jun 2027 06:26:54.276,452.986
195,12 Jun 2027 07:56:27.421,12 Jun 2027 08:02:47.525,380.104
196,12 Jun 2027 09:34:23.964,12 Jun 2027 09:38:21.762,237.798
197,12 Jun 2027 11:07:28.830,12 Jun 2027 11:13:49.184,380.354
198,12 Jun 2027 11:14:31.317,12 Jun 2027 11:15:30.649,59.332
199,12 Jun 2027 16:16:07.400,12 Jun 2027 16:18:52.490,165.090
200,12 Jun 2027 17:52:26.174,12 Jun 2027 17:55:52.650,206.477
201,12 Jun 2027 19:29:06.914,12 Jun 2027 19:35:19.459,372.544
202,12 Jun 2027 21:05:13.467,12 Jun 2027 21:11:53.448,399.981
203,12 Jun 2027 22:41:17.845,12 Jun 2027 22:47:29.640,371.795
204,13 Jun 2027 00:20:24.145,13 Jun 2027 00:27:32.481,428.335
205,13 Jun 2027 01:45:14.494,13 Jun 2027 01:46:49.913,95.418
206,13 Jun 2027 01:56:58.425,13 Jun 2027 01:58:00.096,61.671
207,13 Jun 2027 03:19:13.679,13 Jun 2027 03:20:19.493,65.814
208,13 Jun 2027 03:21:09.129,13 Jun 2027 03:24:26.616,197.487
209,13 Jun 2027 04:54:11.569,13 Jun 2027 04:56:06.362,114.793
210,13 Jun 2027 04:56:15.278,13 Jun 2027 05:01:32.615,317.338
211,13 Jun 2027 05:02:08.702,13 Jun 2027 05:02:33.443,24.741
212,13 Jun 2027 06:31:40.062,13 Jun 2027 06:38:58.263,438.201
213,13 Jun 2027 08:08:24.813,13 Jun 2027 08:14:57.310,392.496
214,13 Jun 2027 09:46:23.174,13 Jun 2027 09:50:33.934,250.760
215,13 Jun 2027 11:20:01.065,13 Jun 2027 11:27:25.205,444.140
216,13 Jun 2027 16:28:07.827,13 Jun 2027 16:30:51.686,163.860
217,13 Jun 2027 18:04:37.890,13 Jun 2027 18:08:00.275,202.385
218,13 Jun 2027 18:09:23.191,13 Jun 2027 18:12:05.086,161.895
219,13 Jun 2027 19:41:20.505,13 Jun 2027 19:47:19.780,359.275
220,13 Jun 2027 21:16:51.664,13 Jun 2027 21:17:09.092,17.429
221,13 Jun 2027 21:17:18.454,13 Jun 2027 21:24:16.402,417.948
222,13 Jun 2027 22:53:36.319,13 Jun 2027 22:54:06.916,30.597
223,13 Jun 2027 22:54:09.209,13 Jun 2027 22:54:47.143,37.934
224,13 Jun 2027 22:54:48.230,13 Jun 2027 22:55:48.380,60.150
225,13 Jun 2027 22:55:50.646,13 Jun 2027 22:59:38.896,228.250
