dataset/facility_timing/facility_Facility-Novosib/Novosib-To-KinoSat_111605.csv

Acces,Start Time (UTCG),Stop Time (UTCG),Duration (sec)
1,1 Jun 2027 00:00:59.619,1 Jun 2027 00:10:53.673,594.055
2,1 Jun 2027 01:36:10.096,1 Jun 2027 01:49:02.554,772.458
3,1 Jun 2027 03:12:15.534,1 Jun 2027 03:23:50.570,695.037
4,1 Jun 2027 04:48:59.396,1 Jun 2027 04:55:43.863,404.467
5,1 Jun 2027 09:28:49.982,1 Jun 2027 09:35:07.209,377.227
6,1 Jun 2027 11:00:31.356,1 Jun 2027 11:11:55.008,683.652
7,1 Jun 2027 12:35:08.685,1 Jun 2027 12:48:02.543,773.858
8,1 Jun 2027 14:13:02.331,1 Jun 2027 14:23:18.752,616.420
9,2 Jun 2027 00:12:49.285,2 Jun 2027 00:23:27.011,637.726
10,2 Jun 2027 01:48:10.930,2 Jun 2027 02:01:05.337,774.407
11,2 Jun 2027 03:24:20.637,2 Jun 2027 03:35:31.479,670.842
12,2 Jun 2027 05:01:13.212,2 Jun 2027 05:06:59.763,346.551
13,2 Jun 2027 09:40:08.191,2 Jun 2027 09:47:19.671,431.480
14,2 Jun 2027 11:12:13.640,2 Jun 2027 11:23:59.856,706.216
15,2 Jun 2027 12:47:13.003,2 Jun 2027 13:00:03.009,770.006
16,2 Jun 2027 14:25:38.767,2 Jun 2027 14:35:06.723,567.956
17,3 Jun 2027 00:24:41.590,3 Jun 2027 00:35:55.058,673.468
18,3 Jun 2027 02:00:12.423,3 Jun 2027 02:13:05.196,772.773
19,3 Jun 2027 03:36:26.280,3 Jun 2027 03:47:09.684,643.404
20,3 Jun 2027 05:13:31.042,3 Jun 2027 05:18:09.854,278.812
21,3 Jun 2027 09:51:30.286,3 Jun 2027 09:59:30.171,479.885
22,3 Jun 2027 11:23:58.609,3 Jun 2027 11:36:04.208,725.600
23,3 Jun 2027 12:59:20.406,3 Jun 2027 13:12:02.697,762.291
24,3 Jun 2027 14:38:22.325,3 Jun 2027 14:46:50.370,508.045
25,4 Jun 2027 00:36:35.923,4 Jun 2027 00:48:18.495,702.572
26,4 Jun 2027 02:12:14.504,4 Jun 2027 02:25:02.218,767.714
27,4 Jun 2027 03:48:32.512,4 Jun 2027 03:58:45.155,612.643
28,4 Jun 2027 05:25:57.272,4 Jun 2027 05:29:09.847,192.575
29,4 Jun 2027 10:02:55.753,4 Jun 2027 10:11:39.278,523.525
30,4 Jun 2027 11:35:46.264,4 Jun 2027 11:48:08.074,741.810
31,4 Jun 2027 13:11:31.031,4 Jun 2027 13:24:01.498,750.467
32,4 Jun 2027 14:51:15.456,4 Jun 2027 14:58:27.358,431.902
33,4 Jun 2027 23:14:59.512,4 Jun 2027 23:19:29.357,269.845
34,5 Jun 2027 00:48:31.878,5 Jun 2027 01:00:37.803,725.925
35,5 Jun 2027 02:24:17.143,5 Jun 2027 02:36:56.453,759.310
36,5 Jun 2027 04:00:39.401,5 Jun 2027 04:10:17.837,578.436
37,5 Jun 2027 10:14:24.313,5 Jun 2027 10:23:47.325,563.012
38,5 Jun 2027 11:47:36.620,5 Jun 2027 12:00:11.441,754.821
39,5 Jun 2027 13:23:45.073,5 Jun 2027 13:35:59.258,734.185
40,5 Jun 2027 15:04:23.745,5 Jun 2027 15:09:52.217,328.472
41,5 Jun 2027 23:26:15.202,5 Jun 2027 23:32:48.132,392.930
42,6 Jun 2027 01:00:29.148,6 Jun 2027 01:12:53.343,744.194
43,6 Jun 2027 02:36:20.297,6 Jun 2027 02:48:47.955,747.658
44,6 Jun 2027 04:12:47.064,6 Jun 2027 04:21:47.650,540.586
45,6 Jun 2027 08:55:51.663,6 Jun 2027 08:58:15.561,143.898
46,6 Jun 2027 10:25:55.798,6 Jun 2027 10:35:54.537,598.739
47,6 Jun 2027 11:59:29.705,6 Jun 2027 12:12:14.295,764.589
48,6 Jun 2027 13:36:02.772,6 Jun 2027 13:47:55.787,713.015
49,6 Jun 2027 15:18:11.596,6 Jun 2027 15:20:40.689,149.093
50,6 Jun 2027 23:37:48.138,6 Jun 2027 23:45:46.585,478.448
51,7 Jun 2027 01:12:27.537,7 Jun 2027 01:25:05.381,757.844
52,7 Jun 2027 02:48:23.945,7 Jun 2027 03:00:36.743,732.799
53,7 Jun 2027 04:24:55.687,7 Jun 2027 04:33:14.454,498.767
54,7 Jun 2027 09:06:43.407,7 Jun 2027 09:10:49.356,245.949
55,7 Jun 2027 10:37:30.103,7 Jun 2027 10:48:01.036,630.933
56,7 Jun 2027 12:11:25.548,7 Jun 2027 12:24:16.614,771.065
57,7 Jun 2027 13:48:24.431,7 Jun 2027 13:59:50.836,686.405
58,7 Jun 2027 23:49:29.381,7 Jun 2027 23:58:33.751,544.370
59,8 Jun 2027 01:24:26.862,8 Jun 2027 01:37:14.112,767.250
60,8 Jun 2027 03:00:28.086,8 Jun 2027 03:12:22.839,714.753
61,8 Jun 2027 04:37:05.528,8 Jun 2027 04:44:38.019,452.491
62,8 Jun 2027 09:17:50.109,8 Jun 2027 09:23:09.849,319.740
63,8 Jun 2027 10:49:07.168,8 Jun 2027 11:00:06.919,659.751
64,8 Jun 2027 12:23:24.210,8 Jun 2027 12:36:18.360,774.150
65,8 Jun 2027 14:00:50.473,8 Jun 2027 14:11:44.042,653.569
66,9 Jun 2027 00:01:15.737,9 Jun 2027 00:11:12.969,597.231
67,9 Jun 2027 01:36:27.017,9 Jun 2027 01:49:19.713,772.696
68,9 Jun 2027 03:12:32.718,9 Jun 2027 03:24:06.257,693.538
69,9 Jun 2027 04:49:17.054,9 Jun 2027 04:55:57.964,400.910
70,9 Jun 2027 09:29:03.837,9 Jun 2027 09:35:25.078,381.242
71,9 Jun 2027 11:00:46.938,9 Jun 2027 11:12:12.250,685.312
72,9 Jun 2027 12:35:25.758,9 Jun 2027 12:48:19.471,773.713
73,9 Jun 2027 14:13:21.496,9 Jun 2027 14:23:34.889,613.393
74,10 Jun 2027 00:13:05.599,10 Jun 2027 00:23:45.925,640.326
75,10 Jun 2027 01:48:27.891,10 Jun 2027 02:01:22.297,774.406
76,10 Jun 2027 03:24:37.857,10 Jun 2027 03:35:46.985,669.128
77,10 Jun 2027 05:01:31.062,10 Jun 2027 05:07:13.549,342.486
78,10 Jun 2027 09:40:22.346,10 Jun 2027 09:47:37.369,435.023
79,10 Jun 2027 11:12:29.405,10 Jun 2027 11:24:17.058,707.653
80,10 Jun 2027 12:47:30.283,10 Jun 2027 13:00:19.888,769.604
81,10 Jun 2027 14:25:58.367,10 Jun 2027 14:35:22.608,564.241
82,11 Jun 2027 00:24:58.051,11 Jun 2027 00:36:13.644,675.593
83,11 Jun 2027 02:00:29.422,11 Jun 2027 02:13:21.962,772.540
84,11 Jun 2027 03:36:43.533,11 Jun 2027 03:47:25.009,641.476
85,11 Jun 2027 05:13:49.241,11 Jun 2027 05:18:23.171,273.930
86,11 Jun 2027 09:51:44.686,11 Jun 2027 09:59:47.746,483.060
87,11 Jun 2027 11:24:14.561,11 Jun 2027 11:36:21.373,726.812
88,11 Jun 2027 12:59:37.896,11 Jun 2027 13:12:19.516,761.620
89,11 Jun 2027 14:38:42.483,11 Jun 2027 14:47:05.885,503.402
90,12 Jun 2027 00:36:52.499,12 Jun 2027 00:48:36.790,704.291
91,12 Jun 2027 02:12:31.536,12 Jun 2027 02:25:18.795,767.258
92,12 Jun 2027 03:48:49.801,12 Jun 2027 03:59:00.296,610.496
93,12 Jun 2027 05:26:16.352,12 Jun 2027 05:29:22.170,185.818
94,12 Jun 2027 10:03:10.374,12 Jun 2027 10:11:56.769,526.395
95,12 Jun 2027 11:36:02.395,12 Jun 2027 11:48:25.202,742.806
96,12 Jun 2027 13:11:48.750,12 Jun 2027 13:24:18.243,749.493
97,12 Jun 2027 14:51:36.412,12 Jun 2027 14:58:42.274,425.861
98,12 Jun 2027 23:15:12.495,12 Jun 2027 23:19:52.573,280.077
99,13 Jun 2027 00:48:48.547,13 Jun 2027 01:00:55.835,727.288
100,13 Jun 2027 02:24:34.208,13 Jun 2027 02:37:12.844,758.636
101,13 Jun 2027 04:00:56.732,13 Jun 2027 04:10:32.790,576.058
102,13 Jun 2027 10:14:39.142,13 Jun 2027 10:24:04.746,565.604
103,13 Jun 2027 11:47:52.935,13 Jun 2027 12:00:28.531,755.596
104,13 Jun 2027 13:24:03.031,13 Jun 2027 13:36:15.920,732.889
105,13 Jun 2027 15:04:46.156,13 Jun 2027 15:10:05.884,319.728
106,13 Jun 2027 23:26:29.936,13 Jun 2027 23:33:09.380,399.444
