dataset/facility_timing/facility_Facility-Novosib/Novosib-To-KinoSat_111004.csv

Acces,Start Time (UTCG),Stop Time (UTCG),Duration (sec)
1,1 Jun 2027 00:32:44.196,1 Jun 2027 00:44:34.723,710.527
2,1 Jun 2027 02:09:21.617,1 Jun 2027 02:16:45.295,443.678
3,1 Jun 2027 06:49:49.759,1 Jun 2027 06:55:33.150,343.392
4,1 Jun 2027 08:21:16.369,1 Jun 2027 08:32:24.803,668.434
5,1 Jun 2027 09:55:39.814,1 Jun 2027 10:08:34.116,774.302
6,1 Jun 2027 11:33:14.318,1 Jun 2027 11:43:56.076,641.758
7,1 Jun 2027 21:33:29.648,1 Jun 2027 21:43:36.745,607.097
8,1 Jun 2027 23:08:42.746,1 Jun 2027 23:21:36.019,773.272
9,2 Jun 2027 00:44:48.586,2 Jun 2027 00:56:17.409,688.823
10,2 Jun 2027 02:21:32.958,2 Jun 2027 02:28:04.652,391.694
11,2 Jun 2027 07:01:05.539,2 Jun 2027 07:07:46.540,401.001
12,2 Jun 2027 08:32:56.859,2 Jun 2027 08:44:29.610,692.751
13,2 Jun 2027 10:07:41.972,2 Jun 2027 10:20:34.716,772.743
14,2 Jun 2027 11:45:46.571,2 Jun 2027 11:55:45.795,599.223
15,2 Jun 2027 21:45:19.857,2 Jun 2027 21:56:08.059,648.202
16,2 Jun 2027 23:20:43.463,2 Jun 2027 23:33:37.679,774.216
17,3 Jun 2027 00:56:53.473,3 Jun 2027 01:07:57.450,663.977
18,3 Jun 2027 02:33:46.867,3 Jun 2027 02:39:19.608,332.741
19,3 Jun 2027 07:12:25.548,3 Jun 2027 07:19:57.549,452.000
20,3 Jun 2027 08:44:39.997,3 Jun 2027 08:56:33.917,713.920
21,3 Jun 2027 10:19:47.104,3 Jun 2027 10:32:34.603,767.499
22,3 Jun 2027 11:58:24.974,3 Jun 2027 12:07:32.073,547.099
23,3 Jun 2027 21:57:12.491,3 Jun 2027 22:08:34.343,681.852
24,3 Jun 2027 23:32:44.813,3 Jun 2027 23:45:36.474,771.661
25,4 Jun 2027 01:08:58.891,4 Jun 2027 01:19:34.825,635.934
26,4 Jun 2027 02:46:05.164,4 Jun 2027 02:50:28.432,263.268
27,4 Jun 2027 07:23:49.085,4 Jun 2027 07:32:06.947,497.862
28,4 Jun 2027 08:56:25.777,4 Jun 2027 09:08:37.748,731.971
29,4 Jun 2027 10:31:55.332,4 Jun 2027 10:44:33.681,758.349
30,4 Jun 2027 12:11:11.148,4 Jun 2027 12:19:13.388,482.240
31,4 Jun 2027 20:36:49.100,4 Jun 2027 20:38:18.570,89.470
32,4 Jun 2027 22:09:07.012,4 Jun 2027 22:20:56.211,709.199
33,4 Jun 2027 23:44:46.729,4 Jun 2027 23:57:32.484,765.755
34,5 Jun 2027 01:21:04.893,5 Jun 2027 01:31:09.503,604.610
35,5 Jun 2027 02:58:33.272,5 Jun 2027 03:01:25.806,172.533
36,5 Jun 2027 07:35:15.789,5 Jun 2027 07:44:15.153,539.364
37,5 Jun 2027 09:08:14.211,5 Jun 2027 09:20:41.096,746.884
38,5 Jun 2027 10:44:06.813,5 Jun 2027 10:56:31.829,745.016
39,5 Jun 2027 12:24:08.256,5 Jun 2027 12:30:46.689,398.434
40,5 Jun 2027 20:47:18.215,5 Jun 2027 20:52:25.457,307.242
41,5 Jun 2027 22:21:03.050,5 Jun 2027 22:33:14.096,731.046
42,5 Jun 2027 23:56:49.186,6 Jun 2027 00:09:25.760,756.574
43,6 Jun 2027 01:33:11.554,6 Jun 2027 01:42:41.424,569.870
44,6 Jun 2027 07:46:45.438,6 Jun 2027 07:56:22.432,576.995
45,6 Jun 2027 09:20:05.317,6 Jun 2027 09:32:43.958,758.642
46,6 Jun 2027 10:56:21.742,6 Jun 2027 11:08:28.890,727.148
47,6 Jun 2027 12:37:24.629,6 Jun 2027 12:42:03.767,279.138
48,6 Jun 2027 20:58:39.795,6 Jun 2027 21:05:36.724,416.929
49,6 Jun 2027 22:33:00.340,6 Jun 2027 22:45:28.331,747.991
50,7 Jun 2027 00:08:52.142,7 Jun 2027 00:21:16.339,744.197
51,7 Jun 2027 01:45:18.992,7 Jun 2027 01:54:10.511,531.519
52,7 Jun 2027 06:27:52.912,7 Jun 2027 06:31:06.319,193.406
53,7 Jun 2027 07:58:17.906,7 Jun 2027 08:08:28.961,611.055
54,7 Jun 2027 09:31:59.128,7 Jun 2027 09:44:46.305,767.177
55,7 Jun 2027 11:08:40.391,7 Jun 2027 11:20:24.647,704.256
56,7 Jun 2027 21:10:15.058,7 Jun 2027 21:18:31.285,496.227
57,7 Jun 2027 22:44:58.683,7 Jun 2027 22:57:39.160,760.477
58,8 Jun 2027 00:20:55.579,8 Jun 2027 00:33:04.248,728.668
59,8 Jun 2027 01:57:27.398,8 Jun 2027 02:05:36.618,489.220
60,8 Jun 2027 06:38:53.427,8 Jun 2027 06:43:31.602,278.175
61,8 Jun 2027 08:09:53.114,8 Jun 2027 08:20:34.845,641.731
62,8 Jun 2027 09:43:55.679,8 Jun 2027 09:56:48.116,772.437
63,8 Jun 2027 11:21:03.091,8 Jun 2027 11:32:18.826,675.735
64,8 Jun 2027 21:21:57.527,8 Jun 2027 21:31:15.743,558.216
65,8 Jun 2027 22:56:57.929,8 Jun 2027 23:09:46.761,768.832
66,9 Jun 2027 00:32:59.499,9 Jun 2027 00:44:49.510,710.011
67,9 Jun 2027 02:09:37.054,9 Jun 2027 02:16:59.512,442.458
68,9 Jun 2027 06:50:03.683,9 Jun 2027 06:55:48.803,345.119
69,9 Jun 2027 08:21:31.018,9 Jun 2027 08:32:40.158,669.140
70,9 Jun 2027 09:55:55.034,9 Jun 2027 10:08:49.343,774.309
71,9 Jun 2027 11:33:30.313,9 Jun 2027 11:44:11.021,640.707
72,9 Jun 2027 21:33:44.584,9 Jun 2027 21:43:52.831,608.247
73,9 Jun 2027 23:08:57.966,9 Jun 2027 23:21:51.302,773.337
74,10 Jun 2027 00:45:03.897,10 Jun 2027 00:56:32.131,688.233
75,10 Jun 2027 02:21:48.440,10 Jun 2027 02:28:18.773,390.333
76,10 Jun 2027 07:01:19.598,10 Jun 2027 07:08:02.105,402.507
77,10 Jun 2027 08:33:11.574,10 Jun 2027 08:44:44.946,693.372
78,10 Jun 2027 10:07:57.273,10 Jun 2027 10:20:49.921,772.649
79,10 Jun 2027 11:46:02.717,10 Jun 2027 11:56:00.658,597.941
80,10 Jun 2027 21:45:34.859,10 Jun 2027 21:56:24.003,649.144
81,10 Jun 2027 23:20:58.695,10 Jun 2027 23:33:52.887,774.192
82,11 Jun 2027 00:57:08.795,11 Jun 2027 01:08:12.103,663.308
83,11 Jun 2027 02:34:02.422,11 Jun 2027 02:39:33.608,331.187
84,11 Jun 2027 07:12:39.713,11 Jun 2027 07:20:13.057,453.344
85,11 Jun 2027 08:44:54.783,11 Jun 2027 08:56:49.237,714.454
86,11 Jun 2027 10:20:02.484,11 Jun 2027 10:32:49.785,767.301
87,11 Jun 2027 11:58:41.300,11 Jun 2027 12:07:46.823,545.523
88,11 Jun 2027 21:57:27.544,11 Jun 2027 22:08:50.165,682.621
89,11 Jun 2027 23:33:00.057,11 Jun 2027 23:45:51.608,771.550
90,12 Jun 2027 01:09:14.223,12 Jun 2027 01:19:49.409,635.187
91,12 Jun 2027 02:46:20.857,12 Jun 2027 02:50:42.248,261.391
92,12 Jun 2027 07:24:03.341,12 Jun 2027 07:32:22.413,499.071
93,12 Jun 2027 08:56:40.633,12 Jun 2027 09:08:53.053,732.419
94,12 Jun 2027 10:32:10.796,12 Jun 2027 10:44:48.837,758.042
95,12 Jun 2027 12:11:27.719,12 Jun 2027 12:19:27.966,480.247
96,12 Jun 2027 20:36:58.843,12 Jun 2027 20:38:40.234,101.391
97,12 Jun 2027 22:09:22.106,12 Jun 2027 22:21:11.925,709.819
98,12 Jun 2027 23:45:01.985,12 Jun 2027 23:57:47.545,765.560
99,13 Jun 2027 01:21:20.236,13 Jun 2027 01:31:24.018,603.782
100,13 Jun 2027 02:58:49.351,13 Jun 2027 03:01:39.193,169.843
101,13 Jun 2027 07:35:30.129,13 Jun 2027 07:44:30.587,540.458
102,13 Jun 2027 09:08:29.138,13 Jun 2027 09:20:56.384,747.247
103,13 Jun 2027 10:44:22.366,13 Jun 2027 10:56:46.955,744.589
104,13 Jun 2027 12:24:25.196,13 Jun 2027 12:31:00.972,395.776
105,13 Jun 2027 20:47:32.177,13 Jun 2027 20:52:42.816,310.639
106,13 Jun 2027 22:21:18.177,13 Jun 2027 22:33:29.712,731.535
107,13 Jun 2027 23:57:04.452,14 Jun 2027 00:00:01.000,176.548
