dataset/facility_timing/facility_Facility-Novosib/Novosib-To-KinoSat_111403.csv

Acces,Start Time (UTCG),Stop Time (UTCG),Duration (sec)
1,1 Jun 2027 00:26:57.989,1 Jun 2027 00:39:38.149,760.160
2,1 Jun 2027 02:02:55.200,1 Jun 2027 02:15:04.445,729.246
3,1 Jun 2027 03:39:27.647,1 Jun 2027 03:47:37.492,489.845
4,1 Jun 2027 08:20:59.391,1 Jun 2027 08:25:26.834,267.444
5,1 Jun 2027 09:51:54.825,1 Jun 2027 10:02:33.320,638.496
6,1 Jun 2027 11:25:55.461,1 Jun 2027 11:38:47.579,772.118
7,1 Jun 2027 13:03:00.661,1 Jun 2027 13:14:19.580,678.919
8,1 Jun 2027 23:03:56.981,1 Jun 2027 23:13:13.410,556.429
9,2 Jun 2027 00:38:57.398,2 Jun 2027 00:51:46.082,768.684
10,2 Jun 2027 02:14:59.323,2 Jun 2027 02:26:49.914,710.591
11,2 Jun 2027 03:51:37.608,2 Jun 2027 03:59:00.393,442.786
12,2 Jun 2027 08:32:08.439,2 Jun 2027 08:37:45.287,336.848
13,2 Jun 2027 10:03:32.525,2 Jun 2027 10:14:38.931,666.406
14,2 Jun 2027 11:37:54.722,2 Jun 2027 11:50:49.063,774.342
15,2 Jun 2027 13:15:27.704,2 Jun 2027 13:26:12.168,644.465
16,2 Jun 2027 23:15:44.086,2 Jun 2027 23:25:51.026,606.940
17,3 Jun 2027 00:50:57.603,3 Jun 2027 01:03:50.926,773.324
18,3 Jun 2027 02:27:03.935,3 Jun 2027 02:38:32.715,688.781
19,3 Jun 2027 04:03:49.343,3 Jun 2027 04:10:19.596,390.253
20,3 Jun 2027 08:43:23.616,3 Jun 2027 08:49:59.386,395.770
21,3 Jun 2027 10:15:12.908,3 Jun 2027 10:26:44.003,691.095
22,3 Jun 2027 11:49:56.876,3 Jun 2027 12:02:49.905,773.029
23,3 Jun 2027 13:27:59.888,3 Jun 2027 13:38:02.246,602.358
24,3 Jun 2027 23:27:34.458,3 Jun 2027 23:38:22.653,648.195
25,4 Jun 2027 01:02:58.513,4 Jun 2027 01:15:52.789,774.276
26,4 Jun 2027 02:39:09.058,4 Jun 2027 02:50:12.841,663.784
27,4 Jun 2027 04:16:03.745,4 Jun 2027 04:21:34.284,330.538
28,4 Jun 2027 08:54:43.202,4 Jun 2027 09:02:10.925,447.723
29,4 Jun 2027 10:26:55.970,4 Jun 2027 10:38:48.567,712.596
30,4 Jun 2027 12:02:02.024,4 Jun 2027 12:14:50.032,768.009
31,4 Jun 2027 13:40:38.171,4 Jun 2027 13:49:48.953,550.782
32,4 Jun 2027 23:39:27.263,4 Jun 2027 23:50:49.225,681.961
33,5 Jun 2027 01:15:00.061,5 Jun 2027 01:27:51.764,771.703
34,5 Jun 2027 02:51:14.712,5 Jun 2027 03:01:50.273,635.561
35,5 Jun 2027 04:28:22.779,5 Jun 2027 04:32:42.582,259.803
36,5 Jun 2027 09:06:06.436,5 Jun 2027 09:14:20.750,494.314
37,5 Jun 2027 10:38:41.707,5 Jun 2027 10:50:52.643,730.936
38,5 Jun 2027 12:14:10.278,5 Jun 2027 12:26:49.353,759.076
39,5 Jun 2027 13:53:24.144,5 Jun 2027 14:01:30.790,486.645
40,5 Jun 2027 22:19:01.747,5 Jun 2027 22:20:35.072,93.325
41,5 Jun 2027 23:51:21.968,6 Jun 2027 00:03:11.349,709.381
42,6 Jun 2027 01:27:02.179,6 Jun 2027 01:39:47.930,765.751
43,6 Jun 2027 03:03:20.968,6 Jun 2027 03:13:24.977,604.008
44,6 Jun 2027 04:40:52.428,6 Jun 2027 04:43:38.603,166.175
45,6 Jun 2027 09:17:32.908,6 Jun 2027 09:26:29.327,536.419
46,6 Jun 2027 10:50:30.111,6 Jun 2027 11:02:56.237,746.126
47,6 Jun 2027 12:26:21.794,6 Jun 2027 12:38:47.744,745.951
48,6 Jun 2027 14:06:20.846,6 Jun 2027 14:13:04.833,403.987
49,6 Jun 2027 22:29:32.336,6 Jun 2027 22:34:40.994,308.658
50,7 Jun 2027 00:03:18.202,7 Jun 2027 00:15:29.467,731.265
51,7 Jun 2027 01:39:04.845,7 Jun 2027 01:51:41.339,756.494
52,7 Jun 2027 03:15:27.901,7 Jun 2027 03:24:56.889,568.988
53,7 Jun 2027 09:29:02.385,7 Jun 2027 09:38:36.937,574.552
54,7 Jun 2027 11:02:21.212,7 Jun 2027 11:14:59.333,758.120
55,7 Jun 2027 12:38:36.779,7 Jun 2027 12:50:45.049,728.270
56,7 Jun 2027 14:19:36.096,7 Jun 2027 14:24:23.386,287.290
57,7 Jun 2027 22:40:54.261,7 Jun 2027 22:47:52.408,418.147
58,8 Jun 2027 00:15:15.682,8 Jun 2027 00:27:43.908,748.226
59,8 Jun 2027 01:51:08.015,8 Jun 2027 02:03:32.035,744.020
60,8 Jun 2027 03:27:35.635,8 Jun 2027 03:36:25.926,530.292
61,8 Jun 2027 08:10:13.943,8 Jun 2027 08:13:17.171,183.228
62,8 Jun 2027 09:40:34.724,8 Jun 2027 09:50:43.766,609.042
63,8 Jun 2027 11:14:15.041,8 Jun 2027 11:27:01.910,766.870
64,8 Jun 2027 12:50:55.489,8 Jun 2027 13:02:41.057,705.568
65,8 Jun 2027 22:52:29.798,8 Jun 2027 23:00:47.163,497.365
66,9 Jun 2027 00:27:14.225,9 Jun 2027 00:39:54.922,760.697
67,9 Jun 2027 02:03:11.672,9 Jun 2027 02:15:20.034,728.362
68,9 Jun 2027 03:39:44.367,9 Jun 2027 03:47:51.938,487.570
69,9 Jun 2027 08:21:12.684,9 Jun 2027 08:25:44.350,271.666
70,9 Jun 2027 09:52:09.841,9 Jun 2027 10:02:49.933,640.092
71,9 Jun 2027 11:26:11.628,9 Jun 2027 11:39:03.951,772.324
72,9 Jun 2027 13:03:18.260,9 Jun 2027 13:14:35.495,677.235
73,9 Jun 2027 23:04:12.518,9 Jun 2027 23:13:31.817,559.299
74,10 Jun 2027 00:39:13.674,10 Jun 2027 00:52:02.689,769.014
75,10 Jun 2027 02:15:15.817,10 Jun 2027 02:27:05.362,709.545
76,10 Jun 2027 03:51:54.401,10 Jun 2027 03:59:14.664,440.263
77,10 Jun 2027 08:32:22.153,10 Jun 2027 08:38:02.471,340.317
78,10 Jun 2027 10:03:47.686,10 Jun 2027 10:14:55.510,667.823
79,10 Jun 2027 11:38:11.039,10 Jun 2027 11:51:05.400,774.360
80,10 Jun 2027 13:15:45.558,10 Jun 2027 13:26:27.962,642.404
81,10 Jun 2027 23:15:59.817,10 Jun 2027 23:26:09.091,609.275
82,11 Jun 2027 00:51:13.916,11 Jun 2027 01:04:07.370,773.455
83,11 Jun 2027 02:27:20.450,11 Jun 2027 02:38:48.026,687.575
84,11 Jun 2027 04:04:06.233,11 Jun 2027 04:10:33.663,387.430
85,11 Jun 2027 08:43:37.606,11 Jun 2027 08:50:16.387,398.782
86,11 Jun 2027 10:15:28.212,11 Jun 2027 10:27:00.550,692.338
87,11 Jun 2027 11:50:13.349,11 Jun 2027 12:03:06.203,772.854
88,11 Jun 2027 13:28:18.040,11 Jun 2027 13:38:17.881,599.841
89,11 Jun 2027 23:27:50.324,11 Jun 2027 23:38:40.437,650.113
90,12 Jun 2027 01:03:14.856,12 Jun 2027 01:16:09.083,774.227
91,12 Jun 2027 02:39:25.592,12 Jun 2027 02:50:28.011,662.419
92,12 Jun 2027 04:16:20.808,12 Jun 2027 04:21:48.090,327.282
93,12 Jun 2027 08:54:57.409,12 Jun 2027 09:02:27.804,450.395
94,12 Jun 2027 10:27:11.421,12 Jun 2027 10:39:05.082,713.660
95,12 Jun 2027 12:02:18.658,12 Jun 2027 12:15:06.286,767.629
96,12 Jun 2027 13:40:56.686,12 Jun 2027 13:50:04.368,547.681
97,12 Jun 2027 23:39:43.239,12 Jun 2027 23:51:06.760,683.521
98,13 Jun 2027 01:15:16.432,13 Jun 2027 01:28:07.908,771.476
99,13 Jun 2027 02:51:31.275,13 Jun 2027 03:02:05.302,634.027
100,13 Jun 2027 04:28:40.150,13 Jun 2027 04:32:55.983,255.833
101,13 Jun 2027 09:06:20.828,13 Jun 2027 09:14:37.550,496.722
102,13 Jun 2027 10:38:57.295,13 Jun 2027 10:51:09.130,731.835
103,13 Jun 2027 12:14:27.080,13 Jun 2027 12:27:05.557,758.477
104,13 Jun 2027 13:53:43.136,13 Jun 2027 14:01:45.874,482.738
105,13 Jun 2027 22:19:07.968,13 Jun 2027 22:21:03.430,115.462
106,13 Jun 2027 23:51:38.028,14 Jun 2027 00:00:01.000,502.972
