dataset/facility_timing/facility_Facility-Novosib/Novosib-To-KinoSat_111209.csv

Acces,Start Time (UTCG),Stop Time (UTCG),Duration (sec)
1,1 Jun 2027 01:12:54.532,1 Jun 2027 01:25:04.451,729.919
2,1 Jun 2027 02:49:26.335,1 Jun 2027 02:57:38.413,492.078
3,1 Jun 2027 07:30:58.697,1 Jun 2027 07:35:27.512,268.814
4,1 Jun 2027 09:01:54.624,1 Jun 2027 09:12:33.140,638.516
5,1 Jun 2027 10:35:55.046,1 Jun 2027 10:48:47.110,772.063
6,1 Jun 2027 12:12:59.861,1 Jun 2027 12:24:18.904,679.042
7,1 Jun 2027 22:13:57.486,1 Jun 2027 22:23:11.623,554.137
8,1 Jun 2027 23:48:57.039,2 Jun 2027 00:01:45.422,768.383
9,2 Jun 2027 01:24:58.514,2 Jun 2027 01:36:49.962,711.449
10,2 Jun 2027 03:01:36.049,2 Jun 2027 03:09:01.509,445.460
11,2 Jun 2027 07:42:07.974,2 Jun 2027 07:47:45.614,337.640
12,2 Jun 2027 09:13:32.277,2 Jun 2027 09:24:38.625,666.348
13,2 Jun 2027 10:47:54.189,2 Jun 2027 11:00:48.495,774.306
14,2 Jun 2027 12:25:26.721,2 Jun 2027 12:36:11.411,644.691
15,2 Jun 2027 22:25:44.341,2 Jun 2027 22:35:49.338,604.996
16,3 Jun 2027 00:00:57.111,3 Jun 2027 00:13:50.280,773.169
17,3 Jun 2027 01:37:02.984,3 Jun 2027 01:48:32.822,689.838
18,3 Jun 2027 03:13:47.480,3 Jun 2027 03:20:20.969,393.489
19,3 Jun 2027 07:53:23.262,3 Jun 2027 07:59:59.466,396.204
20,3 Jun 2027 09:25:12.598,3 Jun 2027 09:36:43.575,690.978
21,3 Jun 2027 10:59:56.216,3 Jun 2027 11:12:49.237,773.020
22,3 Jun 2027 12:37:58.699,3 Jun 2027 12:48:01.420,602.721
23,3 Jun 2027 22:37:34.502,3 Jun 2027 22:48:21.036,646.533
24,4 Jun 2027 00:12:57.887,4 Jun 2027 00:25:52.163,774.276
25,4 Jun 2027 01:49:07.959,4 Jun 2027 02:00:13.020,665.061
26,4 Jun 2027 03:26:01.466,4 Jun 2027 03:31:36.033,334.566
27,4 Jun 2027 08:04:42.908,4 Jun 2027 08:12:10.805,447.896
28,4 Jun 2027 09:36:55.583,4 Jun 2027 09:48:48.022,712.439
29,4 Jun 2027 11:12:01.223,4 Jun 2027 11:24:49.268,768.045
30,4 Jun 2027 12:50:36.745,4 Jun 2027 12:59:48.076,551.331
31,4 Jun 2027 22:49:27.118,4 Jun 2027 23:00:47.663,680.546
32,5 Jun 2027 00:24:59.300,5 Jun 2027 00:37:51.166,771.866
33,5 Jun 2027 02:01:13.458,5 Jun 2027 02:11:50.541,637.083
34,5 Jun 2027 03:38:19.830,5 Jun 2027 03:42:44.963,265.133
35,5 Jun 2027 08:16:06.161,5 Jun 2027 08:24:20.457,494.296
36,5 Jun 2027 09:48:41.225,5 Jun 2027 10:00:51.986,730.761
37,5 Jun 2027 11:24:09.323,5 Jun 2027 11:36:48.492,759.169
38,5 Jun 2027 13:03:22.436,5 Jun 2027 13:11:29.894,487.458
39,5 Jun 2027 21:29:14.369,5 Jun 2027 21:30:20.132,65.763
40,5 Jun 2027 23:01:21.648,5 Jun 2027 23:13:09.836,708.188
41,6 Jun 2027 00:37:01.284,6 Jun 2027 00:49:47.372,766.088
42,6 Jun 2027 02:13:19.550,6 Jun 2027 02:23:25.352,605.803
43,6 Jun 2027 03:50:47.891,6 Jun 2027 03:53:42.538,174.647
44,6 Jun 2027 08:27:32.624,6 Jun 2027 08:36:28.879,536.256
45,6 Jun 2027 10:00:29.529,6 Jun 2027 10:12:55.470,745.941
46,6 Jun 2027 11:36:20.670,6 Jun 2027 11:48:46.797,746.127
47,6 Jun 2027 13:16:18.766,6 Jun 2027 13:23:03.993,405.227
48,6 Jun 2027 21:39:34.524,6 Jun 2027 21:44:36.358,301.833
49,6 Jun 2027 23:13:17.713,6 Jun 2027 23:25:27.999,730.286
50,7 Jun 2027 00:49:03.814,7 Jun 2027 01:01:40.827,757.013
51,7 Jun 2027 02:25:26.303,7 Jun 2027 02:34:57.394,571.091
52,7 Jun 2027 08:39:02.065,7 Jun 2027 08:48:36.349,574.284
53,7 Jun 2027 10:12:20.515,7 Jun 2027 10:24:58.461,757.946
54,7 Jun 2027 11:48:35.470,7 Jun 2027 12:00:44.023,728.553
55,7 Jun 2027 13:29:33.414,7 Jun 2027 13:34:22.823,289.409
56,7 Jun 2027 21:50:55.337,7 Jun 2027 21:57:48.753,413.416
57,7 Jun 2027 23:25:15.041,7 Jun 2027 23:37:42.484,747.442
58,8 Jun 2027 01:01:06.846,8 Jun 2027 01:13:31.581,744.735
59,8 Jun 2027 02:37:33.837,8 Jun 2027 02:46:26.590,532.753
60,8 Jun 2027 07:20:13.169,8 Jun 2027 07:23:17.379,184.210
61,8 Jun 2027 08:50:34.351,8 Jun 2027 09:00:43.045,608.694
62,8 Jun 2027 10:24:14.213,8 Jun 2027 10:37:00.937,766.724
63,8 Jun 2027 12:00:53.975,8 Jun 2027 12:12:39.957,705.982
64,8 Jun 2027 22:02:30.306,8 Jun 2027 22:10:43.955,493.649
65,8 Jun 2027 23:37:13.433,8 Jun 2027 23:49:53.546,760.113
66,9 Jun 2027 01:13:10.363,9 Jun 2027 01:25:19.651,729.288
67,9 Jun 2027 02:49:42.343,9 Jun 2027 02:57:52.793,490.449
68,9 Jun 2027 07:31:12.212,9 Jun 2027 07:35:44.119,271.907
69,9 Jun 2027 09:02:09.397,9 Jun 2027 09:12:49.087,639.690
70,9 Jun 2027 10:36:10.657,9 Jun 2027 10:49:02.879,772.223
71,9 Jun 2027 12:13:16.521,9 Jun 2027 12:24:34.332,677.811
72,9 Jun 2027 22:14:12.640,9 Jun 2027 22:23:28.881,556.241
73,9 Jun 2027 23:49:12.735,10 Jun 2027 00:02:01.363,768.629
74,10 Jun 2027 01:25:14.363,10 Jun 2027 01:37:05.061,710.698
75,10 Jun 2027 03:01:52.107,10 Jun 2027 03:09:15.761,443.654
76,10 Jun 2027 07:42:21.794,10 Jun 2027 07:48:01.980,340.187
77,10 Jun 2027 09:13:47.156,10 Jun 2027 09:24:54.544,667.388
78,10 Jun 2027 10:48:09.913,10 Jun 2027 11:01:04.234,774.321
79,10 Jun 2027 12:25:43.566,10 Jun 2027 12:36:26.750,643.184
80,10 Jun 2027 22:25:59.638,10 Jun 2027 22:36:06.345,606.706
81,11 Jun 2027 00:01:12.833,11 Jun 2027 00:14:06.105,773.272
82,11 Jun 2027 01:37:18.849,11 Jun 2027 01:48:47.820,688.971
83,11 Jun 2027 03:14:03.605,11 Jun 2027 03:20:35.078,391.473
84,11 Jun 2027 07:53:37.287,11 Jun 2027 08:00:15.698,398.410
85,11 Jun 2027 09:25:27.581,11 Jun 2027 09:36:59.471,691.890
86,11 Jun 2027 11:00:12.053,11 Jun 2027 11:13:04.946,772.893
87,11 Jun 2027 12:38:15.760,11 Jun 2027 12:48:16.642,600.882
88,11 Jun 2027 22:37:49.898,11 Jun 2027 22:48:37.835,647.938
89,12 Jun 2027 00:13:13.629,12 Jun 2027 00:26:07.872,774.243
90,12 Jun 2027 01:49:23.835,12 Jun 2027 02:00:27.914,664.079
91,12 Jun 2027 03:26:17.701,12 Jun 2027 03:31:49.960,332.259
92,12 Jun 2027 08:04:57.092,12 Jun 2027 08:12:26.949,449.858
93,12 Jun 2027 09:37:10.670,12 Jun 2027 09:49:03.897,713.228
94,12 Jun 2027 11:12:17.173,12 Jun 2027 11:25:04.941,767.769
95,12 Jun 2027 12:50:54.068,12 Jun 2027 13:00:03.136,549.068
96,12 Jun 2027 22:49:42.594,12 Jun 2027 23:01:04.281,681.686
97,13 Jun 2027 00:25:15.059,13 Jun 2027 00:38:06.774,771.715
98,13 Jun 2027 02:01:29.360,13 Jun 2027 02:12:05.332,635.973
99,13 Jun 2027 03:38:36.270,13 Jun 2027 03:42:58.616,262.346
100,13 Jun 2027 08:16:20.479,13 Jun 2027 08:24:36.541,496.062
101,13 Jun 2027 09:48:56.414,13 Jun 2027 10:01:07.835,731.420
102,13 Jun 2027 11:24:25.399,13 Jun 2027 11:37:04.132,758.732
103,13 Jun 2027 13:03:40.109,13 Jun 2027 13:11:44.716,484.606
104,13 Jun 2027 21:29:19.844,13 Jun 2027 21:30:47.530,87.686
105,13 Jun 2027 23:01:37.186,13 Jun 2027 23:13:26.295,709.109
