dataset/facility_timing/facility_Facility-Novosib/Novosib-To-KinoSat_110803.csv

Acces,Start Time (UTCG),Stop Time (UTCG),Duration (sec)
1,1 Jun 2027 00:50:52.186,1 Jun 2027 00:59:32.077,519.892
2,1 Jun 2027 05:33:03.594,1 Jun 2027 05:36:47.523,223.928
3,1 Jun 2027 07:03:41.125,1 Jun 2027 07:14:02.157,621.032
4,1 Jun 2027 08:37:28.898,1 Jun 2027 08:50:18.054,769.156
5,1 Jun 2027 10:14:17.969,1 Jun 2027 10:25:54.008,696.038
6,1 Jun 2027 20:15:40.716,1 Jun 2027 20:24:16.350,515.635
7,1 Jun 2027 21:50:29.551,1 Jun 2027 22:03:12.833,763.282
8,1 Jun 2027 23:26:27.690,1 Jun 2027 23:38:31.291,723.601
9,2 Jun 2027 01:03:00.815,2 Jun 2027 01:10:57.306,476.490
10,2 Jun 2027 05:44:08.168,2 Jun 2027 05:49:09.174,301.006
11,2 Jun 2027 07:15:17.158,2 Jun 2027 07:26:07.772,650.615
12,2 Jun 2027 08:49:26.259,2 Jun 2027 09:02:19.618,773.359
13,2 Jun 2027 10:26:41.925,2 Jun 2027 10:37:47.569,665.644
14,2 Jun 2027 20:27:24.652,2 Jun 2027 20:36:58.369,573.717
15,2 Jun 2027 22:02:28.970,2 Jun 2027 22:15:19.469,770.499
16,2 Jun 2027 23:38:31.675,2 Jun 2027 23:50:15.751,704.076
17,3 Jun 2027 01:15:10.800,3 Jun 2027 01:22:19.238,428.438
18,3 Jun 2027 05:55:20.531,3 Jun 2027 06:01:24.734,364.203
19,3 Jun 2027 07:26:55.853,3 Jun 2027 07:38:12.844,676.990
20,3 Jun 2027 09:01:26.428,3 Jun 2027 09:14:20.592,774.164
21,3 Jun 2027 10:39:10.560,3 Jun 2027 10:49:38.995,628.435
22,3 Jun 2027 20:39:12.690,3 Jun 2027 20:49:33.529,620.840
23,3 Jun 2027 22:14:29.154,3 Jun 2027 22:27:23.077,773.924
24,3 Jun 2027 23:50:36.139,4 Jun 2027 00:01:57.581,681.442
25,4 Jun 2027 01:27:22.677,4 Jun 2027 01:33:37.389,374.712
26,4 Jun 2027 06:06:37.911,4 Jun 2027 06:13:37.062,419.151
27,4 Jun 2027 07:38:37.200,4 Jun 2027 07:50:17.403,700.203
28,4 Jun 2027 09:13:29.500,4 Jun 2027 09:26:20.899,771.399
29,4 Jun 2027 10:51:44.634,4 Jun 2027 11:01:27.632,582.997
30,4 Jun 2027 20:51:03.668,4 Jun 2027 21:02:03.090,659.422
31,4 Jun 2027 22:26:30.008,4 Jun 2027 22:39:23.771,773.763
32,5 Jun 2027 00:02:41.114,5 Jun 2027 00:13:36.764,655.650
33,5 Jun 2027 01:39:37.498,5 Jun 2027 01:44:50.803,313.305
34,5 Jun 2027 06:17:59.199,5 Jun 2027 06:25:47.343,468.145
35,5 Jun 2027 07:50:21.183,5 Jun 2027 08:02:21.473,720.291
36,5 Jun 2027 09:25:35.580,5 Jun 2027 09:38:20.461,764.881
37,5 Jun 2027 11:04:25.282,5 Jun 2027 11:13:12.421,527.139
38,5 Jun 2027 21:02:56.878,5 Jun 2027 21:14:27.848,690.970
39,5 Jun 2027 22:38:31.468,5 Jun 2027 22:51:21.635,770.168
40,6 Jun 2027 00:14:46.623,6 Jun 2027 00:25:13.287,626.664
41,6 Jun 2027 01:51:57.642,6 Jun 2027 01:55:57.195,239.553
42,6 Jun 2027 06:29:23.846,6 Jun 2027 06:37:56.194,512.348
43,6 Jun 2027 08:02:07.803,6 Jun 2027 08:14:25.074,737.271
44,6 Jun 2027 09:37:44.789,6 Jun 2027 09:50:19.183,754.394
45,6 Jun 2027 11:17:14.491,6 Jun 2027 11:24:51.488,456.997
46,6 Jun 2027 19:41:51.829,6 Jun 2027 19:45:00.088,188.259
47,6 Jun 2027 21:14:51.848,6 Jun 2027 21:26:48.352,716.504
48,6 Jun 2027 22:50:33.488,6 Jun 2027 23:03:16.733,763.245
49,7 Jun 2027 00:26:52.731,7 Jun 2027 00:36:47.107,594.376
50,7 Jun 2027 02:04:31.592,7 Jun 2027 02:06:48.170,136.578
51,7 Jun 2027 06:40:51.550,7 Jun 2027 06:50:03.967,552.417
52,7 Jun 2027 08:13:57.074,7 Jun 2027 08:26:28.192,751.118
53,7 Jun 2027 09:49:57.311,7 Jun 2027 10:02:16.932,739.621
54,7 Jun 2027 11:30:16.406,7 Jun 2027 11:36:20.801,364.395
55,7 Jun 2027 19:52:50.442,7 Jun 2027 19:58:36.306,345.863
56,7 Jun 2027 21:26:48.232,7 Jun 2027 21:39:04.995,736.764
57,7 Jun 2027 23:02:36.031,7 Jun 2027 23:15:09.122,753.091
58,8 Jun 2027 00:38:59.527,8 Jun 2027 00:48:18.160,558.633
59,8 Jun 2027 05:22:31.787,8 Jun 2027 05:24:23.734,111.947
60,8 Jun 2027 06:52:22.142,8 Jun 2027 07:02:10.894,588.752
61,8 Jun 2027 08:25:49.016,8 Jun 2027 08:38:30.813,761.797
62,8 Jun 2027 10:02:13.348,8 Jun 2027 10:14:13.524,720.175
63,8 Jun 2027 11:43:44.254,8 Jun 2027 11:47:27.262,223.008
64,8 Jun 2027 20:04:17.417,8 Jun 2027 20:11:41.061,443.644
65,8 Jun 2027 21:38:45.802,8 Jun 2027 21:51:18.074,752.273
66,8 Jun 2027 23:14:39.071,8 Jun 2027 23:26:58.831,739.760
67,9 Jun 2027 00:51:07.142,9 Jun 2027 00:59:46.357,519.215
68,9 Jun 2027 05:33:17.302,9 Jun 2027 05:37:02.892,225.590
69,9 Jun 2027 07:03:55.512,9 Jun 2027 07:14:17.111,621.599
70,9 Jun 2027 08:37:43.670,9 Jun 2027 08:50:32.922,769.252
71,9 Jun 2027 10:14:33.197,9 Jun 2027 10:26:08.742,695.545
72,9 Jun 2027 20:15:55.254,9 Jun 2027 20:24:31.978,516.724
73,9 Jun 2027 21:50:44.374,9 Jun 2027 22:03:27.816,763.442
74,9 Jun 2027 23:26:42.583,9 Jun 2027 23:38:45.884,723.301
75,10 Jun 2027 01:03:15.788,10 Jun 2027 01:11:11.528,475.739
76,10 Jun 2027 05:44:22.078,10 Jun 2027 05:49:24.376,302.299
77,10 Jun 2027 07:15:31.588,10 Jun 2027 07:26:22.718,651.130
78,10 Jun 2027 08:49:41.071,10 Jun 2027 09:02:34.482,773.411
79,10 Jun 2027 10:26:57.223,10 Jun 2027 10:38:02.263,665.040
80,10 Jun 2027 20:27:39.273,10 Jun 2027 20:37:13.860,574.588
81,10 Jun 2027 22:02:43.808,10 Jun 2027 22:15:34.394,770.586
82,10 Jun 2027 23:38:46.577,10 Jun 2027 23:50:30.301,703.724
83,11 Jun 2027 01:15:25.794,11 Jun 2027 01:22:33.408,427.615
84,11 Jun 2027 05:55:34.552,11 Jun 2027 06:01:39.852,365.300
85,11 Jun 2027 07:27:10.337,11 Jun 2027 07:38:27.776,677.439
86,11 Jun 2027 09:01:41.295,11 Jun 2027 09:14:35.438,774.144
87,11 Jun 2027 10:39:25.951,11 Jun 2027 10:49:53.642,627.691
88,11 Jun 2027 20:39:27.364,11 Jun 2027 20:49:48.915,621.552
89,11 Jun 2027 22:14:43.999,11 Jun 2027 22:27:37.951,773.952
90,11 Jun 2027 23:50:51.047,12 Jun 2027 00:02:12.083,681.036
91,12 Jun 2027 01:27:37.703,12 Jun 2027 01:33:51.495,373.792
92,12 Jun 2027 06:06:52.012,12 Jun 2027 06:13:52.127,420.115
93,12 Jun 2027 07:38:51.728,12 Jun 2027 07:50:32.325,700.596
94,12 Jun 2027 09:13:44.418,12 Jun 2027 09:26:35.732,771.314
95,12 Jun 2027 10:52:00.131,12 Jun 2027 11:01:42.218,582.087
96,12 Jun 2027 20:51:18.385,12 Jun 2027 21:02:18.388,660.003
97,12 Jun 2027 22:26:44.866,12 Jun 2027 22:39:38.595,773.729
98,13 Jun 2027 00:02:56.027,13 Jun 2027 00:13:51.224,655.197
99,13 Jun 2027 01:39:52.577,13 Jun 2027 01:45:04.824,312.247
100,13 Jun 2027 06:18:13.368,13 Jun 2027 06:26:02.374,469.006
101,13 Jun 2027 07:50:35.758,13 Jun 2027 08:02:36.384,720.627
102,13 Jun 2027 09:25:50.552,13 Jun 2027 09:38:35.277,764.725
103,13 Jun 2027 11:04:40.909,13 Jun 2027 11:13:26.921,526.011
104,13 Jun 2027 21:03:11.626,13 Jun 2027 21:14:43.068,691.442
105,13 Jun 2027 22:38:46.333,13 Jun 2027 22:51:36.411,770.078
