dataset/facility_timing/facility_Facility-Novosib/Novosib-To-KinoSat_110502.csv

Acces,Start Time (UTCG),Stop Time (UTCG),Duration (sec)
1,1 Jun 2027 04:17:42.628,1 Jun 2027 04:23:57.716,375.088
2,1 Jun 2027 05:49:22.554,1 Jun 2027 06:00:44.041,681.487
3,1 Jun 2027 07:23:57.015,1 Jun 2027 07:36:50.932,773.918
4,1 Jun 2027 09:01:46.496,1 Jun 2027 09:12:07.300,620.805
5,1 Jun 2027 19:01:41.312,1 Jun 2027 19:12:09.269,627.957
6,1 Jun 2027 20:36:59.510,1 Jun 2027 20:49:53.652,774.141
7,1 Jun 2027 22:13:07.114,1 Jun 2027 22:24:24.420,677.306
8,1 Jun 2027 23:49:54.907,1 Jun 2027 23:56:00.131,365.223
9,2 Jun 2027 04:29:00.821,2 Jun 2027 04:36:09.514,428.692
10,2 Jun 2027 06:01:04.365,2 Jun 2027 06:12:48.462,704.097
11,2 Jun 2027 07:36:00.588,2 Jun 2027 07:48:51.074,770.486
12,2 Jun 2027 09:14:21.601,2 Jun 2027 09:23:55.303,573.702
13,2 Jun 2027 19:13:32.679,2 Jun 2027 19:24:37.910,665.231
14,2 Jun 2027 20:49:00.436,2 Jun 2027 21:01:53.817,773.381
15,2 Jun 2027 22:25:12.128,2 Jun 2027 22:36:03.136,651.009
16,3 Jun 2027 00:02:10.294,3 Jun 2027 00:07:12.639,302.345
17,3 Jun 2027 04:40:22.770,3 Jun 2027 04:48:19.432,476.662
18,3 Jun 2027 06:12:48.802,3 Jun 2027 06:24:52.405,723.603
19,3 Jun 2027 07:48:07.180,3 Jun 2027 08:00:50.454,763.274
20,3 Jun 2027 09:27:03.544,3 Jun 2027 09:35:39.201,515.657
21,3 Jun 2027 19:25:26.179,3 Jun 2027 19:37:01.859,695.680
22,3 Jun 2027 21:01:01.955,3 Jun 2027 21:13:51.173,769.218
23,3 Jun 2027 22:37:17.690,3 Jun 2027 22:47:39.195,621.505
24,4 Jun 2027 00:14:31.654,4 Jun 2027 00:18:17.495,225.841
25,4 Jun 2027 04:51:48.001,4 Jun 2027 05:00:28.003,520.002
26,4 Jun 2027 06:24:35.876,4 Jun 2027 06:36:55.876,740.000
27,4 Jun 2027 08:00:16.926,4 Jun 2027 08:12:48.974,752.049
28,4 Jun 2027 09:39:54.566,4 Jun 2027 09:47:16.886,442.320
29,4 Jun 2027 18:04:07.431,4 Jun 2027 18:07:51.213,223.782
30,4 Jun 2027 19:37:21.374,4 Jun 2027 19:49:21.635,720.261
31,4 Jun 2027 21:13:04.027,4 Jun 2027 21:25:45.779,761.753
32,4 Jun 2027 22:49:23.858,4 Jun 2027 22:59:12.544,588.686
33,5 Jun 2027 00:27:10.469,5 Jun 2027 00:29:03.308,112.839
34,5 Jun 2027 05:03:16.242,5 Jun 2027 05:12:35.550,559.309
35,5 Jun 2027 06:36:25.598,5 Jun 2027 06:48:58.866,753.268
36,5 Jun 2027 08:12:30.012,5 Jun 2027 08:24:46.496,736.484
37,5 Jun 2027 09:52:59.530,5 Jun 2027 09:58:43.590,344.060
38,5 Jun 2027 18:15:14.038,5 Jun 2027 18:21:18.798,364.760
39,5 Jun 2027 19:49:17.935,5 Jun 2027 20:01:37.612,739.676
40,5 Jun 2027 21:25:06.614,5 Jun 2027 21:37:37.686,751.073
41,5 Jun 2027 23:01:30.732,5 Jun 2027 23:10:43.125,552.393
42,6 Jun 2027 03:44:44.865,6 Jun 2027 03:47:04.704,139.839
43,6 Jun 2027 05:14:47.337,6 Jun 2027 05:24:42.287,594.950
44,6 Jun 2027 06:48:17.997,6 Jun 2027 07:01:01.360,763.363
45,6 Jun 2027 08:24:46.661,6 Jun 2027 08:36:42.826,716.165
46,6 Jun 2027 10:06:36.573,6 Jun 2027 10:09:41.326,184.753
47,6 Jun 2027 18:26:43.375,6 Jun 2027 18:34:20.580,457.205
48,6 Jun 2027 20:01:15.649,6 Jun 2027 20:13:50.067,754.419
49,6 Jun 2027 21:37:09.695,6 Jun 2027 21:49:26.921,737.226
50,6 Jun 2027 23:13:38.451,6 Jun 2027 23:22:10.836,512.384
51,7 Jun 2027 03:55:36.551,7 Jun 2027 03:59:37.930,241.378
52,7 Jun 2027 05:26:21.188,7 Jun 2027 05:36:48.340,627.153
53,7 Jun 2027 07:00:13.100,7 Jun 2027 07:13:03.330,770.229
54,7 Jun 2027 08:37:07.173,7 Jun 2027 08:48:37.735,690.562
55,7 Jun 2027 18:38:22.438,7 Jun 2027 18:47:09.691,527.253
56,7 Jun 2027 20:13:14.336,7 Jun 2027 20:25:59.231,764.894
57,7 Jun 2027 21:49:13.245,7 Jun 2027 22:01:13.511,720.266
58,7 Jun 2027 23:25:47.236,7 Jun 2027 23:33:35.487,468.251
59,8 Jun 2027 04:06:43.173,8 Jun 2027 04:11:57.822,314.649
60,8 Jun 2027 05:37:57.733,8 Jun 2027 05:48:53.798,656.066
61,8 Jun 2027 07:12:10.965,8 Jun 2027 07:25:04.749,773.784
62,8 Jun 2027 08:49:31.933,8 Jun 2027 09:00:30.882,658.949
63,8 Jun 2027 18:50:07.208,8 Jun 2027 18:59:50.261,583.053
64,8 Jun 2027 20:25:13.866,8 Jun 2027 20:38:05.256,771.390
65,8 Jun 2027 22:01:17.279,8 Jun 2027 22:12:57.469,700.190
66,8 Jun 2027 23:37:57.442,8 Jun 2027 23:44:56.800,419.358
67,9 Jun 2027 04:17:56.713,9 Jun 2027 04:24:12.496,375.783
68,9 Jun 2027 05:49:36.936,9 Jun 2027 06:00:58.717,681.780
69,9 Jun 2027 07:24:11.658,9 Jun 2027 07:37:05.556,773.898
70,9 Jun 2027 09:02:01.502,9 Jun 2027 09:12:21.790,620.289
71,9 Jun 2027 19:01:55.814,9 Jun 2027 19:12:24.259,628.444
72,9 Jun 2027 20:37:14.135,9 Jun 2027 20:50:08.288,774.153
73,9 Jun 2027 22:13:21.787,9 Jun 2027 22:24:38.800,677.013
74,9 Jun 2027 23:50:09.680,9 Jun 2027 23:56:14.218,364.537
75,10 Jun 2027 04:29:14.956,10 Jun 2027 04:36:24.266,429.310
76,10 Jun 2027 06:01:18.778,10 Jun 2027 06:13:03.131,704.353
77,10 Jun 2027 07:36:15.267,10 Jun 2027 07:49:05.688,770.421
78,10 Jun 2027 09:14:36.680,10 Jun 2027 09:24:09.750,573.070
79,10 Jun 2027 19:13:47.210,10 Jun 2027 19:24:52.840,665.630
80,10 Jun 2027 20:49:15.069,10 Jun 2027 21:02:08.419,773.351
81,10 Jun 2027 22:25:26.805,10 Jun 2027 22:36:17.484,650.679
82,11 Jun 2027 00:02:25.112,11 Jun 2027 00:07:26.659,301.547
83,11 Jun 2027 04:40:36.945,11 Jun 2027 04:48:34.165,477.220
84,11 Jun 2027 06:13:03.247,11 Jun 2027 06:25:07.068,723.821
85,11 Jun 2027 07:48:21.895,11 Jun 2027 08:01:05.057,763.162
86,11 Jun 2027 09:27:18.717,11 Jun 2027 09:35:53.587,514.869
87,11 Jun 2027 19:25:40.732,11 Jun 2027 19:37:16.735,696.003
88,11 Jun 2027 21:01:16.593,11 Jun 2027 21:14:05.742,769.149
89,11 Jun 2027 22:37:32.375,11 Jun 2027 22:47:53.511,621.136
90,12 Jun 2027 00:14:46.569,12 Jun 2027 00:18:31.398,224.829
91,12 Jun 2027 04:52:02.214,12 Jun 2027 05:00:42.722,520.509
92,12 Jun 2027 06:24:50.353,12 Jun 2027 06:37:10.533,740.181
93,12 Jun 2027 08:00:31.680,12 Jun 2027 08:13:03.566,751.886
94,12 Jun 2027 09:40:09.871,12 Jun 2027 09:47:31.173,441.302
95,12 Jun 2027 18:04:21.132,12 Jun 2027 18:08:07.177,226.045
96,12 Jun 2027 19:37:35.945,12 Jun 2027 19:49:36.463,720.519
97,12 Jun 2027 21:13:18.670,12 Jun 2027 21:26:00.316,761.645
98,12 Jun 2027 22:49:38.547,12 Jun 2027 22:59:26.829,588.282
99,13 Jun 2027 00:27:25.818,13 Jun 2027 00:29:16.762,110.944
100,13 Jun 2027 05:03:30.489,13 Jun 2027 05:12:50.259,559.769
101,13 Jun 2027 06:36:40.106,13 Jun 2027 06:49:13.516,753.410
102,13 Jun 2027 08:12:44.807,13 Jun 2027 08:25:01.073,736.265
103,13 Jun 2027 09:53:15.063,13 Jun 2027 09:58:57.688,342.625
104,13 Jun 2027 18:15:28.213,13 Jun 2027 18:21:34.251,366.038
105,13 Jun 2027 19:49:32.521,13 Jun 2027 20:01:52.397,739.876
106,13 Jun 2027 21:25:21.262,13 Jun 2027 21:37:52.190,750.928
107,13 Jun 2027 23:01:45.428,13 Jun 2027 23:10:57.378,551.950
