dataset/facility_timing/facility_Facility-Novosib/Novosib-To-KinoSat_110205.csv

Acces,Start Time (UTCG),Stop Time (UTCG),Duration (sec)
1,1 Jun 2027 02:26:36.817,1 Jun 2027 02:33:14.697,397.880
2,1 Jun 2027 03:58:26.676,1 Jun 2027 04:09:57.934,691.258
3,1 Jun 2027 05:33:10.221,1 Jun 2027 05:46:03.162,772.940
4,1 Jun 2027 07:11:12.544,1 Jun 2027 07:21:14.896,602.352
5,1 Jun 2027 17:10:49.282,1 Jun 2027 17:21:34.148,644.866
6,1 Jun 2027 18:46:11.888,1 Jun 2027 18:59:06.144,774.256
7,1 Jun 2027 20:22:21.363,1 Jun 2027 20:33:27.737,666.375
8,1 Jun 2027 21:59:13.425,1 Jun 2027 22:04:52.450,339.025
9,2 Jun 2027 02:37:56.629,2 Jun 2027 02:45:25.696,449.067
10,2 Jun 2027 04:10:09.603,2 Jun 2027 04:22:02.194,712.590
11,2 Jun 2027 05:45:15.075,2 Jun 2027 05:58:03.040,767.964
12,2 Jun 2027 07:23:50.370,2 Jun 2027 07:33:01.401,551.031
13,2 Jun 2027 17:22:41.662,2 Jun 2027 17:34:00.756,679.094
14,2 Jun 2027 18:58:13.117,2 Jun 2027 19:11:05.128,772.011
15,2 Jun 2027 20:34:26.653,2 Jun 2027 20:45:05.327,638.674
16,2 Jun 2027 22:11:30.991,2 Jun 2027 22:16:02.086,271.095
17,3 Jun 2027 02:49:19.973,3 Jun 2027 02:57:35.067,495.094
18,3 Jun 2027 04:21:55.162,3 Jun 2027 04:34:05.981,730.820
19,3 Jun 2027 05:57:23.008,3 Jun 2027 06:10:02.111,759.104
20,3 Jun 2027 07:36:35.807,3 Jun 2027 07:44:43.087,487.280
21,3 Jun 2027 17:34:35.966,3 Jun 2027 17:46:22.910,706.944
22,3 Jun 2027 19:10:14.919,3 Jun 2027 19:23:01.329,766.410
23,3 Jun 2027 20:46:32.519,3 Jun 2027 20:56:40.232,607.713
24,3 Jun 2027 22:23:57.315,3 Jun 2027 22:27:01.318,184.003
25,4 Jun 2027 03:00:46.481,4 Jun 2027 03:09:43.237,536.756
26,4 Jun 2027 04:33:43.365,4 Jun 2027 04:46:09.293,745.928
27,4 Jun 2027 06:09:34.168,4 Jun 2027 06:22:00.270,746.102
28,4 Jun 2027 07:49:31.836,4 Jun 2027 07:56:17.082,405.246
29,4 Jun 2027 16:12:51.619,4 Jun 2027 16:17:46.113,294.495
30,4 Jun 2027 17:46:31.815,4 Jun 2027 17:58:41.056,729.241
31,4 Jun 2027 19:22:17.256,4 Jun 2027 19:34:54.794,757.538
32,4 Jun 2027 20:58:39.028,4 Jun 2027 21:08:12.398,573.370
33,5 Jun 2027 03:12:15.929,5 Jun 2027 03:21:50.478,574.549
34,5 Jun 2027 04:45:34.232,5 Jun 2027 04:58:12.113,757.881
35,5 Jun 2027 06:21:48.760,5 Jun 2027 06:33:57.356,728.596
36,5 Jun 2027 08:02:46.082,5 Jun 2027 08:07:35.891,289.809
37,5 Jun 2027 16:24:11.172,5 Jun 2027 16:30:59.509,408.337
38,5 Jun 2027 17:58:28.935,5 Jun 2027 18:10:55.534,746.600
39,5 Jun 2027 19:34:20.098,5 Jun 2027 19:46:45.575,745.477
40,5 Jun 2027 21:10:46.303,5 Jun 2027 21:19:41.752,535.449
41,6 Jun 2027 01:53:25.709,6 Jun 2027 01:56:33.079,187.369
42,6 Jun 2027 03:23:48.190,6 Jun 2027 03:33:56.968,608.777
43,6 Jun 2027 04:57:27.790,6 Jun 2027 05:10:14.438,766.647
44,6 Jun 2027 06:34:07.035,6 Jun 2027 06:45:53.161,706.127
45,6 Jun 2027 16:35:45.491,6 Jun 2027 16:43:55.120,489.629
46,6 Jun 2027 18:10:27.127,6 Jun 2027 18:23:06.588,759.461
47,6 Jun 2027 19:46:23.421,6 Jun 2027 19:58:33.690,730.269
48,6 Jun 2027 21:22:54.519,6 Jun 2027 21:31:08.151,493.632
49,7 Jun 2027 02:04:25.446,7 Jun 2027 02:08:58.940,273.494
50,7 Jun 2027 03:35:23.188,7 Jun 2027 03:46:02.808,639.620
51,7 Jun 2027 05:09:24.080,7 Jun 2027 05:22:16.217,772.138
52,7 Jun 2027 06:46:29.330,7 Jun 2027 06:57:47.413,678.083
53,7 Jun 2027 16:47:27.364,7 Jun 2027 16:56:40.272,552.908
54,7 Jun 2027 18:22:26.226,7 Jun 2027 18:35:14.417,768.192
55,7 Jun 2027 19:58:27.224,7 Jun 2027 20:10:19.159,711.935
56,7 Jun 2027 21:35:03.933,7 Jun 2027 21:42:31.381,447.448
57,8 Jun 2027 02:15:35.316,8 Jun 2027 02:21:16.331,341.015
58,8 Jun 2027 03:47:00.863,8 Jun 2027 03:58:08.079,667.215
59,8 Jun 2027 05:21:23.155,8 Jun 2027 05:34:17.427,774.271
60,8 Jun 2027 06:58:56.084,8 Jun 2027 07:09:39.725,643.641
61,8 Jun 2027 16:59:13.997,8 Jun 2027 17:09:17.879,603.882
62,8 Jun 2027 18:34:26.127,8 Jun 2027 18:47:19.176,773.049
63,8 Jun 2027 20:10:31.506,8 Jun 2027 20:22:01.998,690.491
64,8 Jun 2027 21:47:15.010,8 Jun 2027 21:53:51.055,396.045
65,9 Jun 2027 02:26:50.952,9 Jun 2027 02:33:29.704,398.752
66,9 Jun 2027 03:58:41.194,9 Jun 2027 04:10:12.828,691.634
67,9 Jun 2027 05:33:25.100,9 Jun 2027 05:46:17.996,772.896
68,9 Jun 2027 07:11:27.954,9 Jun 2027 07:21:29.533,601.578
69,9 Jun 2027 17:11:03.946,9 Jun 2027 17:21:49.470,645.524
70,9 Jun 2027 18:46:26.729,9 Jun 2027 18:59:20.972,774.242
71,9 Jun 2027 20:22:36.282,9 Jun 2027 20:33:42.193,665.911
72,9 Jun 2027 21:59:28.537,9 Jun 2027 22:05:06.445,337.909
73,10 Jun 2027 02:38:10.820,10 Jun 2027 02:45:40.675,449.855
74,10 Jun 2027 04:10:24.163,10 Jun 2027 04:22:17.085,712.922
75,10 Jun 2027 05:45:30.004,10 Jun 2027 05:58:17.855,767.851
76,10 Jun 2027 07:24:05.886,10 Jun 2027 07:33:15.976,550.090
77,10 Jun 2027 17:22:56.365,10 Jun 2027 17:34:15.996,679.631
78,10 Jun 2027 18:58:27.965,10 Jun 2027 19:11:19.914,771.950
79,10 Jun 2027 20:34:41.587,10 Jun 2027 20:45:19.735,638.148
80,10 Jun 2027 22:11:46.209,10 Jun 2027 22:16:15.947,269.738
81,11 Jun 2027 02:49:34.214,11 Jun 2027 02:57:50.023,495.809
82,11 Jun 2027 04:22:09.767,11 Jun 2027 04:34:20.859,731.093
83,11 Jun 2027 05:57:37.994,11 Jun 2027 06:10:16.917,758.923
84,11 Jun 2027 07:36:51.473,11 Jun 2027 07:44:57.566,486.092
85,11 Jun 2027 16:02:57.564,11 Jun 2027 16:03:34.342,36.778
86,11 Jun 2027 17:34:50.701,11 Jun 2027 17:46:38.080,707.380
87,11 Jun 2027 19:10:29.776,11 Jun 2027 19:23:16.062,766.286
88,11 Jun 2027 20:46:47.460,11 Jun 2027 20:56:54.597,607.137
89,11 Jun 2027 22:24:12.795,11 Jun 2027 22:27:14.891,182.096
90,12 Jun 2027 03:01:00.773,12 Jun 2027 03:09:58.178,537.406
91,12 Jun 2027 04:33:58.014,12 Jun 2027 04:46:24.164,746.150
92,12 Jun 2027 06:09:49.214,12 Jun 2027 06:22:15.062,745.848
93,12 Jun 2027 07:49:47.726,12 Jun 2027 07:56:31.390,403.664
94,12 Jun 2027 16:13:05.505,12 Jun 2027 16:18:02.460,296.954
95,12 Jun 2027 17:46:46.575,12 Jun 2027 17:58:56.164,729.589
96,12 Jun 2027 19:22:32.128,12 Jun 2027 19:35:09.487,757.360
97,12 Jun 2027 20:58:53.984,12 Jun 2027 21:08:26.715,572.731
98,13 Jun 2027 03:12:30.268,13 Jun 2027 03:22:05.408,575.139
99,13 Jun 2027 04:45:48.924,13 Jun 2027 04:58:26.985,758.060
100,13 Jun 2027 06:22:03.863,13 Jun 2027 06:34:12.126,728.263
101,13 Jun 2027 08:03:02.414,13 Jun 2027 08:07:49.807,287.393
102,13 Jun 2027 16:24:25.448,13 Jun 2027 16:31:15.413,409.965
103,13 Jun 2027 17:58:43.717,13 Jun 2027 18:11:10.578,746.861
104,13 Jun 2027 19:34:34.979,13 Jun 2027 19:47:00.218,745.239
105,13 Jun 2027 21:11:01.272,13 Jun 2027 21:19:56.020,534.747
