dataset/facility_timing/facility_Facility-Novosib/Novosib-To-KinoSat_111108.csv

Acces,Start Time (UTCG),Stop Time (UTCG),Duration (sec)
1,1 Jun 2027 00:00:01.000,1 Jun 2027 00:03:13.573,192.573
2,1 Jun 2027 01:26:30.635,1 Jun 2027 01:37:28.700,658.065
3,1 Jun 2027 03:03:26.731,1 Jun 2027 03:08:44.819,318.088
4,1 Jun 2027 07:41:53.739,1 Jun 2027 07:49:35.263,461.524
5,1 Jun 2027 09:14:12.754,1 Jun 2027 09:26:10.610,717.856
6,1 Jun 2027 10:49:24.497,1 Jun 2027 11:02:10.467,765.970
7,1 Jun 2027 12:28:09.798,1 Jun 2027 12:37:04.809,535.012
8,1 Jun 2027 22:26:46.983,1 Jun 2027 22:38:15.352,688.369
9,2 Jun 2027 00:02:21.127,2 Jun 2027 00:15:11.791,770.664
10,2 Jun 2027 01:38:36.231,2 Jun 2027 01:49:05.499,629.268
11,2 Jun 2027 03:15:46.641,2 Jun 2027 03:19:51.703,245.062
12,2 Jun 2027 07:53:17.935,2 Jun 2027 08:01:44.465,506.530
13,2 Jun 2027 09:25:59.104,2 Jun 2027 09:38:14.392,735.288
14,2 Jun 2027 11:01:33.428,2 Jun 2027 11:14:09.402,755.974
15,2 Jun 2027 12:40:57.958,2 Jun 2027 12:48:44.843,466.885
16,2 Jun 2027 21:05:50.551,2 Jun 2027 21:08:36.862,166.311
17,2 Jun 2027 22:38:41.904,2 Jun 2027 22:50:36.374,714.469
18,3 Jun 2027 00:14:23.216,3 Jun 2027 00:27:07.230,764.014
19,3 Jun 2027 01:50:42.422,3 Jun 2027 02:00:39.581,597.159
20,3 Jun 2027 03:28:19.436,3 Jun 2027 03:30:44.086,144.650
21,3 Jun 2027 08:04:45.247,3 Jun 2027 08:13:52.527,547.279
22,3 Jun 2027 09:37:48.116,3 Jun 2027 09:50:17.685,749.569
23,3 Jun 2027 11:13:45.654,3 Jun 2027 11:26:07.384,741.731
24,3 Jun 2027 12:53:58.108,3 Jun 2027 13:00:15.830,377.722
25,3 Jun 2027 21:16:43.652,3 Jun 2027 21:22:19.173,335.521
26,3 Jun 2027 22:50:38.279,3 Jun 2027 23:02:53.489,735.210
27,4 Jun 2027 00:26:25.823,4 Jun 2027 00:38:59.943,754.120
28,4 Jun 2027 02:02:49.302,4 Jun 2027 02:12:10.890,561.587
29,4 Jun 2027 06:46:38.169,4 Jun 2027 06:48:01.037,82.868
30,4 Jun 2027 08:16:15.482,4 Jun 2027 08:25:59.704,584.222
31,4 Jun 2027 09:49:39.809,4 Jun 2027 10:02:20.487,760.678
32,4 Jun 2027 11:26:01.382,4 Jun 2027 11:38:04.231,722.849
33,4 Jun 2027 13:07:21.243,4 Jun 2027 13:11:26.908,245.665
34,4 Jun 2027 21:28:09.323,4 Jun 2027 21:35:25.787,436.464
35,4 Jun 2027 23:02:35.858,4 Jun 2027 23:15:07.002,751.144
36,5 Jun 2027 00:38:28.938,5 Jun 2027 00:50:49.961,741.023
37,5 Jun 2027 02:14:57.001,5 Jun 2027 02:23:39.326,522.326
38,5 Jun 2027 06:57:15.685,5 Jun 2027 07:00:48.114,212.428
39,5 Jun 2027 08:27:48.532,5 Jun 2027 08:38:06.148,617.616
40,5 Jun 2027 10:01:34.221,5 Jun 2027 10:14:22.773,768.552
41,5 Jun 2027 11:38:20.899,5 Jun 2027 11:49:59.729,698.830
42,5 Jun 2027 21:39:46.562,5 Jun 2027 21:48:17.832,511.270
43,5 Jun 2027 23:14:34.455,5 Jun 2027 23:27:17.149,762.695
44,6 Jun 2027 00:50:32.528,6 Jun 2027 01:02:37.306,724.778
45,6 Jun 2027 02:27:05.725,6 Jun 2027 02:35:04.729,479.004
46,6 Jun 2027 07:08:18.709,6 Jun 2027 07:13:11.268,292.559
47,6 Jun 2027 08:39:24.312,6 Jun 2027 08:50:11.966,647.653
48,6 Jun 2027 10:13:31.388,6 Jun 2027 10:26:24.513,773.126
49,6 Jun 2027 11:50:44.557,6 Jun 2027 12:01:53.570,669.013
50,6 Jun 2027 21:51:30.254,6 Jun 2027 22:01:00.550,570.296
51,6 Jun 2027 23:26:33.927,6 Jun 2027 23:39:24.104,770.177
52,7 Jun 2027 01:02:36.606,7 Jun 2027 01:14:22.006,705.400
53,7 Jun 2027 02:39:15.799,7 Jun 2027 02:46:26.835,431.036
54,7 Jun 2027 07:19:30.253,7 Jun 2027 07:25:27.587,357.333
55,7 Jun 2027 08:51:02.784,7 Jun 2027 09:02:17.217,674.433
56,7 Jun 2027 10:25:31.379,7 Jun 2027 10:38:25.652,774.274
57,7 Jun 2027 12:03:12.863,7 Jun 2027 12:13:45.326,632.463
58,7 Jun 2027 22:03:18.157,7 Jun 2027 22:13:36.283,618.125
59,7 Jun 2027 23:38:34.169,7 Jun 2027 23:51:28.017,773.848
60,8 Jun 2027 01:14:41.161,8 Jun 2027 01:26:04.058,682.897
61,8 Jun 2027 02:51:27.758,8 Jun 2027 02:57:45.150,377.392
62,8 Jun 2027 07:30:47.082,8 Jun 2027 07:37:40.413,413.332
63,8 Jun 2027 09:02:43.919,8 Jun 2027 09:14:21.951,698.032
64,8 Jun 2027 10:37:34.272,8 Jun 2027 10:50:26.133,771.861
65,8 Jun 2027 12:15:46.536,8 Jun 2027 12:25:34.357,587.821
66,8 Jun 2027 22:15:09.067,8 Jun 2027 22:26:06.332,657.265
67,8 Jun 2027 23:50:35.090,9 Jun 2027 00:03:28.995,773.905
68,9 Jun 2027 01:26:46.229,9 Jun 2027 01:37:43.445,657.216
69,9 Jun 2027 03:03:42.635,9 Jun 2027 03:08:58.737,316.102
70,9 Jun 2027 07:42:07.946,9 Jun 2027 07:49:51.065,463.119
71,9 Jun 2027 09:14:27.705,9 Jun 2027 09:26:26.188,718.483
72,9 Jun 2027 10:49:40.175,9 Jun 2027 11:02:25.873,765.698
73,9 Jun 2027 12:28:26.667,9 Jun 2027 12:37:19.666,532.999
74,9 Jun 2027 22:27:02.252,9 Jun 2027 22:38:31.521,689.269
75,10 Jun 2027 00:02:36.622,10 Jun 2027 00:15:27.127,770.505
76,10 Jun 2027 01:38:51.837,10 Jun 2027 01:49:20.164,628.328
77,10 Jun 2027 03:16:02.759,10 Jun 2027 03:20:05.362,242.603
78,10 Jun 2027 07:53:32.247,10 Jun 2027 08:02:00.213,507.966
79,10 Jun 2027 09:26:14.141,10 Jun 2027 09:38:29.952,735.810
80,10 Jun 2027 11:01:49.205,10 Jun 2027 11:14:24.781,755.575
81,10 Jun 2027 12:41:15.141,10 Jun 2027 12:48:59.472,464.331
82,10 Jun 2027 21:06:02.570,10 Jun 2027 21:08:56.924,174.354
83,10 Jun 2027 22:38:57.221,10 Jun 2027 22:50:52.411,715.191
84,11 Jun 2027 00:14:38.723,11 Jun 2027 00:27:22.478,763.755
85,11 Jun 2027 01:50:58.046,11 Jun 2027 02:00:54.160,596.115
86,11 Jun 2027 03:28:36.262,11 Jun 2027 03:30:56.986,140.723
87,11 Jun 2027 08:04:59.660,11 Jun 2027 08:14:08.238,548.578
88,11 Jun 2027 09:38:03.239,11 Jun 2027 09:50:33.227,749.988
89,11 Jun 2027 11:14:01.545,11 Jun 2027 11:26:22.726,741.182
90,11 Jun 2027 12:54:15.798,11 Jun 2027 13:00:30.046,374.249
91,11 Jun 2027 21:16:57.768,11 Jun 2027 21:22:37.031,339.263
92,11 Jun 2027 22:50:53.633,11 Jun 2027 23:03:09.407,735.774
93,12 Jun 2027 00:26:41.345,12 Jun 2027 00:39:15.106,753.760
94,12 Jun 2027 02:03:04.942,12 Jun 2027 02:12:25.383,560.441
95,12 Jun 2027 06:46:49.316,12 Jun 2027 06:48:19.608,90.292
96,12 Jun 2027 08:16:29.989,12 Jun 2027 08:26:15.385,585.396
97,12 Jun 2027 09:49:55.019,12 Jun 2027 10:02:36.009,760.989
98,12 Jun 2027 11:26:17.394,12 Jun 2027 11:38:19.529,722.135
99,12 Jun 2027 13:07:40.174,12 Jun 2027 13:11:39.979,239.804
100,12 Jun 2027 21:28:23.942,12 Jun 2027 21:35:43.040,439.099
101,12 Jun 2027 23:02:51.244,12 Jun 2027 23:15:22.810,751.566
102,13 Jun 2027 00:38:44.472,13 Jun 2027 00:51:05.038,740.566
103,13 Jun 2027 02:15:12.663,13 Jun 2027 02:23:53.729,521.066
104,13 Jun 2027 06:57:28.977,13 Jun 2027 07:01:04.588,215.611
105,13 Jun 2027 08:28:03.130,13 Jun 2027 08:38:21.803,618.673
106,13 Jun 2027 10:01:49.520,13 Jun 2027 10:14:38.275,768.755
107,13 Jun 2027 11:38:37.036,13 Jun 2027 11:50:14.975,697.940
108,13 Jun 2027 21:40:01.431,13 Jun 2027 21:48:34.738,513.307
109,13 Jun 2027 23:14:49.868,13 Jun 2027 23:27:32.852,762.985
