dataset/facility_timing/facility_Facility-Novosib/Novosib-To-KinoSat_111408.csv

Acces,Start Time (UTCG),Stop Time (UTCG),Duration (sec)
1,1 Jun 2027 01:14:51.869,1 Jun 2027 01:27:43.690,771.821
2,1 Jun 2027 02:51:06.433,1 Jun 2027 03:01:42.749,636.316
3,1 Jun 2027 04:28:14.098,1 Jun 2027 04:32:35.868,261.770
4,1 Jun 2027 09:05:59.246,1 Jun 2027 09:14:12.346,493.100
5,1 Jun 2027 10:38:33.909,1 Jun 2027 10:50:44.399,730.490
6,1 Jun 2027 12:14:01.877,1 Jun 2027 12:26:41.244,759.367
7,1 Jun 2027 13:53:14.659,1 Jun 2027 14:01:23.237,488.578
8,1 Jun 2027 22:18:59.791,1 Jun 2027 22:20:19.731,79.940
9,1 Jun 2027 23:51:13.937,2 Jun 2027 00:03:02.684,708.747
10,2 Jun 2027 01:26:53.981,2 Jun 2027 01:39:39.925,765.944
11,2 Jun 2027 03:03:12.671,2 Jun 2027 03:13:17.528,604.856
12,2 Jun 2027 04:40:43.310,2 Jun 2027 04:43:32.369,169.059
13,2 Jun 2027 09:17:25.630,2 Jun 2027 09:26:20.954,535.324
14,2 Jun 2027 10:50:22.246,2 Jun 2027 11:02:48.004,745.759
15,2 Jun 2027 12:26:13.304,2 Jun 2027 12:38:39.664,746.360
16,2 Jun 2027 14:06:11.001,2 Jun 2027 14:12:57.556,406.555
17,2 Jun 2027 22:29:25.476,2 Jun 2027 22:34:30.647,305.172
18,3 Jun 2027 00:03:10.131,3 Jun 2027 00:15:20.903,730.771
19,3 Jun 2027 01:38:56.631,3 Jun 2027 01:51:33.405,756.774
20,3 Jun 2027 03:15:19.587,3 Jun 2027 03:24:49.517,569.930
21,3 Jun 2027 09:28:55.026,3 Jun 2027 09:38:28.591,573.565
22,3 Jun 2027 11:02:13.275,3 Jun 2027 11:14:51.115,757.840
23,3 Jun 2027 12:38:28.195,3 Jun 2027 12:50:37.000,728.805
24,3 Jun 2027 14:19:25.536,3 Jun 2027 14:24:16.745,291.209
25,3 Jun 2027 22:40:46.874,3 Jun 2027 22:47:42.667,415.794
26,4 Jun 2027 00:15:07.588,4 Jun 2027 00:27:35.435,747.847
27,4 Jun 2027 01:50:59.790,4 Jun 2027 02:03:24.172,744.382
28,4 Jun 2027 03:27:27.299,4 Jun 2027 03:36:18.626,531.327
29,4 Jun 2027 08:10:07.757,4 Jun 2027 08:13:07.996,180.239
30,4 Jun 2027 09:40:27.289,4 Jun 2027 09:50:35.442,608.152
31,4 Jun 2027 11:14:07.031,4 Jun 2027 11:26:53.709,766.678
32,4 Jun 2027 12:50:46.801,4 Jun 2027 13:02:33.052,706.251
33,4 Jun 2027 22:52:22.172,4 Jun 2027 23:00:37.742,495.570
34,5 Jun 2027 00:27:06.108,5 Jun 2027 00:39:46.537,760.430
35,5 Jun 2027 02:03:03.436,5 Jun 2027 02:15:12.242,728.806
36,5 Jun 2027 03:39:36.006,5 Jun 2027 03:47:44.717,488.711
37,5 Jun 2027 08:21:06.033,5 Jun 2027 08:25:35.597,269.565
38,5 Jun 2027 09:52:02.332,5 Jun 2027 10:02:41.628,639.296
39,5 Jun 2027 11:26:03.544,5 Jun 2027 11:38:55.766,772.222
40,5 Jun 2027 13:03:09.460,5 Jun 2027 13:14:27.539,678.079
41,5 Jun 2027 23:04:04.749,5 Jun 2027 23:13:22.617,557.868
42,6 Jun 2027 00:39:05.537,6 Jun 2027 00:51:54.387,768.850
43,6 Jun 2027 02:15:07.571,6 Jun 2027 02:26:57.640,710.069
44,6 Jun 2027 03:51:46.004,6 Jun 2027 03:59:07.531,441.527
45,6 Jun 2027 08:32:15.294,6 Jun 2027 08:37:53.882,338.588
46,6 Jun 2027 10:03:40.106,6 Jun 2027 10:14:47.222,667.116
47,6 Jun 2027 11:38:02.880,6 Jun 2027 11:50:57.233,774.352
48,6 Jun 2027 13:15:36.631,6 Jun 2027 13:26:20.067,643.437
49,6 Jun 2027 23:15:51.952,6 Jun 2027 23:26:00.062,608.110
50,7 Jun 2027 00:51:05.760,7 Jun 2027 01:03:59.149,773.388
51,7 Jun 2027 02:27:12.193,7 Jun 2027 02:38:40.373,688.180
52,7 Jun 2027 04:03:57.787,7 Jun 2027 04:10:26.632,388.845
53,7 Jun 2027 08:43:30.611,7 Jun 2027 08:50:07.889,397.278
54,7 Jun 2027 10:15:20.560,7 Jun 2027 10:26:52.278,691.718
55,7 Jun 2027 11:50:05.113,7 Jun 2027 12:02:58.056,772.943
56,7 Jun 2027 13:28:08.964,7 Jun 2027 13:38:10.066,601.102
57,7 Jun 2027 23:27:42.390,7 Jun 2027 23:38:31.549,649.160
58,8 Jun 2027 01:03:06.686,8 Jun 2027 01:16:00.939,774.253
59,8 Jun 2027 02:39:17.324,8 Jun 2027 02:50:20.428,663.105
60,8 Jun 2027 04:16:12.279,8 Jun 2027 04:21:41.188,328.909
61,8 Jun 2027 08:54:50.305,8 Jun 2027 09:02:19.364,449.059
62,8 Jun 2027 10:27:03.699,8 Jun 2027 10:38:56.825,713.126
63,8 Jun 2027 12:02:10.341,8 Jun 2027 12:14:58.162,767.821
64,8 Jun 2027 13:40:47.428,8 Jun 2027 13:49:56.664,549.236
65,8 Jun 2027 23:39:35.252,8 Jun 2027 23:50:57.996,682.744
66,9 Jun 2027 01:15:08.248,9 Jun 2027 01:27:59.838,771.591
67,9 Jun 2027 02:51:22.995,9 Jun 2027 03:01:57.790,634.795
68,9 Jun 2027 04:28:31.464,9 Jun 2027 04:32:49.286,257.821
69,9 Jun 2027 09:06:13.632,9 Jun 2027 09:14:29.151,495.519
70,9 Jun 2027 10:38:49.501,9 Jun 2027 10:51:00.888,731.386
71,9 Jun 2027 12:14:18.678,9 Jun 2027 12:26:57.457,758.779
72,9 Jun 2027 13:53:33.637,9 Jun 2027 14:01:38.337,484.700
73,9 Jun 2027 22:19:04.556,9 Jun 2027 22:20:49.557,105.001
74,9 Jun 2027 23:51:29.998,10 Jun 2027 00:03:20.010,710.011
75,10 Jun 2027 01:27:10.379,10 Jun 2027 01:39:55.931,765.552
76,10 Jun 2027 03:03:29.265,10 Jun 2027 03:13:32.422,603.156
77,10 Jun 2027 04:41:01.567,10 Jun 2027 04:43:44.810,163.243
78,10 Jun 2027 09:17:40.188,10 Jun 2027 09:26:37.696,537.508
79,10 Jun 2027 10:50:37.976,10 Jun 2027 11:03:04.467,746.490
80,10 Jun 2027 12:26:30.284,10 Jun 2027 12:38:55.819,745.535
81,10 Jun 2027 14:06:30.695,10 Jun 2027 14:13:12.099,401.404
82,10 Jun 2027 22:29:39.216,10 Jun 2027 22:34:51.318,312.103
83,11 Jun 2027 00:03:26.266,11 Jun 2027 00:15:38.027,731.762
84,11 Jun 2027 01:39:13.056,11 Jun 2027 01:51:49.268,756.212
85,11 Jun 2027 03:15:36.215,11 Jun 2027 03:25:04.261,568.046
86,11 Jun 2027 09:29:09.744,11 Jun 2027 09:38:45.280,575.537
87,11 Jun 2027 11:02:29.149,11 Jun 2027 11:15:07.547,758.398
88,11 Jun 2027 12:38:45.364,11 Jun 2027 12:50:53.090,727.726
89,11 Jun 2027 14:19:46.684,11 Jun 2027 14:24:29.995,283.310
90,11 Jun 2027 22:41:01.654,11 Jun 2027 22:48:02.134,420.480
91,12 Jun 2027 00:15:23.774,12 Jun 2027 00:27:52.376,748.601
92,12 Jun 2027 01:51:16.237,12 Jun 2027 02:03:39.893,743.656
93,12 Jun 2027 03:27:43.968,12 Jun 2027 03:36:33.223,529.255
94,12 Jun 2027 08:10:20.149,12 Jun 2027 08:13:26.321,186.171
95,12 Jun 2027 09:40:42.159,12 Jun 2027 09:50:52.088,609.929
96,12 Jun 2027 11:14:23.050,12 Jun 2027 11:27:10.109,767.059
97,12 Jun 2027 12:51:04.177,12 Jun 2027 13:02:49.058,704.881
98,12 Jun 2027 22:52:37.428,12 Jun 2027 23:00:56.574,499.146
99,13 Jun 2027 00:27:22.341,13 Jun 2027 00:40:03.302,760.961
100,13 Jun 2027 02:03:19.904,13 Jun 2027 02:15:27.822,727.918
101,13 Jun 2027 03:39:52.726,13 Jun 2027 03:47:59.152,486.427
102,13 Jun 2027 08:21:19.337,13 Jun 2027 08:25:53.096,273.759
103,13 Jun 2027 09:52:17.349,13 Jun 2027 10:02:58.235,640.886
104,13 Jun 2027 11:26:19.711,13 Jun 2027 11:39:12.130,772.419
105,13 Jun 2027 13:03:27.062,13 Jun 2027 13:14:43.447,676.386
106,13 Jun 2027 23:04:20.289,13 Jun 2027 23:13:41.008,560.719
