dataset/facility_timing/facility_Facility-Novosib/Novosib-To-KinoSat_110702.csv

Acces,Start Time (UTCG),Stop Time (UTCG),Duration (sec)
1,1 Jun 2027 01:05:15.052,1 Jun 2027 01:10:44.242,329.189
2,1 Jun 2027 05:43:49.607,1 Jun 2027 05:51:26.831,457.224
3,1 Jun 2027 07:16:06.375,1 Jun 2027 07:28:02.235,715.860
4,1 Jun 2027 08:51:15.512,1 Jun 2027 09:04:02.265,766.753
5,1 Jun 2027 10:29:56.653,1 Jun 2027 10:38:57.992,541.340
6,1 Jun 2027 20:28:40.028,1 Jun 2027 20:40:03.970,683.942
7,1 Jun 2027 22:04:12.707,1 Jun 2027 22:17:04.040,771.333
8,1 Jun 2027 23:40:26.825,1 Jun 2027 23:51:00.807,633.981
9,2 Jun 2027 01:17:33.474,2 Jun 2027 01:21:52.732,259.258
10,2 Jun 2027 05:55:13.507,2 Jun 2027 06:03:35.948,502.441
11,2 Jun 2027 07:27:52.360,2 Jun 2027 07:40:05.924,733.564
12,2 Jun 2027 09:03:23.950,2 Jun 2027 09:16:01.172,757.222
13,2 Jun 2027 10:42:43.561,2 Jun 2027 10:50:38.632,475.070
14,2 Jun 2027 19:08:03.915,2 Jun 2027 19:10:02.543,118.628
15,2 Jun 2027 20:40:34.581,2 Jun 2027 20:52:25.430,710.848
16,2 Jun 2027 22:16:14.572,2 Jun 2027 22:28:59.783,765.211
17,2 Jun 2027 23:52:32.759,3 Jun 2027 00:02:35.278,602.519
18,3 Jun 2027 01:30:02.122,3 Jun 2027 01:32:49.368,167.246
19,3 Jun 2027 06:06:40.523,3 Jun 2027 06:15:43.922,543.399
20,3 Jun 2027 07:39:40.991,3 Jun 2027 07:52:09.130,748.139
21,3 Jun 2027 09:15:35.649,3 Jun 2027 09:27:59.141,743.493
22,3 Jun 2027 10:55:41.839,3 Jun 2027 11:02:10.827,388.988
23,3 Jun 2027 19:18:42.967,3 Jun 2027 19:23:59.036,316.069
24,3 Jun 2027 20:52:30.632,3 Jun 2027 21:04:42.944,732.312
25,3 Jun 2027 22:28:16.974,3 Jun 2027 22:40:52.808,755.834
26,4 Jun 2027 00:04:39.350,4 Jun 2027 00:14:07.004,567.654
27,4 Jun 2027 04:48:41.829,4 Jun 2027 04:49:45.575,63.745
28,4 Jun 2027 06:18:10.444,4 Jun 2027 06:27:50.999,580.555
29,4 Jun 2027 07:51:32.286,4 Jun 2027 08:04:11.850,759.564
30,4 Jun 2027 09:27:50.806,4 Jun 2027 09:39:56.010,725.204
31,4 Jun 2027 11:09:00.872,4 Jun 2027 11:13:25.307,264.435
32,4 Jun 2027 19:30:05.801,4 Jun 2027 19:37:08.614,422.813
33,4 Jun 2027 21:04:27.916,4 Jun 2027 21:16:56.838,748.922
34,4 Jun 2027 22:40:19.871,4 Jun 2027 22:52:43.146,743.275
35,5 Jun 2027 00:16:46.725,5 Jun 2027 00:25:35.905,529.180
36,5 Jun 2027 04:59:13.628,5 Jun 2027 05:02:38.071,204.442
37,5 Jun 2027 06:29:43.164,5 Jun 2027 06:39:57.350,614.186
38,5 Jun 2027 08:03:26.277,5 Jun 2027 08:16:14.063,767.786
39,5 Jun 2027 09:40:09.702,5 Jun 2027 09:51:51.555,701.853
40,5 Jun 2027 19:41:41.595,5 Jun 2027 19:50:02.226,500.631
41,5 Jun 2027 21:16:26.239,5 Jun 2027 21:29:07.349,761.110
42,5 Jun 2027 22:52:23.246,5 Jun 2027 23:04:30.825,727.579
43,6 Jun 2027 00:28:55.068,6 Jun 2027 00:37:01.839,486.770
44,6 Jun 2027 05:10:15.776,6 Jun 2027 05:15:01.780,286.004
45,6 Jun 2027 06:41:18.601,6 Jun 2027 06:52:03.067,644.466
46,6 Jun 2027 08:15:23.008,6 Jun 2027 08:28:15.737,772.728
47,6 Jun 2027 09:52:32.668,6 Jun 2027 10:03:45.497,672.829
48,6 Jun 2027 19:53:24.349,6 Jun 2027 20:02:46.006,561.657
49,6 Jun 2027 21:28:25.456,6 Jun 2027 21:41:14.656,769.200
50,6 Jun 2027 23:04:27.101,6 Jun 2027 23:16:15.871,708.770
51,7 Jun 2027 00:41:04.668,7 Jun 2027 00:48:24.557,439.889
52,7 Jun 2027 05:21:26.824,7 Jun 2027 05:27:18.248,351.424
53,7 Jun 2027 06:52:56.713,7 Jun 2027 07:04:08.224,671.511
54,7 Jun 2027 08:27:22.538,7 Jun 2027 08:40:16.820,774.281
55,7 Jun 2027 10:05:00.198,7 Jun 2027 10:15:37.414,637.216
56,7 Jun 2027 20:05:11.562,7 Jun 2027 20:15:22.550,610.988
57,7 Jun 2027 21:40:25.451,7 Jun 2027 21:53:18.915,773.465
58,7 Jun 2027 23:16:31.431,7 Jun 2027 23:27:58.287,686.856
59,8 Jun 2027 00:53:16.005,8 Jun 2027 00:59:43.641,387.637
60,8 Jun 2027 05:32:43.259,8 Jun 2027 05:39:31.097,407.838
61,8 Jun 2027 07:04:37.471,8 Jun 2027 07:16:12.866,695.395
62,8 Jun 2027 08:39:24.945,8 Jun 2027 08:52:17.252,772.307
63,8 Jun 2027 10:17:32.964,8 Jun 2027 10:27:26.716,593.751
64,8 Jun 2027 20:17:01.928,8 Jun 2027 20:27:53.263,651.334
65,8 Jun 2027 21:52:26.137,8 Jun 2027 22:05:20.239,774.102
66,8 Jun 2027 23:28:36.259,8 Jun 2027 23:39:38.058,661.799
67,9 Jun 2027 01:05:29.967,9 Jun 2027 01:10:58.290,328.324
68,9 Jun 2027 05:44:03.767,9 Jun 2027 05:51:41.717,457.951
69,9 Jun 2027 07:16:20.864,9 Jun 2027 07:28:17.016,716.152
70,9 Jun 2027 08:51:30.327,9 Jun 2027 09:04:16.967,766.640
71,9 Jun 2027 10:30:11.996,9 Jun 2027 10:39:12.455,540.459
72,9 Jun 2027 20:28:54.661,9 Jun 2027 20:40:19.022,684.361
73,9 Jun 2027 22:04:27.444,9 Jun 2027 22:17:18.718,771.273
74,9 Jun 2027 23:40:41.619,9 Jun 2027 23:51:15.180,633.561
75,10 Jun 2027 01:17:48.464,10 Jun 2027 01:22:06.682,258.219
76,10 Jun 2027 05:55:27.716,10 Jun 2027 06:03:50.807,503.092
77,10 Jun 2027 07:28:06.891,10 Jun 2027 07:40:20.697,733.806
78,10 Jun 2027 09:03:38.816,10 Jun 2027 09:16:15.863,757.047
79,10 Jun 2027 10:42:59.044,10 Jun 2027 10:50:52.997,473.952
80,10 Jun 2027 19:08:16.337,10 Jun 2027 19:10:20.101,123.764
81,10 Jun 2027 20:40:49.240,10 Jun 2027 20:52:40.424,711.184
82,10 Jun 2027 22:16:29.322,10 Jun 2027 22:29:14.421,765.099
83,10 Jun 2027 23:52:47.555,11 Jun 2027 00:02:49.616,602.062
84,11 Jun 2027 01:30:17.335,11 Jun 2027 01:33:03.072,165.737
85,11 Jun 2027 06:06:54.768,11 Jun 2027 06:15:58.764,543.996
86,11 Jun 2027 07:39:55.561,11 Jun 2027 07:52:23.894,748.333
87,11 Jun 2027 09:15:50.563,11 Jun 2027 09:28:13.816,743.253
88,11 Jun 2027 10:55:57.536,11 Jun 2027 11:02:25.018,387.482
89,11 Jun 2027 19:18:57.029,11 Jun 2027 19:24:14.908,317.878
90,11 Jun 2027 20:52:45.309,11 Jun 2027 21:04:57.885,732.576
91,11 Jun 2027 22:28:31.726,11 Jun 2027 22:41:07.406,755.680
92,12 Jun 2027 00:04:54.152,12 Jun 2027 00:14:21.304,567.152
93,12 Jun 2027 04:48:54.088,12 Jun 2027 04:50:02.224,68.136
94,12 Jun 2027 06:18:24.734,12 Jun 2027 06:28:05.827,581.093
95,12 Jun 2027 07:51:46.895,12 Jun 2027 08:04:26.605,759.711
96,12 Jun 2027 09:28:05.772,12 Jun 2027 09:40:10.664,724.892
97,12 Jun 2027 11:09:17.050,12 Jun 2027 11:13:39.060,262.010
98,12 Jun 2027 19:30:20.127,12 Jun 2027 19:37:24.177,424.050
99,12 Jun 2027 21:04:42.607,12 Jun 2027 21:17:11.727,749.120
100,12 Jun 2027 22:40:34.628,12 Jun 2027 22:52:57.706,743.078
101,13 Jun 2027 00:17:01.535,13 Jun 2027 00:25:50.165,528.630
102,13 Jun 2027 04:59:27.342,13 Jun 2027 05:02:53.288,205.946
103,13 Jun 2027 06:29:57.495,13 Jun 2027 06:40:12.167,614.671
104,13 Jun 2027 08:03:40.925,13 Jun 2027 08:16:28.809,767.885
105,13 Jun 2027 09:40:24.725,13 Jun 2027 09:52:06.185,701.460
106,13 Jun 2027 19:41:56.045,13 Jun 2027 19:50:17.622,501.577
107,13 Jun 2027 21:16:40.943,13 Jun 2027 21:29:22.191,761.249
108,13 Jun 2027 22:52:38.008,13 Jun 2027 23:04:45.348,727.340
