dataset/facility_timing/facility_Facility-Novosib/Novosib-To-KinoSat_110707.csv

Acces,Start Time (UTCG),Stop Time (UTCG),Duration (sec)
1,1 Jun 2027 00:16:39.319,1 Jun 2027 00:25:28.779,529.460
2,1 Jun 2027 04:59:06.770,1 Jun 2027 05:02:30.464,203.694
3,1 Jun 2027 06:29:35.995,1 Jun 2027 06:39:49.941,613.946
4,1 Jun 2027 08:03:18.956,1 Jun 2027 08:16:06.691,767.736
5,1 Jun 2027 09:40:02.184,1 Jun 2027 09:51:44.240,702.056
6,1 Jun 2027 19:41:34.371,1 Jun 2027 19:49:54.524,500.152
7,1 Jun 2027 21:16:18.890,1 Jun 2027 21:28:59.926,761.035
8,1 Jun 2027 22:52:15.866,1 Jun 2027 23:04:23.564,727.698
9,2 Jun 2027 00:28:47.651,2 Jun 2027 00:36:54.726,487.075
10,2 Jun 2027 05:10:08.813,2 Jun 2027 05:14:54.263,285.450
11,2 Jun 2027 06:41:11.413,2 Jun 2027 06:51:55.662,644.250
12,2 Jun 2027 08:15:15.663,2 Jun 2027 08:28:08.366,772.703
13,2 Jun 2027 09:52:25.123,2 Jun 2027 10:03:38.192,673.069
14,2 Jun 2027 19:53:17.084,2 Jun 2027 20:02:38.362,561.278
15,2 Jun 2027 21:28:18.097,2 Jun 2027 21:41:07.254,769.157
16,2 Jun 2027 23:04:19.713,2 Jun 2027 23:16:08.627,708.914
17,3 Jun 2027 00:40:57.242,3 Jun 2027 00:48:17.471,440.229
18,3 Jun 2027 05:21:19.810,3 Jun 2027 05:27:10.770,350.960
19,3 Jun 2027 06:52:49.505,3 Jun 2027 07:04:00.825,671.320
20,3 Jun 2027 08:27:15.172,3 Jun 2027 08:40:09.455,774.283
21,3 Jun 2027 10:04:52.617,3 Jun 2027 10:15:30.128,637.510
22,3 Jun 2027 20:05:04.276,3 Jun 2027 20:15:14.952,610.676
23,3 Jun 2027 21:40:18.093,3 Jun 2027 21:53:11.540,773.447
24,3 Jun 2027 23:16:24.042,3 Jun 2027 23:27:51.060,687.017
25,4 Jun 2027 00:53:08.570,4 Jun 2027 00:59:36.585,388.016
26,4 Jun 2027 05:32:36.209,4 Jun 2027 05:39:23.639,407.430
27,4 Jun 2027 07:04:30.244,4 Jun 2027 07:16:05.472,695.227
28,4 Jun 2027 08:39:17.558,4 Jun 2027 08:52:09.894,772.336
29,4 Jun 2027 10:17:25.341,4 Jun 2027 10:27:19.454,594.113
30,4 Jun 2027 20:16:54.624,4 Jun 2027 20:27:45.704,651.080
31,4 Jun 2027 21:52:18.770,4 Jun 2027 22:05:12.885,774.114
32,4 Jun 2027 23:28:28.868,4 Jun 2027 23:39:30.856,661.988
33,5 Jun 2027 01:05:22.515,5 Jun 2027 01:10:51.267,328.751
34,5 Jun 2027 05:43:56.686,5 Jun 2027 05:51:34.273,457.587
35,5 Jun 2027 07:16:13.620,5 Jun 2027 07:28:09.626,716.006
36,5 Jun 2027 08:51:22.922,5 Jun 2027 09:04:09.619,766.697
37,5 Jun 2027 10:30:04.324,5 Jun 2027 10:39:05.226,540.903
38,5 Jun 2027 20:28:47.343,5 Jun 2027 20:40:11.494,684.152
39,5 Jun 2027 22:04:20.075,5 Jun 2027 22:17:11.379,771.304
40,5 Jun 2027 23:40:34.225,5 Jun 2027 23:51:07.993,633.767
41,6 Jun 2027 01:17:40.970,6 Jun 2027 01:21:59.707,258.737
42,6 Jun 2027 05:55:20.615,6 Jun 2027 06:03:43.378,502.764
43,6 Jun 2027 07:27:59.626,6 Jun 2027 07:40:13.311,733.685
44,6 Jun 2027 09:03:31.384,6 Jun 2027 09:16:08.519,757.135
45,6 Jun 2027 10:42:51.303,6 Jun 2027 10:50:45.817,474.513
46,6 Jun 2027 19:08:10.107,6 Jun 2027 19:10:11.342,121.235
47,6 Jun 2027 20:40:41.911,6 Jun 2027 20:52:32.928,711.017
48,6 Jun 2027 22:16:21.949,6 Jun 2027 22:29:07.103,765.155
49,6 Jun 2027 23:52:40.159,7 Jun 2027 00:02:42.448,602.289
50,7 Jun 2027 01:30:09.732,7 Jun 2027 01:32:56.218,166.486
51,7 Jun 2027 06:06:47.649,7 Jun 2027 06:15:51.343,543.694
52,7 Jun 2027 07:39:48.277,7 Jun 2027 07:52:16.513,748.236
53,7 Jun 2027 09:15:43.106,7 Jun 2027 09:28:06.480,743.374
54,7 Jun 2027 10:55:49.687,7 Jun 2027 11:02:17.926,388.238
55,7 Jun 2027 19:18:49.996,7 Jun 2027 19:24:06.976,316.980
56,7 Jun 2027 20:52:37.971,7 Jun 2027 21:04:50.415,732.445
57,7 Jun 2027 22:28:24.351,7 Jun 2027 22:41:00.108,755.757
58,8 Jun 2027 00:04:46.753,8 Jun 2027 00:14:14.154,567.401
59,8 Jun 2027 04:48:47.953,8 Jun 2027 04:49:53.907,65.954
60,8 Jun 2027 06:18:17.590,8 Jun 2027 06:27:58.413,580.822
61,8 Jun 2027 07:51:39.591,8 Jun 2027 08:04:19.228,759.637
62,8 Jun 2027 09:27:58.290,8 Jun 2027 09:40:03.339,725.049
63,8 Jun 2027 11:09:08.958,8 Jun 2027 11:13:32.189,263.232
64,8 Jun 2027 19:30:12.962,8 Jun 2027 19:37:16.398,423.436
65,8 Jun 2027 21:04:35.261,8 Jun 2027 21:17:04.283,749.022
66,8 Jun 2027 22:40:27.250,8 Jun 2027 22:52:50.427,743.176
67,9 Jun 2027 00:16:54.132,9 Jun 2027 00:25:43.034,528.903
68,9 Jun 2027 04:59:20.489,9 Jun 2027 05:02:45.676,205.186
69,9 Jun 2027 06:29:50.331,9 Jun 2027 06:40:04.758,614.427
70,9 Jun 2027 08:03:33.602,9 Jun 2027 08:16:21.437,767.835
71,9 Jun 2027 09:40:17.213,9 Jun 2027 09:51:58.871,701.657
72,9 Jun 2027 19:41:48.818,9 Jun 2027 19:50:09.926,501.107
73,9 Jun 2027 21:16:33.591,9 Jun 2027 21:29:14.771,761.180
74,9 Jun 2027 22:52:30.627,9 Jun 2027 23:04:38.086,727.459
75,10 Jun 2027 00:29:02.481,10 Jun 2027 00:37:08.947,486.467
76,10 Jun 2027 05:10:22.736,10 Jun 2027 05:15:09.298,286.562
77,10 Jun 2027 06:41:25.787,10 Jun 2027 06:52:10.470,644.682
78,10 Jun 2027 08:15:30.352,10 Jun 2027 08:28:23.105,772.752
79,10 Jun 2027 09:52:40.211,10 Jun 2027 10:03:52.799,672.588
80,10 Jun 2027 19:53:31.609,10 Jun 2027 20:02:53.646,562.037
81,10 Jun 2027 21:28:32.812,10 Jun 2027 21:41:22.054,769.242
82,10 Jun 2027 23:04:34.485,10 Jun 2027 23:16:23.114,708.628
83,11 Jun 2027 00:41:12.088,11 Jun 2027 00:48:31.644,439.556
84,11 Jun 2027 05:21:33.833,11 Jun 2027 05:27:25.727,351.894
85,11 Jun 2027 06:53:03.918,11 Jun 2027 07:04:15.622,671.704
86,11 Jun 2027 08:27:29.903,11 Jun 2027 08:40:24.182,774.279
87,11 Jun 2027 10:05:07.777,11 Jun 2027 10:15:44.696,636.920
88,11 Jun 2027 20:05:18.848,11 Jun 2027 20:15:30.145,611.297
89,11 Jun 2027 21:40:32.815,11 Jun 2027 21:53:26.297,773.482
90,11 Jun 2027 23:16:38.817,11 Jun 2027 23:28:05.509,686.692
91,12 Jun 2027 00:53:23.437,12 Jun 2027 00:59:50.707,387.270
92,12 Jun 2027 05:32:50.302,12 Jun 2027 05:39:38.550,408.247
93,12 Jun 2027 07:04:44.696,12 Jun 2027 07:16:20.260,695.564
94,12 Jun 2027 08:39:32.332,12 Jun 2027 08:52:24.610,772.278
95,12 Jun 2027 10:17:40.583,12 Jun 2027 10:27:33.976,593.393
96,12 Jun 2027 20:17:09.233,12 Jun 2027 20:28:00.820,651.587
97,12 Jun 2027 21:52:33.502,12 Jun 2027 22:05:27.600,774.098
98,12 Jun 2027 23:28:43.647,12 Jun 2027 23:39:45.268,661.621
99,13 Jun 2027 01:05:37.421,13 Jun 2027 01:11:05.323,327.903
100,13 Jun 2027 05:44:10.835,13 Jun 2027 05:51:49.155,458.320
101,13 Jun 2027 07:16:28.110,13 Jun 2027 07:28:24.406,716.296
102,13 Jun 2027 08:51:37.740,13 Jun 2027 09:04:24.322,766.582
103,13 Jun 2027 10:30:19.670,13 Jun 2027 10:39:19.682,540.013
104,13 Jun 2027 20:29:01.980,13 Jun 2027 20:40:26.545,684.565
105,13 Jun 2027 22:04:34.813,13 Jun 2027 22:17:26.054,771.240
106,13 Jun 2027 23:40:49.010,13 Jun 2027 23:51:22.368,633.358
