dataset/facility_timing/facility_Facility-Novosib/Novosib-To-KinoSat_112010.csv

Acces,Start Time (UTCG),Stop Time (UTCG),Duration (sec)
1,1 Jun 2027 02:09:09.588,1 Jun 2027 02:20:27.434,677.847
2,1 Jun 2027 03:44:42.004,1 Jun 2027 03:57:34.342,772.338
3,1 Jun 2027 05:20:56.987,1 Jun 2027 05:31:36.093,639.107
4,1 Jun 2027 06:58:05.536,1 Jun 2027 07:02:30.867,265.331
5,1 Jun 2027 11:35:56.970,1 Jun 2027 11:43:59.313,482.344
6,1 Jun 2027 13:08:26.843,1 Jun 2027 13:20:33.729,726.887
7,1 Jun 2027 14:43:50.719,1 Jun 2027 14:56:32.327,761.608
8,1 Jun 2027 16:22:56.072,1 Jun 2027 16:31:19.097,503.025
9,2 Jun 2027 02:21:04.338,2 Jun 2027 02:32:50.549,706.210
10,2 Jun 2027 03:56:44.366,2 Jun 2027 04:09:31.142,766.776
11,2 Jun 2027 05:33:03.544,2 Jun 2027 05:43:11.224,607.680
12,2 Jun 2027 07:10:35.156,2 Jun 2027 07:13:27.434,172.279
13,2 Jun 2027 11:47:22.615,2 Jun 2027 11:56:08.642,526.027
14,2 Jun 2027 13:20:14.828,2 Jun 2027 13:32:37.767,742.940
15,2 Jun 2027 14:56:01.826,2 Jun 2027 15:08:31.236,749.410
16,2 Jun 2027 16:35:50.456,2 Jun 2027 16:42:55.557,425.101
17,3 Jun 2027 00:59:19.928,3 Jun 2027 01:04:11.592,291.664
18,3 Jun 2027 02:33:00.672,3 Jun 2027 02:45:09.560,728.888
19,3 Jun 2027 04:08:47.277,3 Jun 2027 04:21:25.141,757.864
20,3 Jun 2027 05:45:10.800,3 Jun 2027 05:54:43.515,572.715
21,3 Jun 2027 11:58:51.391,3 Jun 2027 12:08:16.900,565.509
22,3 Jun 2027 13:32:05.538,3 Jun 2027 13:44:41.300,755.762
23,3 Jun 2027 15:08:16.391,3 Jun 2027 15:20:29.080,732.690
24,3 Jun 2027 16:49:00.835,3 Jun 2027 16:54:19.087,318.252
25,4 Jun 2027 01:10:39.403,4 Jun 2027 01:17:26.643,407.241
26,4 Jun 2027 02:44:58.294,4 Jun 2027 02:57:24.819,746.524
27,4 Jun 2027 04:20:50.709,4 Jun 2027 04:33:16.389,745.680
28,4 Jun 2027 05:57:18.870,4 Jun 2027 06:06:12.883,534.013
29,4 Jun 2027 10:40:17.003,4 Jun 2027 10:42:45.553,148.550
30,4 Jun 2027 12:10:23.120,4 Jun 2027 12:20:24.310,601.190
31,4 Jun 2027 13:43:59.003,4 Jun 2027 13:56:44.314,765.311
32,4 Jun 2027 15:20:34.656,4 Jun 2027 15:32:25.677,711.021
33,4 Jun 2027 17:02:57.658,4 Jun 2027 17:04:59.387,121.729
34,5 Jun 2027 01:22:14.035,5 Jun 2027 01:30:23.447,489.412
35,5 Jun 2027 02:56:57.009,5 Jun 2027 03:09:36.588,759.578
36,5 Jun 2027 04:32:54.639,5 Jun 2027 04:45:04.900,730.261
37,5 Jun 2027 06:09:27.959,5 Jun 2027 06:17:39.171,491.213
38,5 Jun 2027 10:51:09.320,5 Jun 2027 10:55:19.112,249.792
39,5 Jun 2027 12:21:57.698,5 Jun 2027 12:32:31.005,633.307
40,5 Jun 2027 13:55:55.253,5 Jun 2027 14:08:46.781,771.528
41,5 Jun 2027 15:32:56.949,5 Jun 2027 15:44:20.756,683.807
42,6 Jun 2027 01:33:56.356,6 Jun 2027 01:43:09.597,553.241
43,6 Jun 2027 03:08:56.656,6 Jun 2027 03:21:45.051,768.395
44,6 Jun 2027 04:44:59.073,6 Jun 2027 04:56:50.703,711.630
45,6 Jun 2027 06:21:38.368,6 Jun 2027 06:29:02.114,443.746
46,6 Jun 2027 11:02:16.253,6 Jun 2027 11:07:39.729,323.475
47,6 Jun 2027 12:33:35.063,6 Jun 2027 12:44:37.078,662.015
48,6 Jun 2027 14:07:54.348,6 Jun 2027 14:20:48.666,774.318
49,6 Jun 2027 15:45:23.694,6 Jun 2027 15:56:13.944,650.250
50,7 Jun 2027 01:45:43.495,7 Jun 2027 01:55:48.076,604.580
51,7 Jun 2027 03:20:57.118,7 Jun 2027 03:33:50.379,773.262
52,7 Jun 2027 04:57:03.999,7 Jun 2027 05:08:33.801,689.801
53,7 Jun 2027 06:33:50.609,7 Jun 2027 06:40:21.273,390.664
54,7 Jun 2027 11:13:30.185,7 Jun 2027 11:19:55.138,384.953
55,7 Jun 2027 12:45:15.160,7 Jun 2027 12:56:42.587,687.427
56,7 Jun 2027 14:19:56.360,7 Jun 2027 14:32:49.905,773.546
57,7 Jun 2027 15:57:55.521,7 Jun 2027 16:08:04.704,609.183
58,8 Jun 2027 01:57:33.979,8 Jun 2027 02:08:20.453,646.475
59,8 Jun 2027 03:32:58.289,8 Jun 2027 03:45:52.693,774.404
60,8 Jun 2027 05:09:09.449,8 Jun 2027 05:20:14.177,664.728
61,8 Jun 2027 06:46:05.634,8 Jun 2027 06:51:35.764,330.131
62,8 Jun 2027 11:24:48.911,8 Jun 2027 11:32:07.616,438.704
63,8 Jun 2027 12:56:57.983,8 Jun 2027 13:08:47.569,709.586
64,8 Jun 2027 14:32:01.383,8 Jun 2027 14:44:50.440,769.057
65,8 Jun 2027 16:10:33.334,8 Jun 2027 16:19:52.223,558.890
66,9 Jun 2027 02:09:26.956,9 Jun 2027 02:20:47.679,680.724
67,9 Jun 2027 03:45:00.113,9 Jun 2027 03:57:52.075,771.962
68,9 Jun 2027 05:21:15.455,9 Jun 2027 05:31:51.822,636.367
69,9 Jun 2027 06:58:25.514,9 Jun 2027 07:02:43.616,258.101
70,9 Jun 2027 11:36:11.490,9 Jun 2027 11:44:18.191,486.702
71,9 Jun 2027 13:08:43.510,9 Jun 2027 13:20:52.049,728.539
72,9 Jun 2027 14:44:09.525,9 Jun 2027 14:56:50.169,760.644
73,9 Jun 2027 16:23:18.618,9 Jun 2027 16:31:35.104,496.486
74,10 Jun 2027 00:49:08.995,10 Jun 2027 00:50:24.275,75.280
75,10 Jun 2027 02:21:21.864,10 Jun 2027 02:33:10.393,708.530
76,10 Jun 2027 03:57:02.518,10 Jun 2027 04:09:48.612,766.094
77,10 Jun 2027 05:33:22.075,10 Jun 2027 05:43:26.689,604.615
78,10 Jun 2027 07:10:56.808,10 Jun 2027 07:13:38.356,161.549
79,10 Jun 2027 11:47:37.448,10 Jun 2027 11:56:27.400,529.951
80,10 Jun 2027 13:20:31.752,10 Jun 2027 13:32:56.038,744.286
81,10 Jun 2027 14:56:20.952,10 Jun 2027 15:08:48.979,748.028
82,10 Jun 2027 16:36:14.156,10 Jun 2027 16:43:10.698,416.543
83,11 Jun 2027 00:59:33.032,11 Jun 2027 01:04:37.686,304.654
84,11 Jun 2027 02:33:18.325,11 Jun 2027 02:45:29.043,730.718
85,11 Jun 2027 04:09:05.479,11 Jun 2027 04:21:42.354,756.874
86,11 Jun 2027 05:45:29.394,11 Jun 2027 05:54:58.714,569.320
87,11 Jun 2027 11:59:06.515,11 Jun 2027 12:08:35.570,569.055
88,11 Jun 2027 13:32:22.714,11 Jun 2027 13:44:59.519,756.805
89,11 Jun 2027 15:08:35.852,11 Jun 2027 15:20:46.716,730.865
90,11 Jun 2027 16:49:26.710,11 Jun 2027 16:54:32.341,305.631
91,12 Jun 2027 01:10:54.542,12 Jun 2027 01:17:50.405,415.864
92,12 Jun 2027 02:45:16.052,12 Jun 2027 02:57:43.967,747.915
93,12 Jun 2027 04:21:08.955,12 Jun 2027 04:33:33.346,744.391
94,12 Jun 2027 05:57:37.543,12 Jun 2027 06:06:27.805,530.262
95,12 Jun 2027 10:40:27.184,12 Jun 2027 10:43:07.941,160.757
96,12 Jun 2027 12:10:38.514,12 Jun 2027 12:20:42.900,604.386
97,12 Jun 2027 13:44:16.439,12 Jun 2027 13:57:02.480,766.040
98,12 Jun 2027 15:20:54.478,12 Jun 2027 15:32:43.175,708.697
99,12 Jun 2027 17:03:38.597,12 Jun 2027 17:04:57.876,79.279
100,13 Jun 2027 01:22:30.074,13 Jun 2027 01:30:46.027,495.953
101,13 Jun 2027 02:57:14.856,13 Jun 2027 03:09:55.419,760.563
102,13 Jun 2027 04:33:12.928,13 Jun 2027 04:45:21.603,728.675
103,13 Jun 2027 06:09:46.733,13 Jun 2027 06:17:53.801,487.068
104,13 Jun 2027 10:51:21.765,13 Jun 2027 10:55:39.385,257.621
105,13 Jun 2027 12:22:13.356,13 Jun 2027 12:32:49.529,636.172
106,13 Jun 2027 13:56:12.952,13 Jun 2027 14:09:04.890,771.938
107,13 Jun 2027 15:33:17.164,13 Jun 2027 15:44:38.091,680.927
