dataset/facility_timing/facility_Facility-Novosib/Novosib-To-KinoSat_110207.csv

Acces,Start Time (UTCG),Stop Time (UTCG),Duration (sec)
1,1 Jun 2027 02:08:41.338,1 Jun 2027 02:13:42.477,301.139
2,1 Jun 2027 03:39:50.379,1 Jun 2027 03:50:41.055,650.676
3,1 Jun 2027 05:13:59.529,1 Jun 2027 05:26:52.894,773.365
4,1 Jun 2027 06:51:15.253,1 Jun 2027 07:02:20.829,665.575
5,1 Jun 2027 16:51:57.888,1 Jun 2027 17:01:31.728,573.840
6,1 Jun 2027 18:27:02.240,1 Jun 2027 18:39:52.753,770.513
7,1 Jun 2027 20:03:04.959,1 Jun 2027 20:14:48.984,704.025
8,1 Jun 2027 21:39:44.106,1 Jun 2027 21:46:52.414,428.308
9,2 Jun 2027 02:19:53.720,2 Jun 2027 02:25:58.018,364.298
10,2 Jun 2027 03:51:29.085,2 Jun 2027 04:02:46.121,677.035
11,2 Jun 2027 05:25:59.702,2 Jun 2027 05:38:53.865,774.162
12,2 Jun 2027 07:03:43.894,2 Jun 2027 07:14:12.253,628.359
13,2 Jun 2027 17:03:45.928,2 Jun 2027 17:14:06.873,620.945
14,2 Jun 2027 18:39:02.424,2 Jun 2027 18:51:56.352,773.928
15,2 Jun 2027 20:15:09.425,2 Jun 2027 20:26:30.805,681.380
16,2 Jun 2027 21:51:55.997,2 Jun 2027 21:58:10.546,374.549
17,3 Jun 2027 02:31:11.114,3 Jun 2027 02:38:10.334,419.221
18,3 Jun 2027 04:03:10.437,3 Jun 2027 04:14:50.676,700.238
19,3 Jun 2027 05:38:02.778,3 Jun 2027 05:50:54.171,771.392
20,3 Jun 2027 07:16:17.973,3 Jun 2027 07:26:00.888,582.915
21,3 Jun 2027 17:15:36.908,3 Jun 2027 17:26:36.420,659.512
22,3 Jun 2027 18:51:03.279,3 Jun 2027 19:03:57.037,773.758
23,3 Jun 2027 20:27:14.403,3 Jun 2027 20:38:09.978,655.576
24,3 Jun 2027 22:04:10.840,3 Jun 2027 22:09:23.934,313.094
25,4 Jun 2027 02:42:32.410,4 Jun 2027 02:50:20.606,468.196
26,4 Jun 2027 04:14:54.425,4 Jun 2027 04:26:54.742,720.317
27,4 Jun 2027 05:50:08.861,4 Jun 2027 06:02:53.731,764.870
28,4 Jun 2027 07:28:58.626,4 Jun 2027 07:37:45.675,527.050
29,4 Jun 2027 17:27:30.120,4 Jun 2027 17:39:01.166,691.046
30,4 Jun 2027 19:03:04.739,4 Jun 2027 19:15:54.893,770.155
31,4 Jun 2027 20:39:19.917,4 Jun 2027 20:49:46.492,626.575
32,4 Jun 2027 22:16:31.026,4 Jun 2027 22:20:30.280,239.254
33,5 Jun 2027 02:53:57.066,5 Jun 2027 03:02:29.451,512.385
34,5 Jun 2027 04:26:41.050,5 Jun 2027 04:38:58.340,737.290
35,5 Jun 2027 06:02:18.073,5 Jun 2027 06:14:52.452,754.379
36,5 Jun 2027 07:41:47.841,5 Jun 2027 07:49:24.740,456.899
37,5 Jun 2027 16:06:24.798,5 Jun 2027 16:09:33.707,188.909
38,5 Jun 2027 17:39:25.091,5 Jun 2027 17:51:21.659,716.568
39,5 Jun 2027 19:15:06.761,5 Jun 2027 19:27:49.983,763.222
40,5 Jun 2027 20:51:26.030,5 Jun 2027 21:01:20.301,594.271
41,5 Jun 2027 22:29:05.106,5 Jun 2027 22:31:21.119,136.013
42,6 Jun 2027 03:05:24.775,6 Jun 2027 03:14:37.219,552.444
43,6 Jun 2027 04:38:30.324,6 Jun 2027 04:51:01.456,751.132
44,6 Jun 2027 06:14:30.598,6 Jun 2027 06:26:50.201,739.603
45,6 Jun 2027 07:54:49.766,6 Jun 2027 08:00:54.048,364.282
46,6 Jun 2027 16:17:23.561,6 Jun 2027 16:23:09.761,346.200
47,6 Jun 2027 17:51:21.477,6 Jun 2027 18:03:38.292,736.816
48,6 Jun 2027 19:27:09.305,6 Jun 2027 19:39:42.363,753.058
49,6 Jun 2027 21:03:32.833,6 Jun 2027 21:12:51.342,558.509
50,7 Jun 2027 01:47:05.069,7 Jun 2027 01:48:56.902,111.832
51,7 Jun 2027 03:16:55.372,7 Jun 2027 03:26:44.142,588.770
52,7 Jun 2027 04:50:22.269,7 Jun 2027 05:03:04.076,761.807
53,7 Jun 2027 06:26:46.637,7 Jun 2027 06:38:46.794,720.157
54,7 Jun 2027 08:08:17.641,7 Jun 2027 08:12:00.488,222.847
55,7 Jun 2027 16:28:50.575,7 Jun 2027 16:36:14.466,443.891
56,7 Jun 2027 18:03:19.049,7 Jun 2027 18:15:51.362,752.313
57,7 Jun 2027 19:39:12.348,7 Jun 2027 19:51:32.064,739.716
58,7 Jun 2027 21:15:40.458,7 Jun 2027 21:24:19.525,519.067
59,8 Jun 2027 01:57:50.563,8 Jun 2027 02:01:36.082,225.519
60,8 Jun 2027 03:28:28.746,8 Jun 2027 03:38:50.356,621.610
61,8 Jun 2027 05:02:16.926,8 Jun 2027 05:15:06.184,769.258
62,8 Jun 2027 06:39:06.488,8 Jun 2027 06:50:42.015,695.527
63,8 Jun 2027 16:40:28.431,8 Jun 2027 16:49:05.353,516.922
64,8 Jun 2027 18:15:17.623,8 Jun 2027 18:28:01.095,763.472
65,8 Jun 2027 19:51:15.864,8 Jun 2027 20:03:19.108,723.245
66,8 Jun 2027 21:27:49.117,8 Jun 2027 21:35:44.678,475.561
67,9 Jun 2027 02:08:55.335,9 Jun 2027 02:13:57.571,302.236
68,9 Jun 2027 03:40:04.826,9 Jun 2027 03:50:55.962,651.136
69,9 Jun 2027 05:14:14.330,9 Jun 2027 05:27:07.745,773.415
70,9 Jun 2027 06:51:30.515,9 Jun 2027 07:02:35.538,665.023
71,9 Jun 2027 16:52:12.463,9 Jun 2027 17:01:47.214,574.751
72,9 Jun 2027 18:27:17.059,9 Jun 2027 18:40:07.664,770.605
73,9 Jun 2027 20:03:19.862,9 Jun 2027 20:15:03.516,703.654
74,9 Jun 2027 21:39:59.139,9 Jun 2027 21:47:06.538,427.398
75,10 Jun 2027 02:20:07.807,10 Jun 2027 02:26:13.049,365.241
76,10 Jun 2027 03:51:43.577,10 Jun 2027 04:03:01.019,677.441
77,10 Jun 2027 05:26:14.556,10 Jun 2027 05:39:08.702,774.146
78,10 Jun 2027 07:03:59.244,10 Jun 2027 07:14:26.922,627.678
79,10 Jun 2027 17:04:00.562,10 Jun 2027 17:14:22.252,621.690
80,10 Jun 2027 18:39:17.253,10 Jun 2027 18:52:11.213,773.960
81,10 Jun 2027 20:15:24.338,10 Jun 2027 20:26:45.288,680.950
82,10 Jun 2027 21:52:11.073,10 Jun 2027 21:58:24.596,373.522
83,11 Jun 2027 02:31:25.267,11 Jun 2027 02:38:25.326,420.059
84,11 Jun 2027 04:03:24.972,11 Jun 2027 04:15:05.567,700.596
85,11 Jun 2027 05:38:17.681,11 Jun 2027 05:51:08.997,771.316
86,11 Jun 2027 07:16:33.423,11 Jun 2027 07:26:15.504,582.081
87,11 Jun 2027 17:15:51.590,11 Jun 2027 17:26:51.710,660.120
88,11 Jun 2027 18:51:18.124,11 Jun 2027 19:04:11.849,773.725
89,11 Jun 2027 20:27:29.326,11 Jun 2027 20:38:24.419,655.094
90,11 Jun 2027 22:04:25.986,11 Jun 2027 22:09:37.884,311.898
91,12 Jun 2027 02:42:46.623,12 Jun 2027 02:50:35.575,468.952
92,12 Jun 2027 04:15:09.004,12 Jun 2027 04:27:09.628,720.624
93,12 Jun 2027 05:50:23.816,12 Jun 2027 06:03:08.545,764.728
94,12 Jun 2027 07:29:14.200,12 Jun 2027 07:38:00.215,526.015
95,12 Jun 2027 17:27:44.838,12 Jun 2027 17:39:16.379,691.541
96,12 Jun 2027 19:03:19.594,12 Jun 2027 19:16:09.657,770.062
97,12 Jun 2027 20:39:34.850,12 Jun 2027 20:50:00.887,626.037
98,12 Jun 2027 22:16:46.311,12 Jun 2027 22:20:44.063,237.752
99,13 Jun 2027 02:54:11.327,13 Jun 2027 03:02:44.402,513.075
100,13 Jun 2027 04:26:55.673,13 Jun 2027 04:39:13.219,737.546
101,13 Jun 2027 06:02:33.082,13 Jun 2027 06:15:07.252,754.169
102,13 Jun 2027 07:42:03.586,13 Jun 2027 07:49:39.159,455.573
103,13 Jun 2027 16:06:37.930,13 Jun 2027 16:09:50.839,192.909
104,13 Jun 2027 17:39:39.838,13 Jun 2027 17:51:36.802,716.964
105,13 Jun 2027 19:15:21.627,13 Jun 2027 19:28:04.700,763.073
106,13 Jun 2027 20:51:40.975,13 Jun 2027 21:01:34.649,593.673
107,13 Jun 2027 22:29:20.880,13 Jun 2027 22:31:34.386,133.506
