dataset/facility_timing/facility_Facility-Novosib/Novosib-To-KinoSat_111907.csv

Acces,Start Time (UTCG),Stop Time (UTCG),Duration (sec)
1,1 Jun 2027 01:06:31.214,1 Jun 2027 01:15:40.312,549.098
2,1 Jun 2027 02:41:30.334,1 Jun 2027 02:54:18.218,767.883
3,1 Jun 2027 04:17:32.320,1 Jun 2027 04:29:25.420,713.100
4,1 Jun 2027 05:54:10.985,1 Jun 2027 06:01:38.553,447.568
5,1 Jun 2027 10:34:52.760,1 Jun 2027 10:40:12.614,319.854
6,1 Jun 2027 12:06:10.023,1 Jun 2027 12:17:10.429,660.405
7,1 Jun 2027 13:40:27.942,1 Jun 2027 13:53:22.174,774.232
8,1 Jun 2027 15:17:55.462,1 Jun 2027 15:28:47.938,652.476
9,2 Jun 2027 01:18:18.027,2 Jun 2027 01:28:19.217,601.190
10,2 Jun 2027 02:53:30.694,2 Jun 2027 03:06:23.726,773.032
11,2 Jun 2027 04:29:37.168,2 Jun 2027 04:41:08.690,691.522
12,2 Jun 2027 06:06:22.995,2 Jun 2027 06:12:58.034,395.039
13,2 Jun 2027 10:46:06.407,2 Jun 2027 10:52:28.156,381.750
14,2 Jun 2027 12:17:49.939,2 Jun 2027 12:29:15.928,685.988
15,2 Jun 2027 13:52:29.732,2 Jun 2027 14:05:23.418,773.687
16,2 Jun 2027 15:30:26.892,2 Jun 2027 15:40:38.836,611.943
17,3 Jun 2027 01:30:08.271,3 Jun 2027 01:40:51.938,643.668
18,3 Jun 2027 03:05:31.780,3 Jun 2027 03:18:26.213,774.433
19,3 Jun 2027 04:41:42.532,3 Jun 2027 04:52:49.253,666.721
20,3 Jun 2027 06:18:37.669,3 Jun 2027 06:24:12.971,335.302
21,3 Jun 2027 10:57:24.907,3 Jun 2027 11:04:40.701,435.795
22,3 Jun 2027 12:29:32.574,3 Jun 2027 12:41:20.896,708.322
23,3 Jun 2027 14:04:34.522,3 Jun 2027 14:17:23.955,769.433
24,3 Jun 2027 15:43:04.236,3 Jun 2027 15:52:26.555,562.319
25,4 Jun 2027 01:42:01.052,4 Jun 2027 01:53:19.461,678.410
26,4 Jun 2027 03:17:33.519,4 Jun 2027 03:30:25.772,772.252
27,4 Jun 2027 04:53:48.446,4 Jun 2027 05:04:27.087,638.641
28,4 Jun 2027 06:30:56.922,4 Jun 2027 06:35:21.531,264.609
29,4 Jun 2027 11:08:47.284,4 Jun 2027 11:16:51.303,484.019
30,4 Jun 2027 12:41:17.913,4 Jun 2027 12:53:25.364,727.451
31,4 Jun 2027 14:16:42.423,4 Jun 2027 14:29:23.704,761.281
32,4 Jun 2027 15:55:48.924,4 Jun 2027 16:04:09.753,500.829
33,5 Jun 2027 01:53:55.796,5 Jun 2027 02:05:42.438,706.642
34,5 Jun 2027 03:29:35.842,5 Jun 2027 03:42:22.485,766.643
35,5 Jun 2027 05:05:54.968,5 Jun 2027 05:16:02.156,607.188
36,5 Jun 2027 06:43:26.534,5 Jun 2027 06:46:18.037,171.503
37,5 Jun 2027 11:20:13.050,5 Jun 2027 11:29:00.525,527.475
38,5 Jun 2027 12:53:05.957,5 Jun 2027 13:05:29.341,743.384
39,5 Jun 2027 14:28:53.591,5 Jun 2027 14:41:22.539,748.948
40,5 Jun 2027 16:08:43.611,5 Jun 2027 16:15:45.902,422.291
41,6 Jun 2027 00:32:10.661,6 Jun 2027 00:37:04.670,294.010
42,6 Jun 2027 02:05:52.116,6 Jun 2027 02:18:01.328,729.211
43,6 Jun 2027 03:41:38.722,6 Jun 2027 03:54:16.404,757.682
44,6 Jun 2027 05:18:02.177,6 Jun 2027 05:27:34.396,572.219
45,6 Jun 2027 11:31:41.925,6 Jun 2027 11:41:08.695,566.771
46,6 Jun 2027 13:04:56.718,6 Jun 2027 13:17:32.814,756.096
47,6 Jun 2027 14:41:08.213,6 Jun 2027 14:53:20.309,732.096
48,6 Jun 2027 16:21:54.595,6 Jun 2027 16:27:08.812,314.217
49,7 Jun 2027 00:43:30.484,7 Jun 2027 00:50:19.210,408.727
50,7 Jun 2027 02:17:49.718,7 Jun 2027 02:30:16.474,746.756
51,7 Jun 2027 03:53:42.118,7 Jun 2027 04:06:07.577,745.459
52,7 Jun 2027 05:30:10.200,7 Jun 2027 05:39:03.720,533.520
53,7 Jun 2027 10:13:05.368,7 Jun 2027 10:15:39.182,153.814
54,7 Jun 2027 11:43:13.740,7 Jun 2027 11:53:16.025,602.284
55,7 Jun 2027 13:16:50.233,7 Jun 2027 13:29:35.768,765.535
56,7 Jun 2027 14:53:26.539,7 Jun 2027 15:05:16.826,710.288
57,7 Jun 2027 16:35:55.247,7 Jun 2027 16:37:45.269,110.023
58,8 Jun 2027 00:55:05.241,8 Jun 2027 01:03:15.732,490.491
59,8 Jun 2027 02:29:48.410,8 Jun 2027 02:42:28.140,759.731
60,8 Jun 2027 04:05:46.010,8 Jun 2027 04:17:56.018,730.007
61,8 Jun 2027 05:42:19.240,8 Jun 2027 05:50:29.971,490.731
62,8 Jun 2027 10:23:58.751,8 Jun 2027 10:28:11.680,252.930
63,8 Jun 2027 11:54:48.393,8 Jun 2027 12:05:22.645,634.252
64,8 Jun 2027 13:28:46.529,8 Jun 2027 13:41:38.173,771.644
65,8 Jun 2027 15:05:48.897,8 Jun 2027 15:17:11.818,682.921
66,9 Jun 2027 01:06:47.616,9 Jun 2027 01:16:01.677,554.061
67,9 Jun 2027 02:41:48.029,9 Jun 2027 02:54:36.509,768.480
68,9 Jun 2027 04:17:50.400,9 Jun 2027 04:29:41.757,711.356
69,9 Jun 2027 05:54:29.596,9 Jun 2027 06:01:52.884,443.288
70,9 Jun 2027 10:35:06.066,9 Jun 2027 10:40:31.921,325.856
71,9 Jun 2027 12:06:25.825,9 Jun 2027 12:17:28.649,662.824
72,9 Jun 2027 13:40:45.668,9 Jun 2027 13:53:40.000,774.332
73,9 Jun 2027 15:18:15.716,9 Jun 2027 15:29:04.908,649.192
74,10 Jun 2027 01:18:34.777,10 Jun 2027 01:28:39.991,605.214
75,10 Jun 2027 02:53:48.460,10 Jun 2027 03:06:41.748,773.289
76,10 Jun 2027 04:29:55.290,10 Jun 2027 04:41:24.795,689.505
77,10 Jun 2027 06:06:41.779,10 Jun 2027 06:13:12.023,390.243
78,10 Jun 2027 10:46:20.218,10 Jun 2027 10:52:47.112,386.894
79,10 Jun 2027 12:18:05.981,10 Jun 2027 12:29:34.093,688.111
80,10 Jun 2027 13:52:47.720,10 Jun 2027 14:05:41.180,773.460
81,10 Jun 2027 15:30:47.631,10 Jun 2027 15:40:55.554,607.924
82,11 Jun 2027 01:30:25.262,11 Jun 2027 01:41:12.227,646.965
83,11 Jun 2027 03:05:49.598,11 Jun 2027 03:18:43.980,774.382
84,11 Jun 2027 04:42:00.696,11 Jun 2027 04:53:05.117,664.421
85,11 Jun 2027 06:18:56.739,11 Jun 2027 06:24:26.508,329.768
86,11 Jun 2027 10:57:39.100,11 Jun 2027 11:04:59.438,440.339
87,11 Jun 2027 12:29:48.858,11 Jun 2027 12:41:39.010,710.152
88,11 Jun 2027 14:04:52.782,11 Jun 2027 14:17:41.652,768.870
89,11 Jun 2027 15:43:25.554,11 Jun 2027 15:52:42.934,557.380
90,12 Jun 2027 01:42:18.230,12 Jun 2027 01:53:39.330,681.100
91,12 Jun 2027 03:17:51.387,12 Jun 2027 03:30:43.286,771.898
92,12 Jun 2027 04:54:06.657,12 Jun 2027 05:04:42.715,636.058
93,12 Jun 2027 06:31:16.542,12 Jun 2027 06:35:34.369,257.828
94,12 Jun 2027 11:09:01.796,12 Jun 2027 11:17:09.894,488.098
95,12 Jun 2027 12:41:34.433,12 Jun 2027 12:53:43.432,728.999
96,12 Jun 2027 14:17:00.963,12 Jun 2027 14:29:41.318,760.355
97,12 Jun 2027 15:56:10.992,12 Jun 2027 16:04:25.630,494.638
98,13 Jun 2027 00:21:57.402,13 Jun 2027 00:23:19.169,81.767
99,13 Jun 2027 01:54:13.121,13 Jun 2027 02:06:01.933,708.812
100,13 Jun 2027 03:29:53.756,13 Jun 2027 03:42:39.752,765.996
101,13 Jun 2027 05:06:13.230,13 Jun 2027 05:16:17.541,604.311
102,13 Jun 2027 06:43:47.723,13 Jun 2027 06:46:29.160,161.437
103,13 Jun 2027 11:20:27.850,13 Jun 2027 11:29:19.006,531.156
104,13 Jun 2027 12:53:22.716,13 Jun 2027 13:05:47.362,744.645
105,13 Jun 2027 14:29:12.425,13 Jun 2027 14:41:40.062,747.637
106,13 Jun 2027 16:09:06.776,13 Jun 2027 16:16:00.946,414.171
