dataset/facility_timing/facility_Facility-Novosib/Novosib-To-KinoSat_110402.csv

Acces,Start Time (UTCG),Stop Time (UTCG),Duration (sec)
1,1 Jun 2027 04:20:00.666,1 Jun 2027 04:28:58.521,537.855
2,1 Jun 2027 05:52:58.081,1 Jun 2027 06:05:24.338,746.258
3,1 Jun 2027 07:28:49.391,1 Jun 2027 07:41:15.106,745.716
4,1 Jun 2027 09:08:48.215,1 Jun 2027 09:15:31.097,402.881
5,1 Jun 2027 17:32:06.026,1 Jun 2027 17:37:02.331,296.305
6,1 Jun 2027 19:05:46.767,1 Jun 2027 19:17:56.262,729.495
7,1 Jun 2027 20:41:32.207,1 Jun 2027 20:54:09.608,757.401
8,1 Jun 2027 22:17:53.924,1 Jun 2027 22:27:26.913,572.989
9,2 Jun 2027 04:31:30.187,2 Jun 2027 04:41:05.694,575.507
10,2 Jun 2027 06:04:48.986,2 Jun 2027 06:17:27.118,758.133
11,2 Jun 2027 07:41:04.023,2 Jun 2027 07:53:12.129,728.106
12,2 Jun 2027 09:22:03.044,2 Jun 2027 09:26:49.304,286.260
13,2 Jun 2027 17:43:25.845,2 Jun 2027 17:50:15.332,409.487
14,2 Jun 2027 19:17:43.871,2 Jun 2027 19:30:10.649,746.778
15,2 Jun 2027 20:53:35.020,2 Jun 2027 21:06:00.326,745.306
16,2 Jun 2027 22:30:01.157,2 Jun 2027 22:38:56.235,535.078
17,3 Jun 2027 03:12:38.659,3 Jun 2027 03:15:49.332,190.674
18,3 Jun 2027 04:43:02.511,3 Jun 2027 04:53:12.120,609.609
19,3 Jun 2027 06:16:42.583,3 Jun 2027 06:29:29.387,766.804
20,3 Jun 2027 07:53:22.345,3 Jun 2027 08:05:07.867,705.521
21,3 Jun 2027 17:55:00.257,3 Jun 2027 18:03:10.723,490.466
22,3 Jun 2027 19:29:42.040,3 Jun 2027 19:42:21.627,759.587
23,3 Jun 2027 21:05:38.312,3 Jun 2027 21:17:48.385,730.073
24,3 Jun 2027 22:42:09.326,3 Jun 2027 22:50:22.613,493.287
25,4 Jun 2027 03:23:38.925,4 Jun 2027 03:28:14.679,275.754
26,4 Jun 2027 04:54:37.561,4 Jun 2027 05:05:17.903,640.342
27,4 Jun 2027 06:28:38.904,4 Jun 2027 06:41:31.128,772.223
28,4 Jun 2027 08:05:44.687,4 Jun 2027 08:17:02.050,677.363
29,4 Jun 2027 18:06:42.177,4 Jun 2027 18:15:55.714,553.537
30,4 Jun 2027 19:41:41.121,4 Jun 2027 19:54:29.377,768.256
31,4 Jun 2027 21:17:42.082,4 Jun 2027 21:29:33.807,711.725
32,4 Jun 2027 22:54:18.699,4 Jun 2027 23:01:45.820,447.121
33,5 Jun 2027 03:34:49.035,5 Jun 2027 03:40:31.826,342.791
34,5 Jun 2027 05:06:15.289,5 Jun 2027 05:17:23.125,667.837
35,5 Jun 2027 06:40:38.017,5 Jun 2027 06:53:32.285,774.268
36,5 Jun 2027 08:18:11.505,5 Jun 2027 08:28:54.281,642.776
37,5 Jun 2027 18:18:28.826,5 Jun 2027 18:28:33.192,604.367
38,5 Jun 2027 19:53:40.997,5 Jun 2027 20:06:34.067,773.070
39,5 Jun 2027 21:29:46.330,5 Jun 2027 21:41:16.600,690.270
40,5 Jun 2027 23:06:29.725,5 Jun 2027 23:13:05.483,395.758
41,6 Jun 2027 03:46:04.823,6 Jun 2027 03:52:45.052,400.229
42,6 Jun 2027 05:17:55.663,6 Jun 2027 05:29:27.824,692.160
43,6 Jun 2027 06:52:39.992,6 Jun 2027 07:05:32.807,772.814
44,6 Jun 2027 08:30:43.446,6 Jun 2027 08:40:43.995,600.548
45,6 Jun 2027 18:30:18.775,6 Jun 2027 18:41:04.673,645.898
46,6 Jun 2027 20:05:41.572,6 Jun 2027 20:18:35.798,774.227
47,6 Jun 2027 21:41:51.070,6 Jun 2027 21:52:56.755,665.684
48,6 Jun 2027 23:18:43.193,6 Jun 2027 23:24:20.874,337.681
49,7 Jun 2027 03:57:24.801,7 Jun 2027 04:04:55.913,451.112
50,7 Jun 2027 05:29:38.672,7 Jun 2027 05:41:32.031,713.359
51,7 Jun 2027 07:04:44.926,7 Jun 2027 07:17:32.615,767.690
52,7 Jun 2027 08:43:21.469,7 Jun 2027 08:52:30.322,548.853
53,7 Jun 2027 18:42:11.186,7 Jun 2027 18:53:31.102,679.916
54,7 Jun 2027 20:17:42.779,7 Jun 2027 20:30:34.681,771.901
55,7 Jun 2027 21:53:56.337,7 Jun 2027 22:04:34.260,637.923
56,7 Jun 2027 23:31:00.793,7 Jun 2027 23:35:30.394,269.601
57,8 Jun 2027 04:08:48.281,8 Jun 2027 04:17:05.172,496.891
58,8 Jun 2027 05:41:24.312,8 Jun 2027 05:53:35.760,731.448
59,8 Jun 2027 07:16:52.943,8 Jun 2027 07:29:31.625,758.682
60,8 Jun 2027 08:56:07.184,8 Jun 2027 09:04:11.756,484.572
61,8 Jun 2027 17:22:08.047,8 Jun 2027 17:22:54.079,46.032
62,8 Jun 2027 18:54:05.507,8 Jun 2027 19:05:53.100,707.593
63,8 Jun 2027 20:29:44.564,8 Jun 2027 20:42:30.776,766.212
64,8 Jun 2027 22:06:02.170,8 Jun 2027 22:16:09.092,606.922
65,8 Jun 2027 23:43:27.269,8 Jun 2027 23:46:29.399,182.129
66,9 Jun 2027 04:20:14.910,9 Jun 2027 04:29:13.253,538.343
67,9 Jun 2027 05:53:12.591,9 Jun 2027 06:05:39.016,746.425
68,9 Jun 2027 07:29:04.192,9 Jun 2027 07:41:29.716,745.525
69,9 Jun 2027 09:09:03.648,9 Jun 2027 09:15:45.340,401.692
70,9 Jun 2027 17:32:19.997,9 Jun 2027 17:37:18.070,298.073
71,9 Jun 2027 19:06:01.362,9 Jun 2027 19:18:11.105,729.743
72,9 Jun 2027 20:41:46.880,9 Jun 2027 20:54:24.148,757.268
73,9 Jun 2027 22:18:08.652,9 Jun 2027 22:27:41.184,572.532
74,10 Jun 2027 04:31:44.464,10 Jun 2027 04:41:20.416,575.952
75,10 Jun 2027 06:05:03.529,10 Jun 2027 06:17:41.789,758.261
76,10 Jun 2027 07:41:18.868,10 Jun 2027 07:53:26.724,727.856
77,10 Jun 2027 09:22:18.817,10 Jun 2027 09:27:03.245,284.429
78,10 Jun 2027 17:43:40.094,10 Jun 2027 17:50:30.753,410.658
79,10 Jun 2027 19:17:58.481,10 Jun 2027 19:30:25.447,746.966
80,10 Jun 2027 20:53:49.698,10 Jun 2027 21:06:14.832,745.134
81,10 Jun 2027 22:30:15.894,10 Jun 2027 22:39:10.470,534.576
82,11 Jun 2027 03:12:52.451,11 Jun 2027 03:16:04.378,191.927
83,11 Jun 2027 04:43:16.822,11 Jun 2027 04:53:26.834,610.012
84,11 Jun 2027 06:16:57.160,11 Jun 2027 06:29:44.051,766.892
85,11 Jun 2027 07:53:37.239,11 Jun 2027 08:05:22.444,705.205
86,11 Jun 2027 17:55:14.630,11 Jun 2027 18:03:25.983,491.353
87,11 Jun 2027 19:29:56.662,11 Jun 2027 19:42:36.383,759.720
88,11 Jun 2027 21:05:52.995,11 Jun 2027 21:18:02.857,729.862
89,11 Jun 2027 22:42:24.075,11 Jun 2027 22:50:36.811,492.736
90,12 Jun 2027 03:23:52.894,12 Jun 2027 03:28:29.568,276.674
91,12 Jun 2027 04:54:51.905,12 Jun 2027 05:05:32.611,640.706
92,12 Jun 2027 06:28:53.515,12 Jun 2027 06:41:45.785,772.270
93,12 Jun 2027 08:05:59.633,12 Jun 2027 08:17:16.604,676.972
94,12 Jun 2027 18:06:56.623,12 Jun 2027 18:16:10.865,554.241
95,12 Jun 2027 19:41:55.753,12 Jun 2027 19:54:44.093,768.340
96,12 Jun 2027 21:17:56.771,12 Jun 2027 21:29:48.247,711.475
97,12 Jun 2027 22:54:33.464,12 Jun 2027 23:01:59.977,446.514
98,13 Jun 2027 03:35:03.088,13 Jun 2027 03:40:46.652,343.564
99,13 Jun 2027 05:06:29.665,13 Jun 2027 05:17:37.827,668.162
100,13 Jun 2027 06:40:52.663,13 Jun 2027 06:53:46.935,774.272
101,13 Jun 2027 08:18:26.511,13 Jun 2027 08:29:08.807,642.296
102,13 Jun 2027 18:18:43.322,13 Jun 2027 18:28:48.260,604.938
103,13 Jun 2027 19:53:55.640,13 Jun 2027 20:06:48.745,773.105
104,13 Jun 2027 21:30:01.025,13 Jun 2027 21:41:31.008,689.983
105,13 Jun 2027 23:06:44.513,13 Jun 2027 23:13:19.595,395.082
