dataset/facility_timing/facility_Facility-Novosib/Novosib-To-KinoSat_112001.csv

Acces,Start Time (UTCG),Stop Time (UTCG),Duration (sec)
1,1 Jun 2027 01:59:40.904,1 Jun 2027 02:10:31.753,650.849
2,1 Jun 2027 03:35:06.349,1 Jun 2027 03:48:00.646,774.296
3,1 Jun 2027 05:11:18.015,1 Jun 2027 05:22:19.591,661.575
4,1 Jun 2027 06:48:15.584,1 Jun 2027 06:53:37.933,322.349
5,1 Jun 2027 11:26:52.309,1 Jun 2027 11:34:16.759,444.449
6,1 Jun 2027 12:59:04.057,1 Jun 2027 13:10:55.984,711.927
7,1 Jun 2027 14:34:10.038,1 Jun 2027 14:46:58.334,768.296
8,1 Jun 2027 16:12:46.021,1 Jun 2027 16:21:58.429,552.408
9,2 Jun 2027 02:11:34.134,2 Jun 2027 02:22:58.425,684.291
10,2 Jun 2027 03:47:08.240,2 Jun 2027 03:59:59.701,771.461
11,2 Jun 2027 05:23:24.096,2 Jun 2027 05:33:56.910,632.814
12,2 Jun 2027 07:00:36.305,2 Jun 2027 07:04:44.737,248.432
13,2 Jun 2027 11:38:15.295,2 Jun 2027 11:46:27.165,491.869
14,2 Jun 2027 13:10:49.893,2 Jun 2027 13:23:00.410,730.517
15,2 Jun 2027 14:46:18.560,2 Jun 2027 14:58:57.967,759.407
16,2 Jun 2027 16:25:32.313,2 Jun 2027 16:33:40.650,488.338
17,3 Jun 2027 00:50:53.084,3 Jun 2027 00:53:00.444,127.360
18,3 Jun 2027 02:23:29.243,3 Jun 2027 02:35:20.645,711.402
19,3 Jun 2027 03:59:10.722,3 Jun 2027 04:11:55.907,765.186
20,3 Jun 2027 05:35:30.793,3 Jun 2027 05:45:31.454,600.661
21,3 Jun 2027 07:13:10.214,3 Jun 2027 07:15:36.674,146.459
22,3 Jun 2027 11:49:41.615,3 Jun 2027 11:58:36.245,534.630
23,3 Jun 2027 13:22:38.447,3 Jun 2027 13:35:04.341,745.894
24,3 Jun 2027 14:58:30.373,3 Jun 2027 15:10:56.668,746.295
25,3 Jun 2027 16:38:29.325,3 Jun 2027 16:45:15.113,405.788
26,4 Jun 2027 01:01:35.179,4 Jun 2027 01:06:55.414,320.235
27,4 Jun 2027 02:35:25.869,4 Jun 2027 02:47:38.846,732.977
28,4 Jun 2027 04:11:13.743,4 Jun 2027 04:23:49.326,755.583
29,4 Jun 2027 05:47:38.204,4 Jun 2027 05:57:03.146,564.942
30,4 Jun 2027 12:01:11.023,4 Jun 2027 12:10:44.311,573.287
31,4 Jun 2027 13:34:29.731,4 Jun 2027 13:47:07.766,758.035
32,4 Jun 2027 15:10:45.690,4 Jun 2027 15:22:54.272,728.582
33,4 Jun 2027 16:51:44.803,4 Jun 2027 16:56:34.205,289.402
34,5 Jun 2027 01:12:59.016,5 Jun 2027 01:20:05.450,426.434
35,5 Jun 2027 02:47:23.733,5 Jun 2027 02:59:53.356,749.622
36,5 Jun 2027 04:23:17.281,5 Jun 2027 04:35:40.001,742.720
37,5 Jun 2027 05:59:46.467,5 Jun 2027 06:08:31.881,525.414
38,5 Jun 2027 10:42:26.349,5 Jun 2027 10:45:20.511,174.162
39,5 Jun 2027 12:12:43.354,5 Jun 2027 12:22:51.559,608.205
40,5 Jun 2027 13:46:23.777,5 Jun 2027 13:59:10.665,766.888
41,5 Jun 2027 15:23:04.768,5 Jun 2027 15:34:50.571,705.803
42,6 Jun 2027 01:24:35.622,6 Jun 2027 01:32:59.644,504.022
43,6 Jun 2027 02:59:22.655,6 Jun 2027 03:12:04.418,761.763
44,6 Jun 2027 04:35:21.315,6 Jun 2027 04:47:27.945,726.629
45,6 Jun 2027 06:11:55.800,6 Jun 2027 06:19:57.495,481.694
46,6 Jun 2027 10:53:23.205,6 Jun 2027 10:57:49.872,266.667
47,6 Jun 2027 12:24:18.519,6 Jun 2027 12:34:58.118,639.599
48,6 Jun 2027 13:58:20.620,6 Jun 2027 14:11:13.015,772.396
49,6 Jun 2027 15:35:27.950,6 Jun 2027 15:46:45.290,677.340
50,7 Jun 2027 01:36:19.123,7 Jun 2027 01:45:44.009,564.885
51,7 Jun 2027 03:11:22.480,7 Jun 2027 03:24:12.213,769.733
52,7 Jun 2027 04:47:25.851,7 Jun 2027 04:59:13.180,707.329
53,7 Jun 2027 06:24:06.544,7 Jun 2027 06:31:19.698,433.154
54,7 Jun 2027 11:04:31.919,7 Jun 2027 11:10:09.076,337.156
55,7 Jun 2027 12:35:56.461,7 Jun 2027 12:47:04.069,667.608
56,7 Jun 2027 14:10:20.316,7 Jun 2027 14:23:14.772,774.456
57,7 Jun 2027 15:47:55.704,7 Jun 2027 15:58:38.021,642.317
58,8 Jun 2027 01:48:07.054,8 Jun 2027 01:58:21.112,614.058
59,8 Jun 2027 03:23:23.098,8 Jun 2027 03:36:16.900,773.801
60,8 Jun 2027 04:59:30.888,8 Jun 2027 05:10:55.711,684.822
61,8 Jun 2027 06:36:19.264,8 Jun 2027 06:42:37.969,378.705
62,8 Jun 2027 11:15:46.975,8 Jun 2027 11:22:23.745,396.770
63,8 Jun 2027 12:47:37.128,8 Jun 2027 12:59:09.466,692.337
64,8 Jun 2027 14:22:22.948,8 Jun 2027 14:35:15.869,772.921
65,8 Jun 2027 16:00:28.698,8 Jun 2027 16:10:28.182,599.484
66,9 Jun 2027 01:59:58.118,9 Jun 2027 02:10:52.339,654.221
67,9 Jun 2027 03:35:24.409,9 Jun 2027 03:48:18.595,774.185
68,9 Jun 2027 05:11:36.447,9 Jun 2027 05:22:35.519,659.072
69,9 Jun 2027 06:48:35.074,9 Jun 2027 06:53:51.304,316.230
70,9 Jun 2027 11:27:06.562,9 Jun 2027 11:34:35.760,449.198
71,9 Jun 2027 12:59:20.515,9 Jun 2027 13:11:14.339,713.823
72,9 Jun 2027 14:34:28.616,9 Jun 2027 14:47:16.242,767.626
73,9 Jun 2027 16:13:07.925,9 Jun 2027 16:22:14.873,546.948
74,10 Jun 2027 02:11:51.537,10 Jun 2027 02:23:18.580,687.043
75,10 Jun 2027 03:47:26.361,10 Jun 2027 04:00:17.375,771.014
76,10 Jun 2027 05:23:42.575,10 Jun 2027 05:34:12.585,630.010
77,10 Jun 2027 07:00:56.482,10 Jun 2027 07:04:57.254,240.772
78,10 Jun 2027 11:38:29.883,10 Jun 2027 11:46:46.014,496.131
79,10 Jun 2027 13:11:06.613,10 Jun 2027 13:23:18.716,732.103
80,10 Jun 2027 14:46:37.436,10 Jun 2027 14:59:15.791,758.355
81,10 Jun 2027 16:25:55.058,10 Jun 2027 16:33:56.513,481.455
82,11 Jun 2027 00:50:58.262,11 Jun 2027 00:53:34.702,156.440
83,11 Jun 2027 02:23:46.796,11 Jun 2027 02:35:40.411,713.615
84,11 Jun 2027 03:59:28.885,11 Jun 2027 04:12:13.322,764.437
85,11 Jun 2027 05:35:49.334,11 Jun 2027 05:45:46.860,597.526
86,11 Jun 2027 07:13:32.789,11 Jun 2027 07:15:46.639,133.849
87,11 Jun 2027 11:49:56.509,11 Jun 2027 11:58:54.981,538.472
88,11 Jun 2027 13:22:55.424,11 Jun 2027 13:35:22.600,747.176
89,11 Jun 2027 14:58:49.567,11 Jun 2027 15:11:14.390,744.823
90,11 Jun 2027 16:38:53.350,11 Jun 2027 16:45:29.984,396.634
91,12 Jun 2027 01:01:48.909,12 Jun 2027 01:07:20.818,331.909
92,12 Jun 2027 02:35:43.544,12 Jun 2027 02:47:58.255,734.711
93,12 Jun 2027 04:11:31.954,12 Jun 2027 04:24:06.489,754.534
94,12 Jun 2027 05:47:56.814,12 Jun 2027 05:57:18.288,561.474
95,12 Jun 2027 12:01:26.200,12 Jun 2027 12:11:02.960,576.760
96,12 Jun 2027 13:34:46.961,12 Jun 2027 13:47:25.973,759.012
97,12 Jun 2027 15:11:05.224,12 Jun 2027 15:23:11.877,726.654
98,12 Jun 2027 16:52:11.493,12 Jun 2027 16:56:46.703,275.210
99,13 Jun 2027 01:13:14.389,13 Jun 2027 01:20:28.917,434.527
100,13 Jun 2027 02:47:41.514,13 Jun 2027 03:00:12.437,750.923
101,13 Jun 2027 04:23:35.532,13 Jun 2027 04:35:56.905,741.373
102,13 Jun 2027 06:00:05.161,13 Jun 2027 06:08:46.743,521.582
103,13 Jun 2027 10:42:37.325,13 Jun 2027 10:45:42.131,184.806
104,13 Jun 2027 12:12:58.804,13 Jun 2027 12:23:10.134,611.331
105,13 Jun 2027 13:46:41.267,13 Jun 2027 13:59:28.819,767.551
106,13 Jun 2027 15:23:24.672,13 Jun 2027 15:35:08.038,703.366
