dataset/facility_timing/facility_Facility-Novosib/Novosib-To-KinoSat_111207.csv

Acces,Start Time (UTCG),Stop Time (UTCG),Duration (sec)
1,1 Jun 2027 00:00:01.000,1 Jun 2027 00:08:57.521,536.521
2,1 Jun 2027 01:32:09.965,1 Jun 2027 01:43:48.990,699.024
3,1 Jun 2027 03:08:51.439,1 Jun 2027 03:15:46.826,415.387
4,1 Jun 2027 07:48:49.774,1 Jun 2027 07:55:03.036,373.262
5,1 Jun 2027 09:20:29.159,1 Jun 2027 09:31:50.475,681.316
6,1 Jun 2027 10:55:03.896,1 Jun 2027 11:07:57.876,773.980
7,1 Jun 2027 12:32:53.846,1 Jun 2027 12:43:14.707,620.860
8,1 Jun 2027 22:32:47.028,1 Jun 2027 22:43:17.632,630.604
9,2 Jun 2027 00:08:06.348,2 Jun 2027 00:21:00.607,774.259
10,2 Jun 2027 01:44:14.729,2 Jun 2027 01:55:30.270,675.541
11,2 Jun 2027 03:21:04.245,2 Jun 2027 03:27:03.812,359.567
12,2 Jun 2027 08:00:07.767,2 Jun 2027 08:07:15.265,427.498
13,2 Jun 2027 09:32:11.065,2 Jun 2027 09:43:55.123,704.059
14,2 Jun 2027 11:07:07.675,2 Jun 2027 11:19:58.208,770.533
15,2 Jun 2027 12:45:29.276,2 Jun 2027 12:55:02.865,573.589
16,2 Jun 2027 22:44:38.725,2 Jun 2027 22:55:46.239,667.514
17,3 Jun 2027 00:20:07.512,3 Jun 2027 00:33:00.772,773.260
18,3 Jun 2027 01:56:20.011,3 Jun 2027 02:07:08.884,648.873
19,3 Jun 2027 03:33:20.494,3 Jun 2027 03:38:15.557,295.063
20,3 Jun 2027 08:11:29.605,3 Jun 2027 08:19:25.542,475.937
21,3 Jun 2027 09:43:55.619,3 Jun 2027 09:55:59.285,723.666
22,3 Jun 2027 11:19:14.496,3 Jun 2027 11:31:57.772,763.276
23,3 Jun 2027 12:58:11.593,3 Jun 2027 13:06:46.891,515.298
24,3 Jun 2027 22:56:32.530,3 Jun 2027 23:08:10.159,697.629
25,4 Jun 2027 00:32:09.267,4 Jun 2027 00:44:58.111,768.844
26,4 Jun 2027 02:08:25.858,4 Jun 2027 02:18:44.808,618.949
27,4 Jun 2027 03:45:43.420,4 Jun 2027 03:49:18.935,215.515
28,4 Jun 2027 08:22:54.791,4 Jun 2027 08:31:34.427,519.636
29,4 Jun 2027 09:55:42.836,4 Jun 2027 10:08:02.968,740.131
30,4 Jun 2027 11:31:24.497,4 Jun 2027 11:43:56.474,751.977
31,4 Jun 2027 13:11:03.064,4 Jun 2027 13:18:24.651,441.587
32,4 Jun 2027 21:35:08.150,4 Jun 2027 21:39:06.006,237.857
33,4 Jun 2027 23:08:28.012,4 Jun 2027 23:20:29.917,721.905
34,5 Jun 2027 00:44:11.582,5 Jun 2027 00:56:52.682,761.101
35,5 Jun 2027 02:20:32.325,5 Jun 2027 02:30:17.990,585.664
36,5 Jun 2027 03:58:28.761,5 Jun 2027 03:59:58.301,89.539
37,5 Jun 2027 08:34:23.037,5 Jun 2027 08:43:42.257,559.220
38,5 Jun 2027 10:07:32.725,5 Jun 2027 10:20:06.161,753.436
39,5 Jun 2027 11:43:37.864,5 Jun 2027 11:55:54.160,736.296
40,5 Jun 2027 13:24:08.634,5 Jun 2027 13:29:51.300,342.666
41,5 Jun 2027 21:46:17.746,5 Jun 2027 21:52:30.894,373.148
42,5 Jun 2027 23:20:24.849,5 Jun 2027 23:32:45.870,741.020
43,6 Jun 2027 00:56:14.407,6 Jun 2027 01:08:44.535,750.127
44,6 Jun 2027 02:32:39.528,6 Jun 2027 02:41:48.355,548.827
45,6 Jun 2027 07:15:53.787,6 Jun 2027 07:18:08.888,135.102
46,6 Jun 2027 08:45:54.180,6 Jun 2027 08:55:49.259,595.079
47,6 Jun 2027 10:19:25.315,6 Jun 2027 10:32:08.853,763.538
48,6 Jun 2027 11:55:54.822,6 Jun 2027 12:07:50.648,715.826
49,6 Jun 2027 13:37:47.039,6 Jun 2027 13:40:48.240,181.201
50,6 Jun 2027 21:57:48.238,6 Jun 2027 22:05:31.796,463.558
51,6 Jun 2027 23:32:22.829,6 Jun 2027 23:44:58.298,755.469
52,7 Jun 2027 01:08:17.735,7 Jun 2027 01:20:33.695,735.959
53,7 Jun 2027 02:44:47.613,7 Jun 2027 02:53:15.801,508.188
54,7 Jun 2027 07:26:44.156,7 Jun 2027 07:30:43.651,239.494
55,7 Jun 2027 08:57:28.105,7 Jun 2027 09:07:55.553,627.447
56,7 Jun 2027 10:31:20.634,7 Jun 2027 10:44:11.013,770.379
57,7 Jun 2027 12:08:15.678,7 Jun 2027 12:19:45.702,690.024
58,7 Jun 2027 22:09:28.025,7 Jun 2027 22:18:20.446,532.421
59,7 Jun 2027 23:44:21.777,7 Jun 2027 23:57:07.420,765.643
60,8 Jun 2027 01:20:21.537,8 Jun 2027 01:32:20.189,718.651
61,8 Jun 2027 02:56:56.819,8 Jun 2027 03:04:40.118,463.299
62,8 Jun 2027 07:37:50.364,8 Jun 2027 07:43:04.195,313.832
63,8 Jun 2027 09:09:04.765,8 Jun 2027 09:20:01.242,656.477
64,8 Jun 2027 10:43:18.734,8 Jun 2027 10:56:12.616,773.882
65,8 Jun 2027 12:20:40.819,8 Jun 2027 12:31:38.975,658.156
66,8 Jun 2027 22:21:13.336,8 Jun 2027 22:31:00.721,587.385
67,8 Jun 2027 23:56:21.562,9 Jun 2027 00:09:13.399,771.837
68,9 Jun 2027 01:32:25.829,9 Jun 2027 01:44:04.026,698.196
69,9 Jun 2027 03:09:07.538,9 Jun 2027 03:16:00.992,413.454
70,9 Jun 2027 07:49:03.724,9 Jun 2027 07:55:19.317,375.592
71,9 Jun 2027 09:20:44.101,9 Jun 2027 09:32:06.379,682.277
72,9 Jun 2027 10:55:19.691,9 Jun 2027 11:08:13.598,773.907
73,9 Jun 2027 12:33:10.817,9 Jun 2027 12:43:29.981,619.164
74,9 Jun 2027 22:33:02.390,9 Jun 2027 22:43:34.512,632.122
75,10 Jun 2027 00:08:22.084,10 Jun 2027 00:21:16.367,774.283
76,10 Jun 2027 01:44:30.605,10 Jun 2027 01:55:45.212,674.607
77,10 Jun 2027 03:21:20.431,10 Jun 2027 03:27:17.816,357.385
78,10 Jun 2027 08:00:21.887,10 Jun 2027 08:07:31.447,429.561
79,10 Jun 2027 09:32:26.108,10 Jun 2027 09:44:11.007,704.899
80,10 Jun 2027 11:07:23.582,10 Jun 2027 11:20:13.900,770.319
81,10 Jun 2027 12:45:46.488,10 Jun 2027 12:55:18.001,571.512
82,10 Jun 2027 22:44:54.173,10 Jun 2027 22:56:02.930,668.757
83,11 Jun 2027 00:20:23.269,11 Jun 2027 00:33:16.423,773.154
84,11 Jun 2027 01:56:35.903,11 Jun 2027 02:07:23.722,647.819
85,11 Jun 2027 03:33:36.836,11 Jun 2027 03:38:29.342,292.506
86,11 Jun 2027 08:11:43.867,11 Jun 2027 08:19:41.649,477.782
87,11 Jun 2027 09:44:10.768,11 Jun 2027 09:56:15.146,724.378
88,11 Jun 2027 11:19:30.524,11 Jun 2027 11:32:13.429,762.905
89,11 Jun 2027 12:58:29.111,11 Jun 2027 13:07:01.825,512.714
90,11 Jun 2027 22:56:48.046,11 Jun 2027 23:08:26.687,698.642
91,12 Jun 2027 00:32:25.042,12 Jun 2027 00:45:13.657,768.615
92,12 Jun 2027 02:08:41.768,12 Jun 2027 02:18:59.544,617.776
93,12 Jun 2027 03:46:00.113,12 Jun 2027 03:49:32.301,212.188
94,12 Jun 2027 08:23:09.184,12 Jun 2027 08:31:50.477,521.293
95,12 Jun 2027 09:55:58.089,12 Jun 2027 10:08:18.806,740.718
96,12 Jun 2027 11:31:40.650,12 Jun 2027 11:44:12.087,751.437
97,12 Jun 2027 13:11:21.013,12 Jun 2027 13:18:39.262,438.249
98,12 Jun 2027 21:35:21.218,12 Jun 2027 21:39:25.739,244.522
99,12 Jun 2027 23:08:43.581,12 Jun 2027 23:20:46.290,722.708
100,13 Jun 2027 00:44:27.374,13 Jun 2027 00:57:08.120,760.746
101,13 Jun 2027 02:20:48.255,13 Jun 2027 02:30:32.622,584.366
102,13 Jun 2027 03:58:47.617,13 Jun 2027 04:00:09.442,81.825
103,13 Jun 2027 08:34:37.544,13 Jun 2027 08:43:58.271,560.726
104,13 Jun 2027 10:07:48.081,13 Jun 2027 10:20:21.977,753.896
105,13 Jun 2027 11:43:54.151,13 Jun 2027 11:56:09.731,735.579
106,13 Jun 2027 13:24:27.335,13 Jun 2027 13:30:05.271,337.937
107,13 Jun 2027 21:46:32.115,13 Jun 2027 21:52:49.201,377.085
108,13 Jun 2027 23:20:40.462,13 Jun 2027 23:33:02.099,741.637
