dataset/facility_timing/facility_Facility-Novosib/Novosib-To-KinoSat_111703.csv

Acces,Start Time (UTCG),Stop Time (UTCG),Duration (sec)
1,1 Jun 2027 00:16:35.947,1 Jun 2027 00:25:50.683,554.735
2,1 Jun 2027 01:51:36.321,1 Jun 2027 02:04:24.854,768.534
3,1 Jun 2027 03:27:38.524,1 Jun 2027 03:39:29.669,711.145
4,1 Jun 2027 05:04:17.384,1 Jun 2027 05:11:40.632,443.247
5,1 Jun 2027 09:44:52.018,1 Jun 2027 09:50:21.588,329.569
6,1 Jun 2027 11:16:13.236,1 Jun 2027 11:27:17.246,664.010
7,1 Jun 2027 12:50:33.842,1 Jun 2027 13:03:28.182,774.340
8,1 Jun 2027 14:28:04.831,1 Jun 2027 14:38:52.489,647.658
9,2 Jun 2027 00:28:23.077,2 Jun 2027 00:38:28.763,605.686
10,2 Jun 2027 02:03:36.666,2 Jun 2027 02:16:29.959,773.293
11,2 Jun 2027 03:39:43.309,2 Jun 2027 03:51:12.630,689.321
12,2 Jun 2027 05:16:29.396,2 Jun 2027 05:22:59.806,390.410
13,2 Jun 2027 09:56:06.525,2 Jun 2027 10:02:36.393,389.868
14,2 Jun 2027 11:27:53.463,2 Jun 2027 11:39:22.557,689.094
15,2 Jun 2027 13:02:35.918,2 Jun 2027 13:15:29.243,773.325
16,2 Jun 2027 14:40:36.816,2 Jun 2027 14:50:42.942,606.126
17,3 Jun 2027 00:40:13.511,3 Jun 2027 00:51:00.795,647.284
18,3 Jun 2027 02:15:37.720,3 Jun 2027 02:28:32.068,774.348
19,3 Jun 2027 03:51:48.610,3 Jun 2027 04:02:52.892,664.283
20,3 Jun 2027 05:28:44.150,3 Jun 2027 05:34:14.382,330.232
21,3 Jun 2027 10:07:25.643,3 Jun 2027 10:14:48.444,442.801
22,3 Jun 2027 11:39:36.396,3 Jun 2027 11:51:27.350,710.953
23,3 Jun 2027 13:14:40.997,3 Jun 2027 13:27:29.592,768.595
24,3 Jun 2027 14:53:14.837,3 Jun 2027 15:02:30.097,555.260
25,4 Jun 2027 00:52:06.414,4 Jun 2027 01:03:27.719,681.305
26,4 Jun 2027 02:27:39.420,4 Jun 2027 02:40:31.263,771.843
27,4 Jun 2027 04:03:54.458,4 Jun 2027 04:14:30.438,635.980
28,4 Jun 2027 05:41:03.650,4 Jun 2027 05:45:22.426,258.776
29,4 Jun 2027 10:18:48.523,4 Jun 2027 10:26:58.674,490.152
30,4 Jun 2027 11:51:22.017,4 Jun 2027 12:03:31.647,729.630
31,4 Jun 2027 13:26:49.188,4 Jun 2027 13:39:29.136,759.948
32,4 Jun 2027 15:06:00.425,4 Jun 2027 15:14:12.510,492.084
33,4 Jun 2027 23:31:44.645,4 Jun 2027 23:33:08.892,84.247
34,5 Jun 2027 01:04:01.232,5 Jun 2027 01:15:50.163,708.930
35,5 Jun 2027 02:39:41.695,5 Jun 2027 02:52:27.630,765.935
36,5 Jun 2027 04:16:00.914,5 Jun 2027 04:26:05.229,604.315
37,5 Jun 2027 05:53:34.216,5 Jun 2027 05:56:17.728,163.512
38,5 Jun 2027 10:30:14.715,5 Jun 2027 10:39:07.596,532.881
39,5 Jun 2027 12:03:10.334,5 Jun 2027 12:15:35.457,745.123
40,5 Jun 2027 13:39:00.656,5 Jun 2027 13:51:27.757,747.100
41,5 Jun 2027 15:18:56.474,5 Jun 2027 15:25:47.420,410.946
42,5 Jun 2027 23:42:12.006,5 Jun 2027 23:47:18.553,306.547
43,6 Jun 2027 01:15:57.592,6 Jun 2027 01:28:08.569,730.977
44,6 Jun 2027 02:51:44.523,6 Jun 2027 03:04:21.220,756.697
45,6 Jun 2027 04:28:08.059,6 Jun 2027 04:37:37.202,569.143
46,6 Jun 2027 10:41:43.969,6 Jun 2027 10:51:15.512,571.543
47,6 Jun 2027 12:15:01.358,6 Jun 2027 12:27:38.764,757.406
48,6 Jun 2027 13:51:15.594,6 Jun 2027 14:03:25.298,729.704
49,6 Jun 2027 15:32:10.192,6 Jun 2027 15:37:07.720,297.528
50,6 Jun 2027 23:53:33.721,7 Jun 2027 00:00:30.662,416.942
51,7 Jun 2027 01:27:55.208,7 Jun 2027 01:40:23.272,748.064
52,7 Jun 2027 03:03:47.861,7 Jun 2027 03:16:12.077,744.216
53,7 Jun 2027 04:40:16.021,7 Jun 2027 04:49:06.268,530.247
54,7 Jun 2027 09:23:00.367,7 Jun 2027 09:25:51.590,171.224
55,7 Jun 2027 10:53:16.123,7 Jun 2027 11:03:22.615,606.492
56,7 Jun 2027 12:26:55.130,7 Jun 2027 12:39:41.550,766.419
57,7 Jun 2027 14:03:34.261,7 Jun 2027 14:15:21.554,707.293
58,7 Jun 2027 15:46:40.485,7 Jun 2027 15:47:14.655,34.170
59,8 Jun 2027 00:05:09.260,8 Jun 2027 00:13:25.884,496.624
60,8 Jun 2027 01:39:53.895,8 Jun 2027 01:52:34.524,760.629
61,8 Jun 2027 03:15:51.691,8 Jun 2027 03:28:00.218,728.527
62,8 Jun 2027 04:52:25.005,8 Jun 2027 05:00:32.269,487.264
63,8 Jun 2027 09:33:56.952,8 Jun 2027 09:38:20.982,264.029
64,8 Jun 2027 11:04:51.090,8 Jun 2027 11:15:29.036,637.946
65,8 Jun 2027 12:38:51.677,8 Jun 2027 12:51:43.794,772.118
66,8 Jun 2027 14:15:56.980,8 Jun 2027 14:27:16.255,679.275
67,9 Jun 2027 00:16:52.058,9 Jun 2027 00:26:10.909,558.850
68,9 Jun 2027 01:51:53.495,9 Jun 2027 02:04:42.507,769.012
69,9 Jun 2027 03:27:56.017,9 Jun 2027 03:39:45.667,709.650
70,9 Jun 2027 05:04:35.321,9 Jun 2027 05:11:54.937,439.616
71,9 Jun 2027 09:45:05.517,9 Jun 2027 09:50:40.074,334.556
72,9 Jun 2027 11:16:28.815,9 Jun 2027 11:27:34.851,666.036
73,9 Jun 2027 12:50:51.062,9 Jun 2027 13:03:45.449,774.387
74,9 Jun 2027 14:28:24.220,9 Jun 2027 14:39:09.005,644.786
75,10 Jun 2027 00:28:39.462,10 Jun 2027 00:38:48.500,609.038
76,10 Jun 2027 02:03:53.892,10 Jun 2027 02:16:47.385,773.492
77,10 Jun 2027 03:40:00.835,10 Jun 2027 03:51:28.429,687.594
78,10 Jun 2027 05:16:47.487,10 Jun 2027 05:23:13.811,386.323
79,10 Jun 2027 09:56:20.431,10 Jun 2027 10:02:54.606,394.175
80,10 Jun 2027 11:28:09.247,10 Jun 2027 11:39:40.118,690.872
81,10 Jun 2027 13:02:53.360,10 Jun 2027 13:15:46.456,773.096
82,10 Jun 2027 14:40:56.623,10 Jun 2027 14:50:59.239,602.617
83,11 Jun 2027 00:40:30.099,11 Jun 2027 00:51:20.126,650.027
84,11 Jun 2027 02:15:54.993,11 Jun 2027 02:28:49.274,774.281
85,11 Jun 2027 03:52:06.171,11 Jun 2027 04:03:08.491,662.320
86,11 Jun 2027 05:29:02.488,11 Jun 2027 05:34:28.003,325.515
87,11 Jun 2027 10:07:39.864,11 Jun 2027 10:15:06.480,446.616
88,11 Jun 2027 11:39:52.381,11 Jun 2027 11:51:44.869,712.488
89,11 Jun 2027 13:14:58.668,11 Jun 2027 13:27:46.744,768.076
90,11 Jun 2027 14:53:35.151,11 Jun 2027 15:02:46.093,550.942
91,12 Jun 2027 00:52:23.156,12 Jun 2027 01:03:46.699,683.543
92,12 Jun 2027 02:27:56.734,12 Jun 2027 02:40:48.256,771.522
93,12 Jun 2027 04:04:12.058,12 Jun 2027 04:14:45.834,633.776
94,12 Jun 2027 05:41:22.465,12 Jun 2027 05:45:35.439,252.973
95,12 Jun 2027 10:19:03.011,12 Jun 2027 10:27:16.594,493.582
96,12 Jun 2027 11:51:38.206,12 Jun 2027 12:03:49.125,730.919
97,12 Jun 2027 13:27:07.100,12 Jun 2027 13:39:46.220,759.120
98,12 Jun 2027 15:06:21.402,12 Jun 2027 15:14:28.059,486.657
99,12 Jun 2027 23:31:46.825,12 Jun 2027 23:33:43.945,117.120
100,13 Jun 2027 01:04:18.095,13 Jun 2027 01:16:08.828,710.733
101,13 Jun 2027 02:39:59.048,13 Jun 2027 02:52:44.413,765.365
102,13 Jun 2027 04:16:18.559,13 Jun 2027 04:26:20.419,601.861
103,13 Jun 2027 05:53:54.469,13 Jun 2027 05:56:29.181,154.711
104,13 Jun 2027 10:30:29.445,13 Jun 2027 10:39:25.422,535.978
105,13 Jun 2027 12:03:26.726,13 Jun 2027 12:15:52.894,746.168
106,13 Jun 2027 13:39:18.819,13 Jun 2027 13:51:44.762,745.943
107,13 Jun 2027 15:19:18.438,13 Jun 2027 15:26:02.197,403.759
108,13 Jun 2027 23:42:25.592,13 Jun 2027 23:47:41.950,316.358
