dataset/facility_timing/facility_Facility-Novosib/Novosib-To-KinoSat_110705.csv

Acces,Start Time (UTCG),Stop Time (UTCG),Duration (sec)
1,1 Jun 2027 00:36:02.262,1 Jun 2027 00:43:41.941,459.680
2,1 Jun 2027 05:16:47.847,1 Jun 2027 05:22:13.732,325.884
3,1 Jun 2027 06:48:07.074,1 Jun 2027 06:59:07.863,660.790
4,1 Jun 2027 08:22:24.085,1 Jun 2027 08:35:18.147,774.062
5,1 Jun 2027 09:59:50.008,1 Jun 2027 10:10:42.712,652.704
6,1 Jun 2027 20:00:18.051,1 Jun 2027 20:10:10.035,591.984
7,1 Jun 2027 21:35:27.060,1 Jun 2027 21:48:19.230,772.171
8,1 Jun 2027 23:11:31.301,1 Jun 2027 23:23:07.511,696.210
9,2 Jun 2027 00:48:12.817,2 Jun 2027 00:55:02.581,409.764
10,2 Jun 2027 05:28:02.298,2 Jun 2027 05:34:27.833,385.535
11,2 Jun 2027 06:59:46.744,2 Jun 2027 07:11:12.714,685.970
12,2 Jun 2027 08:34:25.301,2 Jun 2027 08:47:18.857,773.555
13,2 Jun 2027 10:12:20.524,2 Jun 2027 10:22:33.175,612.651
14,2 Jun 2027 20:12:07.244,2 Jun 2027 20:22:43.005,635.762
15,2 Jun 2027 21:47:27.473,2 Jun 2027 22:00:21.746,774.273
16,2 Jun 2027 23:23:35.920,2 Jun 2027 23:34:48.369,672.449
17,3 Jun 2027 01:00:25.554,3 Jun 2027 01:06:19.187,353.632
18,3 Jun 2027 05:39:21.231,3 Jun 2027 05:46:39.254,438.023
19,3 Jun 2027 07:11:29.058,3 Jun 2027 07:23:17.064,708.006
20,3 Jun 2027 08:46:29.452,3 Jun 2027 08:59:18.881,769.428
21,3 Jun 2027 10:24:56.830,3 Jun 2027 10:34:20.529,563.699
22,3 Jun 2027 20:23:59.083,3 Jun 2027 20:35:10.716,671.633
23,3 Jun 2027 21:59:28.539,3 Jun 2027 22:12:21.378,772.839
24,3 Jun 2027 23:35:41.056,3 Jun 2027 23:46:26.581,645.525
25,4 Jun 2027 01:12:41.845,4 Jun 2027 01:17:30.484,288.639
26,4 Jun 2027 05:50:43.820,4 Jun 2027 05:58:48.919,485.099
27,4 Jun 2027 07:23:14.003,4 Jun 2027 07:35:20.937,726.934
28,4 Jun 2027 08:58:36.648,4 Jun 2027 09:11:18.123,761.475
29,4 Jun 2027 10:37:40.306,4 Jun 2027 10:46:03.476,503.169
30,4 Jun 2027 20:35:52.957,4 Jun 2027 20:47:33.846,700.888
31,4 Jun 2027 22:11:30.183,4 Jun 2027 22:24:18.213,768.030
32,4 Jun 2027 23:47:46.753,4 Jun 2027 23:58:02.122,615.368
33,5 Jun 2027 01:25:05.143,5 Jun 2027 01:28:33.102,207.959
34,5 Jun 2027 06:02:09.630,5 Jun 2027 06:10:57.303,527.673
35,5 Jun 2027 07:35:01.587,5 Jun 2027 07:47:24.338,742.751
36,5 Jun 2027 09:10:47.031,5 Jun 2027 09:23:16.482,749.451
37,5 Jun 2027 10:50:33.481,5 Jun 2027 10:57:39.598,426.117
38,5 Jun 2027 19:14:21.396,5 Jun 2027 19:18:39.761,258.365
39,5 Jun 2027 20:47:48.452,5 Jun 2027 20:59:52.877,724.424
40,5 Jun 2027 22:23:32.379,5 Jun 2027 22:36:12.304,759.925
41,5 Jun 2027 23:59:53.070,6 Jun 2027 00:09:34.940,581.871
42,6 Jun 2027 01:37:54.451,6 Jun 2027 01:39:08.145,73.694
43,6 Jun 2027 06:13:38.419,6 Jun 2027 06:23:04.712,566.293
44,6 Jun 2027 07:46:51.825,6 Jun 2027 07:59:27.254,755.429
45,6 Jun 2027 09:23:00.794,6 Jun 2027 09:35:13.809,733.015
46,6 Jun 2027 11:03:42.258,6 Jun 2027 11:09:03.112,320.854
47,6 Jun 2027 19:25:34.785,6 Jun 2027 19:32:00.005,385.219
48,6 Jun 2027 20:59:45.274,6 Jun 2027 21:12:08.176,742.902
49,6 Jun 2027 22:35:35.077,6 Jun 2027 22:48:03.701,748.625
50,7 Jun 2027 00:12:00.114,7 Jun 2027 00:21:04.975,544.860
51,7 Jun 2027 04:54:57.725,7 Jun 2027 04:57:40.755,163.030
52,7 Jun 2027 06:25:10.044,7 Jun 2027 06:35:11.334,601.290
53,7 Jun 2027 07:58:44.749,7 Jun 2027 08:11:29.670,764.921
54,7 Jun 2027 09:35:18.173,7 Jun 2027 09:47:09.905,711.731
55,7 Jun 2027 11:17:34.508,7 Jun 2027 11:19:46.290,131.782
56,7 Jun 2027 19:37:06.554,7 Jun 2027 19:44:58.815,472.262
57,7 Jun 2027 21:11:43.206,7 Jun 2027 21:24:19.998,756.792
58,7 Jun 2027 22:47:38.270,7 Jun 2027 22:59:52.431,734.161
59,8 Jun 2027 00:24:08.045,8 Jun 2027 00:32:32.106,504.061
60,8 Jun 2027 05:05:53.644,8 Jun 2027 05:10:10.061,256.416
61,8 Jun 2027 06:36:44.410,8 Jun 2027 06:47:17.293,632.883
62,8 Jun 2027 08:10:40.386,8 Jun 2027 08:23:31.555,771.169
63,8 Jun 2027 09:47:39.486,8 Jun 2027 09:59:04.523,685.037
64,8 Jun 2027 19:48:46.960,8 Jun 2027 19:57:46.068,539.108
65,8 Jun 2027 21:23:42.083,8 Jun 2027 21:36:28.550,766.467
66,8 Jun 2027 22:59:41.931,8 Jun 2027 23:11:38.519,716.589
67,9 Jun 2027 00:36:17.101,9 Jun 2027 00:43:56.129,459.028
68,9 Jun 2027 05:17:01.838,9 Jun 2027 05:22:28.714,326.876
69,9 Jun 2027 06:48:21.473,9 Jun 2027 06:59:22.665,661.192
70,9 Jun 2027 08:22:38.800,9 Jun 2027 08:35:32.879,774.079
71,9 Jun 2027 10:00:05.138,9 Jun 2027 10:10:57.299,652.162
72,9 Jun 2027 20:00:32.604,9 Jun 2027 20:10:25.264,592.659
73,9 Jun 2027 21:35:41.781,9 Jun 2027 21:48:34.006,772.224
74,9 Jun 2027 23:11:46.076,9 Jun 2027 23:23:21.976,695.901
75,10 Jun 2027 00:48:27.677,10 Jun 2027 00:55:16.723,409.047
76,10 Jun 2027 05:28:16.368,10 Jun 2027 05:34:42.760,386.391
77,10 Jun 2027 07:00:01.181,10 Jun 2027 07:11:27.506,686.325
78,10 Jun 2027 08:34:40.058,10 Jun 2027 08:47:33.578,773.520
79,10 Jun 2027 10:12:35.731,10 Jun 2027 10:22:47.720,611.989
80,10 Jun 2027 20:12:21.839,10 Jun 2027 20:22:58.153,636.313
81,10 Jun 2027 21:47:42.203,10 Jun 2027 22:00:36.479,774.276
82,10 Jun 2027 23:23:50.699,10 Jun 2027 23:35:02.797,672.098
83,11 Jun 2027 01:00:40.449,11 Jun 2027 01:06:33.270,352.821
84,11 Jun 2027 05:39:35.360,11 Jun 2027 05:46:54.146,438.786
85,11 Jun 2027 07:11:43.534,11 Jun 2027 07:23:31.847,708.314
86,11 Jun 2027 08:46:44.253,11 Jun 2027 08:59:33.590,769.337
87,11 Jun 2027 10:25:12.131,11 Jun 2027 10:34:35.017,562.886
88,11 Jun 2027 20:24:13.710,11 Jun 2027 20:35:25.794,672.084
89,11 Jun 2027 21:59:43.275,11 Jun 2027 22:12:36.069,772.794
90,11 Jun 2027 23:35:55.840,11 Jun 2027 23:46:40.972,645.131
91,12 Jun 2027 01:12:56.792,12 Jun 2027 01:17:44.485,287.693
92,12 Jun 2027 05:50:58.002,12 Jun 2027 05:59:03.786,485.785
93,12 Jun 2027 07:23:28.517,12 Jun 2027 07:35:35.712,727.195
94,12 Jun 2027 08:58:51.494,12 Jun 2027 09:11:32.818,761.324
95,12 Jun 2027 10:37:55.729,12 Jun 2027 10:46:17.881,502.151
96,12 Jun 2027 20:36:07.608,12 Jun 2027 20:47:48.861,701.253
97,12 Jun 2027 22:11:44.926,12 Jun 2027 22:24:32.864,767.939
98,12 Jun 2027 23:48:01.543,12 Jun 2027 23:58:16.474,614.932
99,13 Jun 2027 01:25:20.223,13 Jun 2027 01:28:46.947,206.725
100,13 Jun 2027 06:02:23.858,13 Jun 2027 06:11:12.153,528.295
101,13 Jun 2027 07:35:16.140,13 Jun 2027 07:47:39.104,742.965
102,13 Jun 2027 09:11:01.924,13 Jun 2027 09:23:31.160,749.236
103,13 Jun 2027 10:50:49.080,13 Jun 2027 10:57:53.867,424.787
104,13 Jun 2027 19:14:35.237,13 Jun 2027 19:18:55.873,260.636
105,13 Jun 2027 20:48:03.122,13 Jun 2027 21:00:07.836,724.713
106,13 Jun 2027 22:23:47.128,13 Jun 2027 22:36:26.917,759.789
