dataset/facility_timing/facility_Facility-Novosib/Novosib-To-KinoSat_110710.csv

Acces,Start Time (UTCG),Stop Time (UTCG),Duration (sec)
1,1 Jun 2027 01:24:57.597,1 Jun 2027 01:28:26.182,208.585
2,1 Jun 2027 06:02:02.511,1 Jun 2027 06:10:49.878,527.367
3,1 Jun 2027 07:34:54.309,1 Jun 2027 07:47:16.953,742.644
4,1 Jun 2027 09:10:39.583,1 Jun 2027 09:23:09.143,749.561
5,1 Jun 2027 10:50:25.687,1 Jun 2027 10:57:32.453,426.766
6,1 Jun 2027 19:14:14.482,1 Jun 2027 19:18:31.697,257.215
7,1 Jun 2027 20:47:41.121,1 Jun 2027 20:59:45.398,724.277
8,1 Jun 2027 22:23:25.002,1 Jun 2027 22:36:04.995,759.994
9,1 Jun 2027 23:59:45.670,2 Jun 2027 00:09:27.786,582.116
10,2 Jun 2027 01:37:46.411,2 Jun 2027 01:39:01.729,75.318
11,2 Jun 2027 06:13:31.282,2 Jun 2027 06:22:57.295,566.013
12,2 Jun 2027 07:46:44.528,2 Jun 2027 07:59:19.873,755.346
13,2 Jun 2027 09:22:53.321,2 Jun 2027 09:35:06.476,733.156
14,2 Jun 2027 11:03:34.300,2 Jun 2027 11:08:56.109,321.809
15,2 Jun 2027 19:25:27.663,2 Jun 2027 19:31:52.169,384.506
16,2 Jun 2027 20:59:37.930,2 Jun 2027 21:12:00.715,742.785
17,2 Jun 2027 22:35:27.701,2 Jun 2027 22:47:56.415,748.714
18,3 Jun 2027 00:11:52.708,3 Jun 2027 00:20:57.840,545.133
19,3 Jun 2027 04:54:50.954,3 Jun 2027 04:57:33.067,162.113
20,3 Jun 2027 06:25:02.881,3 Jun 2027 06:35:03.927,601.046
21,3 Jun 2027 07:58:37.431,3 Jun 2027 08:11:22.290,764.860
22,3 Jun 2027 09:35:10.677,3 Jun 2027 09:47:02.585,711.908
23,3 Jun 2027 11:17:25.764,3 Jun 2027 11:19:40.048,134.285
24,3 Jun 2027 19:36:59.356,3 Jun 2027 19:44:51.089,471.734
25,3 Jun 2027 21:11:35.860,3 Jun 2027 21:24:12.566,756.706
26,3 Jun 2027 22:47:30.884,3 Jun 2027 22:59:45.165,734.281
27,4 Jun 2027 00:24:00.636,4 Jun 2027 00:32:24.984,504.348
28,4 Jun 2027 05:05:46.712,4 Jun 2027 05:10:02.519,255.807
29,4 Jun 2027 06:36:37.232,4 Jun 2027 06:47:09.888,632.656
30,4 Jun 2027 08:10:33.048,4 Jun 2027 08:23:24.188,771.139
31,4 Jun 2027 09:47:31.950,4 Jun 2027 09:58:57.213,685.263
32,4 Jun 2027 19:48:39.713,4 Jun 2027 19:57:38.403,538.691
33,4 Jun 2027 21:23:34.728,4 Jun 2027 21:36:21.145,766.417
34,4 Jun 2027 22:59:34.547,4 Jun 2027 23:11:31.268,716.722
35,5 Jun 2027 00:36:09.682,5 Jun 2027 00:43:49.033,459.351
36,5 Jun 2027 05:16:54.843,5 Jun 2027 05:22:21.223,326.380
37,5 Jun 2027 06:48:14.274,5 Jun 2027 06:59:15.265,660.991
38,5 Jun 2027 08:22:31.443,5 Jun 2027 08:35:25.514,774.071
39,5 Jun 2027 09:59:57.574,5 Jun 2027 10:10:50.007,652.433
40,5 Jun 2027 20:00:25.328,5 Jun 2027 20:10:17.651,592.323
41,5 Jun 2027 21:35:34.421,5 Jun 2027 21:48:26.619,772.198
42,5 Jun 2027 23:11:38.690,5 Jun 2027 23:23:14.745,696.055
43,6 Jun 2027 00:48:20.248,6 Jun 2027 00:55:09.652,409.404
44,6 Jun 2027 05:28:09.335,6 Jun 2027 05:34:35.296,385.962
45,6 Jun 2027 06:59:53.964,6 Jun 2027 07:11:20.111,686.147
46,6 Jun 2027 08:34:32.681,6 Jun 2027 08:47:26.218,773.538
47,6 Jun 2027 10:12:28.128,6 Jun 2027 10:22:40.449,612.321
48,6 Jun 2027 20:12:14.542,6 Jun 2027 20:22:50.580,636.039
49,6 Jun 2027 21:47:34.839,6 Jun 2027 22:00:29.113,774.275
50,6 Jun 2027 23:23:43.311,6 Jun 2027 23:34:55.584,672.273
51,7 Jun 2027 01:00:33.002,7 Jun 2027 01:06:26.228,353.226
52,7 Jun 2027 05:39:28.297,7 Jun 2027 05:46:46.700,438.403
53,7 Jun 2027 07:11:36.297,7 Jun 2027 07:23:24.456,708.159
54,7 Jun 2027 08:46:36.854,7 Jun 2027 08:59:26.236,769.383
55,7 Jun 2027 10:25:04.481,7 Jun 2027 10:34:27.775,563.294
56,7 Jun 2027 20:24:06.396,7 Jun 2027 20:35:18.256,671.860
57,7 Jun 2027 21:59:35.908,7 Jun 2027 22:12:28.724,772.817
58,7 Jun 2027 23:35:48.449,7 Jun 2027 23:46:33.777,645.327
59,8 Jun 2027 01:12:49.322,8 Jun 2027 01:17:37.483,288.161
60,8 Jun 2027 05:50:50.912,8 Jun 2027 05:58:56.352,485.439
61,8 Jun 2027 07:23:21.261,8 Jun 2027 07:35:28.325,727.064
62,8 Jun 2027 08:58:44.072,8 Jun 2027 09:11:25.472,761.400
63,8 Jun 2027 10:37:48.017,8 Jun 2027 10:46:10.681,502.663
64,8 Jun 2027 20:36:00.282,8 Jun 2027 20:47:41.354,701.072
65,8 Jun 2027 22:11:37.555,8 Jun 2027 22:24:25.539,767.984
66,8 Jun 2027 23:47:54.149,8 Jun 2027 23:58:09.298,615.148
67,9 Jun 2027 01:25:12.688,9 Jun 2027 01:28:40.021,207.333
68,9 Jun 2027 06:02:16.745,9 Jun 2027 06:11:04.727,527.982
69,9 Jun 2027 07:35:08.864,9 Jun 2027 07:47:31.721,742.857
70,9 Jun 2027 09:10:54.478,9 Jun 2027 09:23:23.822,749.344
71,9 Jun 2027 10:50:41.279,9 Jun 2027 10:57:46.735,425.456
72,9 Jun 2027 19:14:28.312,9 Jun 2027 19:18:47.822,259.510
73,9 Jun 2027 20:47:55.787,9 Jun 2027 21:00:00.357,724.570
74,9 Jun 2027 22:23:39.754,9 Jun 2027 22:36:19.610,759.856
75,10 Jun 2027 00:00:00.471,10 Jun 2027 00:09:42.098,581.626
76,10 Jun 2027 01:38:02.496,10 Jun 2027 01:39:14.552,72.057
77,10 Jun 2027 06:13:45.556,10 Jun 2027 06:23:12.129,566.573
78,10 Jun 2027 07:46:59.121,10 Jun 2027 07:59:34.633,755.511
79,10 Jun 2027 09:23:08.266,10 Jun 2027 09:35:21.140,732.874
80,10 Jun 2027 11:03:50.217,10 Jun 2027 11:09:10.109,319.892
81,10 Jun 2027 19:25:41.909,10 Jun 2027 19:32:07.833,385.924
82,10 Jun 2027 20:59:52.616,10 Jun 2027 21:12:15.630,743.014
83,10 Jun 2027 22:35:42.454,10 Jun 2027 22:48:10.989,748.535
84,11 Jun 2027 00:12:07.518,11 Jun 2027 00:21:12.112,544.594
85,11 Jun 2027 04:55:04.493,11 Jun 2027 04:57:48.447,163.954
86,11 Jun 2027 06:25:17.201,11 Jun 2027 06:35:18.745,601.543
87,11 Jun 2027 07:58:52.064,11 Jun 2027 08:11:37.044,764.980
88,11 Jun 2027 09:35:25.673,11 Jun 2027 09:47:17.224,711.551
89,11 Jun 2027 11:17:43.284,11 Jun 2027 11:19:52.495,129.211
90,11 Jun 2027 19:37:13.758,11 Jun 2027 19:45:06.541,472.783
91,11 Jun 2027 21:11:50.555,11 Jun 2027 21:24:27.428,756.873
92,11 Jun 2027 22:47:45.650,11 Jun 2027 22:59:59.699,734.050
93,12 Jun 2027 00:24:15.453,12 Jun 2027 00:32:39.224,503.772
94,12 Jun 2027 05:06:00.570,12 Jun 2027 05:10:17.607,257.037
95,12 Jun 2027 06:36:51.587,12 Jun 2027 06:47:24.698,633.111
96,12 Jun 2027 08:10:47.722,12 Jun 2027 08:23:38.925,771.203
97,12 Jun 2027 09:47:47.016,12 Jun 2027 09:59:11.829,684.813
98,12 Jun 2027 19:48:54.209,12 Jun 2027 19:57:53.728,539.519
99,12 Jun 2027 21:23:49.438,12 Jun 2027 21:36:35.957,766.519
100,12 Jun 2027 22:59:49.313,12 Jun 2027 23:11:45.770,716.457
101,13 Jun 2027 00:36:24.515,13 Jun 2027 00:44:03.226,458.712
102,13 Jun 2027 05:17:08.827,13 Jun 2027 05:22:36.208,327.381
103,13 Jun 2027 06:48:28.670,13 Jun 2027 06:59:30.065,661.396
104,13 Jun 2027 08:22:46.156,13 Jun 2027 08:35:40.244,774.088
105,13 Jun 2027 10:00:12.702,13 Jun 2027 10:11:04.589,651.887
106,13 Jun 2027 20:00:39.883,13 Jun 2027 20:10:32.874,592.991
107,13 Jun 2027 21:35:49.141,13 Jun 2027 21:48:41.391,772.250
108,13 Jun 2027 23:11:53.460,13 Jun 2027 23:23:29.208,695.748
