dataset/facility_timing/facility_Facility-Novosib/Novosib-To-KinoSat_111202.csv

Acces,Start Time (UTCG),Stop Time (UTCG),Duration (sec)
1,1 Jun 2027 00:44:03.681,1 Jun 2027 00:56:44.964,761.283
2,1 Jun 2027 02:20:24.359,1 Jun 2027 02:30:10.670,586.311
3,1 Jun 2027 03:58:19.444,1 Jun 2027 03:59:52.612,93.169
4,1 Jun 2027 08:34:15.784,1 Jun 2027 08:43:34.247,558.463
5,1 Jun 2027 10:07:25.046,1 Jun 2027 10:19:58.250,753.204
6,1 Jun 2027 11:43:29.719,1 Jun 2027 11:55:46.371,736.652
7,1 Jun 2027 13:23:59.297,1 Jun 2027 13:29:44.292,344.996
8,1 Jun 2027 21:46:10.568,1 Jun 2027 21:52:21.725,371.156
9,1 Jun 2027 23:20:17.041,1 Jun 2027 23:32:37.748,740.707
10,2 Jun 2027 00:56:06.501,2 Jun 2027 01:08:36.863,750.362
11,2 Jun 2027 02:32:31.547,2 Jun 2027 02:41:41.088,549.541
12,2 Jun 2027 07:15:47.737,2 Jun 2027 07:17:59.918,132.181
13,2 Jun 2027 08:45:46.869,2 Jun 2027 08:55:41.266,594.397
14,2 Jun 2027 10:19:17.583,2 Jun 2027 10:32:00.951,763.368
15,2 Jun 2027 11:55:46.610,2 Jun 2027 12:07:42.889,716.279
16,2 Jun 2027 13:37:36.463,2 Jun 2027 13:40:42.412,185.950
17,2 Jun 2027 21:57:40.825,2 Jun 2027 22:05:22.927,462.102
18,2 Jun 2027 23:32:15.007,2 Jun 2027 23:44:50.243,755.236
19,3 Jun 2027 01:08:09.817,3 Jun 2027 01:20:26.077,736.261
20,3 Jun 2027 02:44:39.618,3 Jun 2027 02:53:08.585,508.968
21,3 Jun 2027 07:26:37.493,3 Jun 2027 07:30:35.264,237.771
22,3 Jun 2027 08:57:20.742,3 Jun 2027 09:07:47.576,626.834
23,3 Jun 2027 10:31:12.845,3 Jun 2027 10:44:03.125,770.280
24,3 Jun 2027 12:08:07.382,3 Jun 2027 12:19:37.972,690.591
25,3 Jun 2027 22:09:20.480,3 Jun 2027 22:18:11.759,531.279
26,3 Jun 2027 23:44:13.934,3 Jun 2027 23:56:59.425,765.491
27,4 Jun 2027 01:20:13.615,4 Jun 2027 01:32:12.619,719.004
28,4 Jun 2027 02:56:48.801,4 Jun 2027 03:04:32.967,464.166
29,4 Jun 2027 07:37:43.505,4 Jun 2027 07:42:55.974,312.470
30,4 Jun 2027 09:08:57.346,4 Jun 2027 09:19:53.278,655.932
31,4 Jun 2027 10:43:10.895,4 Jun 2027 10:56:04.741,773.847
32,4 Jun 2027 12:20:32.434,4 Jun 2027 12:31:31.285,658.851
33,4 Jun 2027 22:21:05.713,4 Jun 2027 22:30:52.171,586.458
34,4 Jun 2027 23:56:13.706,5 Jun 2027 00:09:05.464,771.757
35,5 Jun 2027 01:32:17.900,5 Jun 2027 01:43:56.507,698.607
36,5 Jun 2027 03:08:59.491,5 Jun 2027 03:15:53.909,414.418
37,5 Jun 2027 07:48:56.750,5 Jun 2027 07:55:11.179,374.429
38,5 Jun 2027 09:20:36.630,5 Jun 2027 09:31:58.426,681.795
39,5 Jun 2027 10:55:11.795,5 Jun 2027 11:08:05.737,773.942
40,5 Jun 2027 12:33:02.332,5 Jun 2027 12:43:22.344,620.013
41,5 Jun 2027 22:32:54.710,5 Jun 2027 22:43:26.074,631.364
42,6 Jun 2027 00:08:14.217,6 Jun 2027 00:21:08.488,774.271
43,6 Jun 2027 01:44:22.668,6 Jun 2027 01:55:37.744,675.076
44,6 Jun 2027 03:21:12.339,6 Jun 2027 03:27:10.813,358.474
45,6 Jun 2027 08:00:14.827,6 Jun 2027 08:07:23.360,428.533
46,6 Jun 2027 09:32:18.585,6 Jun 2027 09:44:03.066,704.481
47,6 Jun 2027 11:07:15.630,6 Jun 2027 11:20:06.055,770.425
48,6 Jun 2027 12:45:37.883,6 Jun 2027 12:55:10.435,572.552
49,6 Jun 2027 22:44:46.450,6 Jun 2027 22:55:54.587,668.137
50,7 Jun 2027 00:20:15.392,7 Jun 2027 00:33:08.599,773.207
51,7 Jun 2027 01:56:27.958,7 Jun 2027 02:07:16.305,648.347
52,7 Jun 2027 03:33:28.666,7 Jun 2027 03:38:22.451,293.786
53,7 Jun 2027 08:11:36.736,7 Jun 2027 08:19:33.597,476.860
54,7 Jun 2027 09:44:03.195,7 Jun 2027 09:56:07.217,724.022
55,7 Jun 2027 11:19:22.511,7 Jun 2027 11:32:05.602,763.092
56,7 Jun 2027 12:58:20.352,7 Jun 2027 13:06:54.361,514.009
57,7 Jun 2027 22:56:40.289,7 Jun 2027 23:08:18.423,698.135
58,8 Jun 2027 00:32:17.156,8 Jun 2027 00:45:05.884,768.729
59,8 Jun 2027 02:08:33.815,8 Jun 2027 02:18:52.177,618.362
60,8 Jun 2027 03:45:51.768,8 Jun 2027 03:49:25.621,213.852
61,8 Jun 2027 08:23:01.986,8 Jun 2027 08:31:42.455,520.469
62,8 Jun 2027 09:55:50.463,8 Jun 2027 10:08:10.888,740.425
63,8 Jun 2027 11:31:32.574,8 Jun 2027 11:44:04.284,751.710
64,8 Jun 2027 13:11:12.037,8 Jun 2027 13:18:31.961,439.924
65,8 Jun 2027 21:35:14.670,8 Jun 2027 21:39:15.890,241.219
66,8 Jun 2027 23:08:35.797,8 Jun 2027 23:20:38.106,722.308
67,9 Jun 2027 00:44:19.480,9 Jun 2027 00:57:00.403,760.923
68,9 Jun 2027 02:20:40.292,9 Jun 2027 02:30:25.307,585.015
69,9 Jun 2027 03:58:38.156,9 Jun 2027 04:00:03.907,85.751
70,9 Jun 2027 08:34:30.292,9 Jun 2027 08:43:50.266,559.975
71,9 Jun 2027 10:07:40.404,9 Jun 2027 10:20:14.070,753.666
72,9 Jun 2027 11:43:46.008,9 Jun 2027 11:56:01.947,735.939
73,9 Jun 2027 13:24:17.979,9 Jun 2027 13:29:58.293,340.314
74,9 Jun 2027 21:46:24.926,9 Jun 2027 21:52:40.054,375.127
75,9 Jun 2027 23:20:32.656,9 Jun 2027 23:32:53.984,741.328
76,10 Jun 2027 00:56:22.317,10 Jun 2027 01:08:52.205,749.888
77,10 Jun 2027 02:32:47.505,10 Jun 2027 02:41:55.623,548.118
78,10 Jun 2027 07:15:59.868,10 Jun 2027 07:18:17.825,137.957
79,10 Jun 2027 08:46:01.486,10 Jun 2027 08:55:57.249,595.762
80,10 Jun 2027 10:19:33.045,10 Jun 2027 10:32:16.746,763.700
81,10 Jun 2027 11:56:03.042,10 Jun 2027 12:07:58.408,715.366
82,10 Jun 2027 13:37:57.675,10 Jun 2027 13:40:54.005,176.330
83,10 Jun 2027 21:57:55.657,10 Jun 2027 22:05:40.662,465.005
84,10 Jun 2027 23:32:30.654,10 Jun 2027 23:45:06.352,755.698
85,11 Jun 2027 01:08:25.644,11 Jun 2027 01:20:41.310,735.666
86,11 Jun 2027 02:44:55.610,11 Jun 2027 02:53:23.009,507.399
87,11 Jun 2027 07:26:50.821,11 Jun 2027 07:30:52.029,241.208
88,11 Jun 2027 08:57:35.470,11 Jun 2027 09:08:03.529,628.059
89,11 Jun 2027 10:31:28.415,11 Jun 2027 10:44:18.898,770.483
90,11 Jun 2027 12:08:23.973,11 Jun 2027 12:19:53.428,689.455
91,11 Jun 2027 22:09:35.566,11 Jun 2027 22:18:29.128,533.562
92,11 Jun 2027 23:44:29.617,11 Jun 2027 23:57:15.411,765.794
93,12 Jun 2027 01:20:29.457,12 Jun 2027 01:32:27.755,718.299
94,12 Jun 2027 02:57:04.833,12 Jun 2027 03:04:47.267,462.434
95,12 Jun 2027 07:37:57.221,12 Jun 2027 07:43:12.413,315.192
96,12 Jun 2027 09:09:12.182,12 Jun 2027 09:20:09.205,657.023
97,12 Jun 2027 10:43:26.573,12 Jun 2027 10:56:20.488,773.916
98,12 Jun 2027 12:20:49.202,12 Jun 2027 12:31:46.659,657.457
99,12 Jun 2027 22:21:20.960,12 Jun 2027 22:31:09.268,588.308
100,12 Jun 2027 23:56:29.415,13 Jun 2027 00:09:21.331,771.916
101,13 Jun 2027 01:32:33.756,13 Jun 2027 01:44:11.542,697.786
102,13 Jun 2027 03:09:15.581,13 Jun 2027 03:16:08.075,412.494
103,13 Jun 2027 07:49:10.697,13 Jun 2027 07:55:27.454,376.757
104,13 Jun 2027 09:20:51.571,13 Jun 2027 09:32:14.331,682.760
105,13 Jun 2027 10:55:27.585,13 Jun 2027 11:08:21.456,773.870
106,13 Jun 2027 12:33:19.302,13 Jun 2027 12:43:37.613,618.310
107,13 Jun 2027 22:33:10.072,13 Jun 2027 22:43:42.946,632.875
