dataset/facility_timing/facility_Facility-Novosib/Novosib-To-KinoSat_111807.csv

Acces,Start Time (UTCG),Stop Time (UTCG),Duration (sec)
1,1 Jun 2027 01:09:51.961,1 Jun 2027 01:20:52.504,660.543
2,1 Jun 2027 02:45:19.691,1 Jun 2027 02:58:13.544,773.853
3,1 Jun 2027 04:21:32.252,1 Jun 2027 04:32:26.496,654.244
4,1 Jun 2027 05:58:32.519,1 Jun 2027 06:03:37.559,305.039
5,1 Jun 2027 10:36:53.747,1 Jun 2027 10:44:33.339,459.593
6,1 Jun 2027 12:09:12.472,1 Jun 2027 12:21:10.293,717.822
7,1 Jun 2027 13:44:24.998,1 Jun 2027 13:57:11.045,766.047
8,1 Jun 2027 15:23:11.426,1 Jun 2027 15:32:06.250,534.824
9,2 Jun 2027 01:21:45.663,2 Jun 2027 01:33:17.803,692.141
10,2 Jun 2027 02:57:21.657,2 Jun 2027 03:10:11.745,770.087
11,2 Jun 2027 04:33:38.379,2 Jun 2027 04:44:03.046,624.667
12,2 Jun 2027 06:10:55.081,2 Jun 2027 06:14:41.966,226.885
13,2 Jun 2027 10:48:17.802,2 Jun 2027 10:56:43.164,505.361
14,2 Jun 2027 12:20:59.064,2 Jun 2027 12:33:14.479,735.415
15,2 Jun 2027 13:56:34.373,2 Jun 2027 14:09:10.329,755.956
16,2 Jun 2027 15:36:00.319,2 Jun 2027 15:43:46.511,466.193
17,3 Jun 2027 00:00:35.161,3 Jun 2027 00:03:54.886,199.725
18,3 Jun 2027 01:33:41.128,3 Jun 2027 01:45:38.787,717.660
19,3 Jun 2027 03:09:24.199,3 Jun 2027 03:22:07.125,762.926
20,3 Jun 2027 04:45:45.147,3 Jun 2027 04:55:36.819,591.672
21,3 Jun 2027 06:23:36.455,3 Jun 2027 06:25:25.922,109.468
22,3 Jun 2027 10:59:45.074,3 Jun 2027 11:08:51.782,546.708
23,3 Jun 2027 12:32:48.364,3 Jun 2027 12:45:18.165,749.801
24,3 Jun 2027 14:08:47.098,3 Jun 2027 14:21:08.644,741.546
25,3 Jun 2027 15:49:01.393,3 Jun 2027 15:55:17.585,376.192
26,4 Jun 2027 00:11:36.756,4 Jun 2027 00:17:29.258,352.502
27,4 Jun 2027 01:45:38.024,4 Jun 2027 01:57:55.869,737.845
28,4 Jun 2027 03:21:27.264,4 Jun 2027 03:33:59.747,752.483
29,4 Jun 2027 04:57:52.646,4 Jun 2027 05:07:07.737,555.092
30,4 Jun 2027 09:41:47.915,4 Jun 2027 09:42:49.707,61.793
31,4 Jun 2027 11:11:15.359,4 Jun 2027 11:20:59.473,584.115
32,4 Jun 2027 12:44:40.393,4 Jun 2027 12:57:21.346,760.953
33,4 Jun 2027 14:21:03.377,4 Jun 2027 14:33:05.809,722.432
34,4 Jun 2027 16:02:26.046,4 Jun 2027 16:06:28.198,242.152
35,5 Jun 2027 00:23:04.927,5 Jun 2027 00:30:33.905,448.978
36,5 Jun 2027 01:57:36.111,5 Jun 2027 02:10:09.335,753.224
37,5 Jun 2027 03:33:30.841,5 Jun 2027 03:45:49.634,738.792
38,5 Jun 2027 05:10:01.038,5 Jun 2027 05:18:35.685,514.647
39,5 Jun 2027 09:52:17.844,5 Jun 2027 09:55:44.764,206.921
40,5 Jun 2027 11:22:48.516,5 Jun 2027 11:33:06.393,617.877
41,5 Jun 2027 12:56:35.173,5 Jun 2027 13:09:24.002,768.829
42,5 Jun 2027 14:33:23.496,5 Jun 2027 14:45:01.597,698.101
43,6 Jun 2027 00:34:43.641,6 Jun 2027 00:43:24.983,521.341
44,6 Jun 2027 02:09:35.196,6 Jun 2027 02:22:19.418,764.222
45,6 Jun 2027 03:45:34.914,6 Jun 2027 03:57:36.808,721.894
46,6 Jun 2027 05:22:10.553,6 Jun 2027 05:30:00.467,469.915
47,6 Jun 2027 10:03:19.682,6 Jun 2027 10:08:09.538,289.856
48,6 Jun 2027 11:34:24.471,6 Jun 2027 11:45:12.655,648.183
49,6 Jun 2027 13:08:32.763,6 Jun 2027 13:21:26.096,773.333
50,6 Jun 2027 14:45:47.823,6 Jun 2027 14:56:55.710,667.887
51,7 Jun 2027 00:46:28.405,7 Jun 2027 00:56:07.112,578.707
52,7 Jun 2027 02:21:35.153,7 Jun 2027 02:34:26.289,771.135
53,7 Jun 2027 03:57:39.483,7 Jun 2027 04:09:21.288,701.805
54,7 Jun 2027 05:34:21.576,7 Jun 2027 05:41:21.768,420.192
55,7 Jun 2027 10:14:30.712,7 Jun 2027 10:20:26.843,356.131
56,7 Jun 2027 11:46:03.173,7 Jun 2027 11:57:18.330,675.157
57,7 Jun 2027 13:20:33.222,7 Jun 2027 13:33:27.577,774.355
58,7 Jun 2027 14:58:16.880,7 Jun 2027 15:08:47.692,630.812
59,8 Jun 2027 00:58:17.177,8 Jun 2027 01:08:42.436,625.259
60,8 Jun 2027 02:33:35.875,8 Jun 2027 02:46:30.096,774.221
61,8 Jun 2027 04:09:44.548,8 Jun 2027 04:21:03.069,678.521
62,8 Jun 2027 05:46:34.763,8 Jun 2027 05:52:38.983,364.220
63,8 Jun 2027 10:25:47.298,8 Jun 2027 10:32:40.414,413.116
64,8 Jun 2027 11:57:44.590,8 Jun 2027 12:09:23.476,698.886
65,8 Jun 2027 13:32:36.623,8 Jun 2027 13:45:28.392,771.769
66,8 Jun 2027 15:10:51.407,8 Jun 2027 15:20:36.897,585.490
67,9 Jun 2027 01:10:08.837,9 Jun 2027 01:21:12.171,663.335
68,9 Jun 2027 02:45:37.273,9 Jun 2027 02:58:30.942,773.669
69,9 Jun 2027 04:21:50.146,9 Jun 2027 04:32:42.142,651.996
70,9 Jun 2027 05:58:51.409,9 Jun 2027 06:03:50.908,299.499
71,9 Jun 2027 10:37:08.084,9 Jun 2027 10:44:51.691,463.607
72,9 Jun 2027 12:09:28.711,9 Jun 2027 12:21:28.106,719.395
73,9 Jun 2027 13:44:43.081,9 Jun 2027 13:57:28.450,765.369
74,9 Jun 2027 15:23:32.536,9 Jun 2027 15:32:22.268,529.732
75,10 Jun 2027 01:22:02.694,10 Jun 2027 01:33:37.096,694.403
76,10 Jun 2027 02:57:39.281,10 Jun 2027 03:10:28.913,769.632
77,10 Jun 2027 04:33:56.321,10 Jun 2027 04:44:18.477,622.155
78,10 Jun 2027 06:11:14.712,10 Jun 2027 06:14:54.442,219.730
79,10 Jun 2027 10:48:32.415,10 Jun 2027 10:57:01.391,508.976
80,10 Jun 2027 12:21:15.521,10 Jun 2027 12:33:32.249,736.728
81,10 Jun 2027 13:56:52.727,10 Jun 2027 14:09:27.657,754.931
82,10 Jun 2027 15:36:22.246,10 Jun 2027 15:44:01.947,459.701
83,11 Jun 2027 00:00:45.690,11 Jun 2027 00:04:22.314,216.625
84,11 Jun 2027 01:33:58.283,11 Jun 2027 01:45:57.756,719.473
85,11 Jun 2027 03:09:41.862,11 Jun 2027 03:22:24.069,762.207
86,11 Jun 2027 04:46:03.133,11 Jun 2027 04:55:52.020,588.887
87,11 Jun 2027 06:23:59.770,11 Jun 2027 06:25:34.577,94.808
88,11 Jun 2027 10:59:59.947,11 Jun 2027 11:09:09.922,549.975
89,11 Jun 2027 12:33:05.042,11 Jun 2027 12:45:35.892,750.850
90,11 Jun 2027 14:09:05.730,11 Jun 2027 14:21:25.882,740.152
91,11 Jun 2027 15:49:24.633,11 Jun 2027 15:55:31.958,367.325
92,12 Jun 2027 00:11:51.067,12 Jun 2027 00:17:52.636,361.569
93,12 Jun 2027 01:45:55.282,12 Jun 2027 01:58:14.526,739.244
94,12 Jun 2027 03:21:44.971,12 Jun 2027 03:34:16.468,751.497
95,12 Jun 2027 04:58:10.692,12 Jun 2027 05:07:22.708,552.015
96,12 Jun 2027 09:41:52.903,12 Jun 2027 09:43:16.684,83.782
97,12 Jun 2027 11:11:30.471,12 Jun 2027 11:21:17.532,587.061
98,12 Jun 2027 12:44:57.296,12 Jun 2027 12:57:39.025,761.728
99,12 Jun 2027 14:21:22.313,12 Jun 2027 14:33:22.938,720.625
100,12 Jun 2027 16:02:52.634,12 Jun 2027 16:06:39.484,226.850
101,13 Jun 2027 00:23:20.383,13 Jun 2027 00:30:55.885,455.502
102,13 Jun 2027 01:57:53.446,13 Jun 2027 02:10:27.714,754.268
103,13 Jun 2027 03:33:48.585,13 Jun 2027 03:46:06.134,737.548
104,13 Jun 2027 05:10:19.163,13 Jun 2027 05:18:50.409,511.246
105,13 Jun 2027 09:52:29.867,13 Jun 2027 09:56:04.838,214.971
106,13 Jun 2027 11:23:03.865,13 Jun 2027 11:33:24.386,620.521
107,13 Jun 2027 12:56:52.308,13 Jun 2027 13:09:41.631,769.323
108,13 Jun 2027 14:33:42.763,13 Jun 2027 14:45:18.603,695.840
