dataset/area_work/orbit_4/KinoSat_110404.csv

Acces,Start Time (UTCG),Stop Time (UTCG),Duration (sec)
1,1 Jun 2027 04:01:51.229,1 Jun 2027 04:08:37.990,406.761
2,1 Jun 2027 05:38:13.400,1 Jun 2027 05:44:32.773,379.373
3,1 Jun 2027 07:15:41.660,1 Jun 2027 07:20:09.530,267.870
4,1 Jun 2027 08:51:47.968,1 Jun 2027 08:56:02.033,254.065
5,2 Jun 2027 04:14:00.213,2 Jun 2027 04:20:36.635,396.422
6,2 Jun 2027 05:50:13.212,2 Jun 2027 05:56:05.483,352.271
7,2 Jun 2027 05:56:14.701,2 Jun 2027 05:56:20.779,6.078
8,2 Jun 2027 07:27:48.078,2 Jun 2027 07:32:19.136,271.058
9,2 Jun 2027 09:03:49.774,2 Jun 2027 09:08:01.038,251.264
10,2 Jun 2027 09:08:05.048,2 Jun 2027 09:08:50.916,45.868
11,3 Jun 2027 04:25:23.918,3 Jun 2027 04:32:47.228,443.310
12,3 Jun 2027 06:02:00.594,3 Jun 2027 06:08:24.289,383.696
13,3 Jun 2027 07:40:18.486,3 Jun 2027 07:44:13.020,234.534
14,3 Jun 2027 09:13:38.117,3 Jun 2027 09:15:05.602,87.484
15,3 Jun 2027 09:15:37.933,3 Jun 2027 09:19:51.100,253.167
16,3 Jun 2027 09:20:10.825,3 Jun 2027 09:21:10.025,59.200
17,4 Jun 2027 03:00:34.951,4 Jun 2027 03:07:07.143,392.192
18,4 Jun 2027 04:37:18.574,4 Jun 2027 04:44:47.507,448.933
19,4 Jun 2027 06:14:21.639,4 Jun 2027 06:20:12.438,350.798
20,4 Jun 2027 06:20:15.646,4 Jun 2027 06:20:31.420,15.774
21,4 Jun 2027 07:52:15.838,4 Jun 2027 07:56:15.400,239.562
22,4 Jun 2027 09:25:29.325,4 Jun 2027 09:31:50.695,381.370
23,4 Jun 2027 09:32:07.699,4 Jun 2027 09:33:22.078,74.379
24,5 Jun 2027 03:11:55.124,5 Jun 2027 03:14:00.956,125.832
25,5 Jun 2027 03:14:05.341,5 Jun 2027 03:19:26.373,321.032
26,5 Jun 2027 03:19:57.436,5 Jun 2027 03:20:26.983,29.547
27,5 Jun 2027 04:49:29.561,5 Jun 2027 04:56:51.027,441.465
28,5 Jun 2027 06:26:12.326,5 Jun 2027 06:32:25.593,373.266
29,5 Jun 2027 06:32:29.841,5 Jun 2027 06:32:50.715,20.874
30,5 Jun 2027 08:04:15.693,5 Jun 2027 08:08:25.092,249.398
31,5 Jun 2027 09:37:57.161,5 Jun 2027 09:44:52.753,415.593
32,6 Jun 2027 03:23:25.513,6 Jun 2027 03:31:34.587,489.074
33,6 Jun 2027 03:31:54.479,6 Jun 2027 03:32:53.763,59.284
34,6 Jun 2027 05:01:23.780,6 Jun 2027 05:08:52.431,448.651
35,6 Jun 2027 06:38:19.596,6 Jun 2027 06:43:38.636,319.039
36,6 Jun 2027 06:43:58.107,6 Jun 2027 06:44:49.270,51.163
37,6 Jun 2027 08:16:01.495,6 Jun 2027 08:20:23.553,262.058
38,6 Jun 2027 09:50:17.211,6 Jun 2027 09:51:29.993,72.782
39,6 Jun 2027 09:52:01.488,6 Jun 2027 09:55:35.462,213.974
40,7 Jun 2027 03:36:19.416,7 Jun 2027 03:43:49.678,450.263
41,7 Jun 2027 03:43:53.789,7 Jun 2027 03:44:54.083,60.294
42,7 Jun 2027 05:13:45.116,7 Jun 2027 05:20:45.561,420.445
43,7 Jun 2027 06:50:48.667,7 Jun 2027 06:55:17.679,269.012
44,7 Jun 2027 06:55:25.058,7 Jun 2027 06:56:38.675,73.617
45,7 Jun 2027 08:27:34.021,7 Jun 2027 08:32:21.596,287.576
46,7 Jun 2027 10:02:50.172,7 Jun 2027 10:02:57.132,6.960
47,7 Jun 2027 10:04:31.754,7 Jun 2027 10:07:20.797,169.043
48,8 Jun 2027 03:48:54.767,8 Jun 2027 03:55:48.076,413.309
49,8 Jun 2027 03:55:50.457,8 Jun 2027 03:56:50.968,60.512
50,8 Jun 2027 05:25:57.719,8 Jun 2027 05:32:40.912,403.193
51,8 Jun 2027 07:02:54.716,8 Jun 2027 07:07:19.360,264.644
52,8 Jun 2027 07:07:20.327,8 Jun 2027 07:07:55.467,35.140
53,8 Jun 2027 08:39:40.381,8 Jun 2027 08:44:47.817,307.436
54,8 Jun 2027 10:17:54.348,8 Jun 2027 10:18:49.990,55.642
55,9 Jun 2027 04:02:06.270,9 Jun 2027 04:08:52.552,406.282
56,9 Jun 2027 05:38:28.393,9 Jun 2027 05:44:47.449,379.055
57,9 Jun 2027 07:15:56.136,9 Jun 2027 07:20:24.403,268.268
58,9 Jun 2027 08:52:03.007,9 Jun 2027 08:56:16.741,253.734
59,10 Jun 2027 04:14:14.810,10 Jun 2027 04:20:51.497,396.687
60,10 Jun 2027 05:50:13.256,10 Jun 2027 05:56:20.266,367.010
61,10 Jun 2027 05:56:29.714,10 Jun 2027 05:56:34.566,4.852
62,10 Jun 2027 07:28:02.600,10 Jun 2027 07:32:33.517,270.917
63,10 Jun 2027 09:04:04.494,10 Jun 2027 09:08:15.499,251.005
64,10 Jun 2027 09:08:19.599,10 Jun 2027 09:09:06.004,46.405
65,11 Jun 2027 04:25:37.742,11 Jun 2027 04:33:01.974,444.232
66,11 Jun 2027 06:02:15.500,11 Jun 2027 06:08:38.919,383.420
67,11 Jun 2027 07:40:33.397,11 Jun 2027 07:44:27.669,234.272
68,11 Jun 2027 09:13:52.522,11 Jun 2027 09:15:20.317,87.795
69,11 Jun 2027 09:15:52.481,11 Jun 2027 09:20:05.820,253.339
70,11 Jun 2027 09:20:25.877,11 Jun 2027 09:21:30.414,64.537
71,12 Jun 2027 03:00:49.247,12 Jun 2027 03:02:01.875,72.628
72,12 Jun 2027 03:02:31.889,12 Jun 2027 03:07:21.944,290.055
73,12 Jun 2027 04:37:33.656,12 Jun 2027 04:45:02.157,448.501
74,12 Jun 2027 06:14:36.355,12 Jun 2027 06:20:27.155,350.800
75,12 Jun 2027 06:20:30.500,12 Jun 2027 06:20:45.809,15.309
76,12 Jun 2027 07:52:30.434,12 Jun 2027 07:56:29.935,239.501
77,12 Jun 2027 09:25:44.630,12 Jun 2027 09:32:05.658,381.028
78,12 Jun 2027 09:32:22.045,12 Jun 2027 09:33:36.894,74.850
79,13 Jun 2027 03:12:09.485,13 Jun 2027 03:14:15.866,126.381
80,13 Jun 2027 03:14:19.805,13 Jun 2027 03:19:41.080,321.275
81,13 Jun 2027 03:20:11.954,13 Jun 2027 03:20:41.739,29.784
82,13 Jun 2027 04:49:43.876,13 Jun 2027 04:57:05.692,441.816
83,13 Jun 2027 06:26:26.647,13 Jun 2027 06:32:40.151,373.504
84,13 Jun 2027 06:32:44.455,13 Jun 2027 06:33:05.478,21.023
85,13 Jun 2027 08:04:30.462,13 Jun 2027 08:08:39.702,249.240
86,13 Jun 2027 09:38:12.500,13 Jun 2027 09:45:07.042,414.542
