dataset/area_timing/orbit_18/Russia-To-KinoSat_111803.csv

Acces,Start Time (UTCG),Stop Time (UTCG),Duration (sec)
1,1 Jun 2027 00:12:15.735,1 Jun 2027 00:18:22.638,366.902
2,1 Jun 2027 01:48:25.854,1 Jun 2027 01:55:09.617,403.763
3,1 Jun 2027 03:24:26.552,1 Jun 2027 03:30:50.493,383.941
4,1 Jun 2027 05:03:25.045,1 Jun 2027 05:10:45.664,440.620
5,1 Jun 2027 06:28:35.116,1 Jun 2027 06:29:54.301,79.186
6,1 Jun 2027 06:40:09.281,1 Jun 2027 06:41:34.942,85.661
7,1 Jun 2027 08:02:45.189,1 Jun 2027 08:03:43.725,58.536
8,1 Jun 2027 08:04:22.144,1 Jun 2027 08:07:26.546,184.402
9,1 Jun 2027 09:37:53.933,1 Jun 2027 09:39:07.814,73.881
10,1 Jun 2027 09:39:36.784,1 Jun 2027 09:44:24.875,288.091
11,1 Jun 2027 11:14:41.278,1 Jun 2027 11:22:06.704,445.425
12,1 Jun 2027 12:51:42.318,1 Jun 2027 12:57:32.116,349.798
13,1 Jun 2027 12:57:33.772,1 Jun 2027 12:57:53.830,20.057
14,1 Jun 2027 14:29:35.876,1 Jun 2027 14:33:35.624,239.749
15,1 Jun 2027 16:02:53.320,1 Jun 2027 16:09:10.807,377.487
16,1 Jun 2027 16:09:27.959,1 Jun 2027 16:10:40.939,72.980
17,1 Jun 2027 21:11:19.773,1 Jun 2027 21:13:57.968,158.195
18,1 Jun 2027 22:47:43.028,1 Jun 2027 22:51:05.631,202.603
19,1 Jun 2027 22:52:43.943,1 Jun 2027 22:54:28.024,104.082
20,2 Jun 2027 00:24:32.914,2 Jun 2027 00:30:31.908,358.994
21,2 Jun 2027 02:00:27.037,2 Jun 2027 02:07:08.725,401.688
22,2 Jun 2027 03:36:42.476,2 Jun 2027 03:38:06.004,83.528
23,2 Jun 2027 03:38:08.326,2 Jun 2027 03:42:38.536,270.211
24,2 Jun 2027 05:15:41.596,2 Jun 2027 05:22:42.776,421.181
25,2 Jun 2027 06:39:53.430,2 Jun 2027 06:42:04.754,131.324
26,2 Jun 2027 06:52:06.771,2 Jun 2027 06:53:02.196,55.425
27,2 Jun 2027 08:14:20.893,2 Jun 2027 08:15:28.737,67.844
28,2 Jun 2027 08:16:17.395,2 Jun 2027 08:19:40.797,203.402
29,2 Jun 2027 09:49:13.985,2 Jun 2027 09:51:22.324,128.339
30,2 Jun 2027 09:51:24.924,2 Jun 2027 09:56:38.328,313.404
31,2 Jun 2027 09:57:19.312,2 Jun 2027 09:57:46.156,26.843
32,2 Jun 2027 11:26:48.841,2 Jun 2027 11:34:10.491,441.650
33,2 Jun 2027 13:03:32.073,2 Jun 2027 13:09:46.502,374.429
34,2 Jun 2027 13:09:50.723,2 Jun 2027 13:10:10.933,20.210
35,2 Jun 2027 14:41:35.851,2 Jun 2027 14:45:45.630,249.779
36,2 Jun 2027 16:15:19.566,2 Jun 2027 16:22:36.866,437.300
37,2 Jun 2027 21:23:23.816,2 Jun 2027 21:26:13.841,170.025
38,2 Jun 2027 22:59:50.788,2 Jun 2027 23:03:41.068,230.280
39,2 Jun 2027 23:04:35.621,2 Jun 2027 23:07:42.976,187.355
40,3 Jun 2027 00:36:23.598,3 Jun 2027 00:42:46.437,382.839
41,3 Jun 2027 02:11:56.064,3 Jun 2027 02:19:39.897,463.833
42,3 Jun 2027 03:49:01.762,3 Jun 2027 03:49:14.909,13.146
43,3 Jun 2027 03:49:29.138,3 Jun 2027 03:54:58.460,329.322
44,3 Jun 2027 05:27:48.343,3 Jun 2027 05:33:50.031,361.688
45,3 Jun 2027 06:51:59.501,3 Jun 2027 06:53:53.798,114.297
46,3 Jun 2027 07:04:31.787,3 Jun 2027 07:04:33.549,1.763
47,3 Jun 2027 08:25:49.802,3 Jun 2027 08:27:11.949,82.147
48,3 Jun 2027 08:27:53.054,3 Jun 2027 08:31:53.201,240.147
49,3 Jun 2027 10:00:44.370,3 Jun 2027 10:08:55.559,491.188
50,3 Jun 2027 10:09:15.888,3 Jun 2027 10:10:14.041,58.153
51,3 Jun 2027 11:38:44.616,3 Jun 2027 11:46:12.562,447.946
52,3 Jun 2027 13:15:39.321,3 Jun 2027 13:20:59.620,320.299
53,3 Jun 2027 13:21:20.034,3 Jun 2027 13:22:11.164,51.129
54,3 Jun 2027 14:53:13.497,3 Jun 2027 14:57:44.401,270.904
55,3 Jun 2027 16:29:25.827,3 Jun 2027 16:32:55.283,209.456
56,3 Jun 2027 21:35:48.932,3 Jun 2027 21:37:59.525,130.593
57,3 Jun 2027 21:38:00.576,3 Jun 2027 21:40:17.547,136.971
58,3 Jun 2027 23:11:45.010,3 Jun 2027 23:16:31.012,286.003
59,3 Jun 2027 23:16:39.550,3 Jun 2027 23:18:30.350,110.800
60,3 Jun 2027 23:19:13.981,3 Jun 2027 23:20:00.551,46.570
61,4 Jun 2027 00:48:23.905,4 Jun 2027 00:54:57.765,393.860
62,4 Jun 2027 02:23:55.016,4 Jun 2027 02:31:41.951,466.935
63,4 Jun 2027 04:01:39.584,4 Jun 2027 04:01:46.803,7.219
64,4 Jun 2027 04:02:01.027,4 Jun 2027 04:03:02.336,61.309
65,4 Jun 2027 04:03:07.183,4 Jun 2027 04:07:16.297,249.114
66,4 Jun 2027 05:40:25.849,4 Jun 2027 05:45:06.857,281.007
67,4 Jun 2027 07:03:55.904,4 Jun 2027 07:06:13.194,137.290
68,4 Jun 2027 08:40:08.383,4 Jun 2027 08:43:40.125,211.743
69,4 Jun 2027 10:13:41.269,4 Jun 2027 10:22:15.742,514.473
70,4 Jun 2027 11:51:07.061,4 Jun 2027 11:58:10.679,423.618
71,4 Jun 2027 13:28:08.939,4 Jun 2027 13:32:38.792,269.853
72,4 Jun 2027 13:32:46.201,4 Jun 2027 13:34:00.027,73.826
73,4 Jun 2027 15:04:58.338,4 Jun 2027 15:09:42.757,284.419
74,4 Jun 2027 16:42:11.662,4 Jun 2027 16:44:41.637,149.975
75,4 Jun 2027 21:47:45.160,4 Jun 2027 21:50:21.915,156.754
76,4 Jun 2027 21:50:55.381,4 Jun 2027 21:52:32.743,97.362
77,4 Jun 2027 23:23:45.049,4 Jun 2027 23:30:25.371,400.322
78,5 Jun 2027 01:00:27.544,5 Jun 2027 01:06:49.542,381.998
79,5 Jun 2027 02:35:59.479,5 Jun 2027 02:43:31.419,451.940
80,5 Jun 2027 04:14:06.263,5 Jun 2027 04:14:33.855,27.592
81,5 Jun 2027 04:14:37.651,5 Jun 2027 04:20:17.052,339.401
82,5 Jun 2027 05:52:07.110,5 Jun 2027 05:57:00.001,292.891
83,5 Jun 2027 07:15:47.554,5 Jun 2027 07:18:24.893,157.339
84,5 Jun 2027 08:52:14.625,5 Jun 2027 08:55:46.279,211.654
85,5 Jun 2027 10:24:25.747,5 Jun 2027 10:24:32.350,6.602
86,5 Jun 2027 10:26:20.095,5 Jun 2027 10:33:10.029,409.934
87,5 Jun 2027 10:33:12.104,5 Jun 2027 10:34:13.919,61.815
88,5 Jun 2027 12:03:18.039,5 Jun 2027 12:10:02.415,404.377
89,5 Jun 2027 13:40:28.153,5 Jun 2027 13:44:41.280,253.127
90,5 Jun 2027 13:44:44.276,5 Jun 2027 13:45:39.042,54.766
91,5 Jun 2027 15:17:01.618,5 Jun 2027 15:22:09.430,307.812
92,5 Jun 2027 16:55:20.225,5 Jun 2027 16:56:10.650,50.424
93,5 Jun 2027 21:59:53.296,5 Jun 2027 22:02:10.517,137.221
94,5 Jun 2027 23:35:49.176,5 Jun 2027 23:42:19.134,389.958
95,6 Jun 2027 01:12:30.328,6 Jun 2027 01:19:00.709,390.381
96,6 Jun 2027 02:48:02.596,6 Jun 2027 02:55:33.741,451.145
97,6 Jun 2027 04:26:12.378,6 Jun 2027 04:27:15.500,63.121
98,6 Jun 2027 04:27:22.521,6 Jun 2027 04:32:29.620,307.098
99,6 Jun 2027 06:05:20.729,6 Jun 2027 06:08:54.081,213.353
100,6 Jun 2027 07:27:53.925,6 Jun 2027 07:30:33.143,159.218
101,6 Jun 2027 09:04:22.537,6 Jun 2027 09:07:52.459,209.922
102,6 Jun 2027 10:39:31.296,6 Jun 2027 10:46:14.845,403.548
103,6 Jun 2027 12:15:52.405,6 Jun 2027 12:22:09.205,376.800
104,6 Jun 2027 13:53:17.068,6 Jun 2027 13:57:46.333,269.265
105,6 Jun 2027 15:29:28.308,6 Jun 2027 15:33:38.736,250.427
106,6 Jun 2027 20:37:11.908,6 Jun 2027 20:37:15.729,3.821
107,6 Jun 2027 22:12:00.581,6 Jun 2027 22:15:03.722,183.142
108,6 Jun 2027 23:47:54.975,6 Jun 2027 23:53:36.077,341.102
109,7 Jun 2027 01:24:36.132,7 Jun 2027 01:30:45.887,369.754
110,7 Jun 2027 03:00:00.663,7 Jun 2027 03:07:03.902,423.240
111,7 Jun 2027 04:38:16.994,7 Jun 2027 04:38:58.407,41.412
112,7 Jun 2027 04:39:20.545,7 Jun 2027 04:44:24.825,304.280
113,7 Jun 2027 06:16:29.778,7 Jun 2027 06:17:06.227,36.449
114,7 Jun 2027 06:17:34.858,7 Jun 2027 06:20:00.998,146.141
115,7 Jun 2027 07:39:56.812,7 Jun 2027 07:43:05.165,188.353
116,7 Jun 2027 09:16:25.403,7 Jun 2027 09:19:51.285,205.882
117,7 Jun 2027 10:51:37.830,7 Jun 2027 10:58:13.716,395.885
118,7 Jun 2027 12:27:32.529,7 Jun 2027 12:33:42.365,369.836
119,7 Jun 2027 14:05:29.045,7 Jun 2027 14:09:55.560,266.515
120,7 Jun 2027 15:41:22.775,7 Jun 2027 15:45:36.995,254.221
121,7 Jun 2027 15:45:41.748,7 Jun 2027 15:46:28.977,47.229
122,7 Jun 2027 20:48:09.591,7 Jun 2027 20:49:29.239,79.648
123,7 Jun 2027 22:23:55.289,7 Jun 2027 22:27:05.065,189.777
124,8 Jun 2027 00:00:26.895,8 Jun 2027 00:05:33.939,307.044
125,8 Jun 2027 01:36:35.012,8 Jun 2027 01:43:24.466,409.454
126,8 Jun 2027 03:12:04.111,8 Jun 2027 03:19:07.615,423.504
127,8 Jun 2027 04:51:21.600,8 Jun 2027 04:56:44.029,322.429
128,8 Jun 2027 04:57:31.232,8 Jun 2027 04:59:08.571,97.339
129,8 Jun 2027 06:17:33.733,8 Jun 2027 06:17:56.380,22.647
130,8 Jun 2027 06:28:25.558,8 Jun 2027 06:31:53.257,207.699
131,8 Jun 2027 07:52:23.756,8 Jun 2027 07:55:09.685,165.928
132,8 Jun 2027 09:28:08.809,8 Jun 2027 09:32:24.815,256.006
133,8 Jun 2027 11:02:52.157,8 Jun 2027 11:10:24.177,452.021
134,8 Jun 2027 12:39:39.724,8 Jun 2027 12:46:01.566,381.843
135,8 Jun 2027 14:17:55.029,8 Jun 2027 14:21:50.225,235.197
136,8 Jun 2027 15:51:12.335,8 Jun 2027 15:52:44.772,92.437
137,8 Jun 2027 15:53:01.451,8 Jun 2027 15:57:28.657,267.205
138,8 Jun 2027 15:57:49.697,8 Jun 2027 15:58:53.432,63.736
139,8 Jun 2027 20:59:37.729,8 Jun 2027 21:01:59.606,141.877
140,8 Jun 2027 22:35:52.820,8 Jun 2027 22:39:16.568,203.748
141,9 Jun 2027 00:12:35.562,9 Jun 2027 00:18:43.744,368.182
142,9 Jun 2027 01:48:44.466,9 Jun 2027 01:55:25.190,400.723
143,9 Jun 2027 03:24:44.347,9 Jun 2027 03:31:07.782,383.435
144,9 Jun 2027 05:03:43.940,9 Jun 2027 05:11:02.326,438.386
145,9 Jun 2027 06:28:48.198,9 Jun 2027 06:30:12.027,83.829
146,9 Jun 2027 06:40:26.820,9 Jun 2027 06:41:46.912,80.092
147,9 Jun 2027 08:02:59.861,9 Jun 2027 08:04:00.097,60.236
148,9 Jun 2027 08:04:40.096,9 Jun 2027 08:07:44.666,184.570
149,9 Jun 2027 09:38:03.230,9 Jun 2027 09:39:24.628,81.399
150,9 Jun 2027 09:39:53.257,9 Jun 2027 09:44:44.678,291.421
151,9 Jun 2027 11:15:00.603,9 Jun 2027 11:22:24.996,444.393
152,9 Jun 2027 12:51:59.219,9 Jun 2027 12:57:50.192,350.973
153,9 Jun 2027 12:58:00.845,9 Jun 2027 12:58:08.874,8.029
154,9 Jun 2027 14:29:53.583,9 Jun 2027 14:33:52.619,239.036
155,9 Jun 2027 16:03:12.770,9 Jun 2027 16:09:29.215,376.446
156,9 Jun 2027 16:09:41.375,9 Jun 2027 16:11:00.187,78.812
157,9 Jun 2027 21:11:37.646,9 Jun 2027 21:14:15.508,157.862
158,9 Jun 2027 22:48:01.382,9 Jun 2027 22:51:23.514,202.132
159,9 Jun 2027 22:53:00.858,9 Jun 2027 22:54:57.148,116.290
160,10 Jun 2027 00:24:51.259,10 Jun 2027 00:30:49.905,358.646
161,10 Jun 2027 02:00:44.202,10 Jun 2027 02:07:28.755,404.553
162,10 Jun 2027 03:37:00.794,10 Jun 2027 03:42:56.381,355.587
163,10 Jun 2027 05:16:03.580,10 Jun 2027 05:23:00.648,417.069
164,10 Jun 2027 06:40:09.178,10 Jun 2027 06:42:23.145,133.967
165,10 Jun 2027 06:52:24.196,10 Jun 2027 06:53:18.245,54.049
166,10 Jun 2027 08:14:29.605,10 Jun 2027 08:15:47.010,77.405
167,10 Jun 2027 08:16:33.481,10 Jun 2027 08:19:59.475,205.993
168,10 Jun 2027 09:49:27.924,10 Jun 2027 09:57:04.314,456.390
169,10 Jun 2027 09:57:35.862,10 Jun 2027 09:58:03.745,27.883
170,10 Jun 2027 11:27:04.468,10 Jun 2027 11:34:28.864,444.396
171,10 Jun 2027 13:03:48.680,10 Jun 2027 13:10:03.373,374.693
172,10 Jun 2027 13:10:07.770,10 Jun 2027 13:10:28.790,21.020
173,10 Jun 2027 14:41:53.307,10 Jun 2027 14:46:02.864,249.558
174,10 Jun 2027 16:15:39.716,10 Jun 2027 16:22:29.517,409.801
175,10 Jun 2027 21:23:41.643,10 Jun 2027 21:26:28.342,166.699
176,10 Jun 2027 23:00:07.648,10 Jun 2027 23:03:59.850,232.202
177,10 Jun 2027 23:05:00.465,10 Jun 2027 23:08:03.598,183.134
178,11 Jun 2027 00:36:40.940,11 Jun 2027 00:43:05.853,384.913
179,11 Jun 2027 02:12:13.003,11 Jun 2027 02:13:03.165,50.162
180,11 Jun 2027 02:13:06.961,11 Jun 2027 02:19:58.883,411.922
181,11 Jun 2027 03:49:26.439,11 Jun 2027 03:49:32.268,5.829
182,11 Jun 2027 03:49:47.262,11 Jun 2027 03:55:17.079,329.817
183,11 Jun 2027 05:28:08.197,11 Jun 2027 05:34:09.400,361.204
184,11 Jun 2027 06:52:16.319,11 Jun 2027 06:54:10.924,114.605
185,11 Jun 2027 08:26:05.863,11 Jun 2027 08:32:10.387,364.524
186,11 Jun 2027 10:00:58.377,11 Jun 2027 10:09:12.925,494.548
187,11 Jun 2027 10:09:32.958,11 Jun 2027 10:10:31.571,58.613
188,11 Jun 2027 11:39:03.795,11 Jun 2027 11:46:30.683,446.887
189,11 Jun 2027 13:15:57.129,11 Jun 2027 13:21:07.631,310.501
190,11 Jun 2027 13:21:33.547,11 Jun 2027 13:22:27.191,53.643
191,11 Jun 2027 14:53:06.842,11 Jun 2027 14:58:01.634,294.792
192,11 Jun 2027 16:27:55.846,11 Jun 2027 16:29:05.948,70.101
193,11 Jun 2027 16:29:49.050,11 Jun 2027 16:33:11.623,202.573
194,11 Jun 2027 21:36:08.612,11 Jun 2027 21:38:16.103,127.491
195,11 Jun 2027 21:38:24.873,11 Jun 2027 21:40:37.606,132.733
196,11 Jun 2027 23:12:01.712,11 Jun 2027 23:16:51.264,289.552
197,11 Jun 2027 23:16:56.293,11 Jun 2027 23:18:53.255,116.963
198,11 Jun 2027 23:19:30.114,11 Jun 2027 23:20:21.126,51.013
199,12 Jun 2027 00:48:42.194,12 Jun 2027 00:55:15.883,393.689
200,12 Jun 2027 02:24:12.402,12 Jun 2027 02:31:56.397,463.994
201,12 Jun 2027 04:01:57.738,12 Jun 2027 04:02:00.555,2.817
202,12 Jun 2027 04:02:19.380,12 Jun 2027 04:03:19.082,59.702
203,12 Jun 2027 04:03:24.191,12 Jun 2027 04:07:37.799,253.608
204,12 Jun 2027 05:40:44.862,12 Jun 2027 05:45:25.559,280.697
205,12 Jun 2027 07:04:14.305,12 Jun 2027 07:06:31.144,136.839
206,12 Jun 2027 08:40:14.926,12 Jun 2027 08:43:54.741,219.815
207,12 Jun 2027 10:13:58.599,12 Jun 2027 10:21:28.343,449.744
208,12 Jun 2027 10:21:32.488,12 Jun 2027 10:22:33.211,60.723
209,12 Jun 2027 11:51:26.923,12 Jun 2027 11:58:24.295,417.373
210,12 Jun 2027 13:28:25.728,12 Jun 2027 13:32:55.389,269.661
211,12 Jun 2027 13:33:01.773,12 Jun 2027 13:34:17.316,75.543
212,12 Jun 2027 15:05:19.794,12 Jun 2027 15:09:59.596,279.801
213,12 Jun 2027 16:42:29.403,12 Jun 2027 16:44:58.494,149.090
214,12 Jun 2027 21:48:01.322,12 Jun 2027 21:50:38.694,157.371
215,12 Jun 2027 21:51:15.909,12 Jun 2027 21:52:45.554,89.645
216,12 Jun 2027 23:24:03.092,12 Jun 2027 23:30:42.247,399.155
217,13 Jun 2027 01:00:44.884,13 Jun 2027 01:07:07.933,383.049
218,13 Jun 2027 02:36:17.376,13 Jun 2027 02:43:49.266,451.891
219,13 Jun 2027 04:14:22.211,13 Jun 2027 04:14:50.241,28.030
220,13 Jun 2027 04:14:54.254,13 Jun 2027 04:20:32.318,338.064
221,13 Jun 2027 05:52:24.641,13 Jun 2027 05:57:16.221,291.581
222,13 Jun 2027 07:16:04.107,13 Jun 2027 07:18:42.947,158.840
223,13 Jun 2027 08:52:30.981,13 Jun 2027 08:56:04.984,214.004
224,13 Jun 2027 10:24:39.615,13 Jun 2027 10:24:50.070,10.455
225,13 Jun 2027 10:26:37.795,13 Jun 2027 10:33:26.640,408.846
226,13 Jun 2027 10:33:29.415,13 Jun 2027 10:34:30.802,61.387
227,13 Jun 2027 12:03:36.384,13 Jun 2027 12:10:20.090,403.706
228,13 Jun 2027 13:40:56.213,13 Jun 2027 13:45:00.881,244.668
229,13 Jun 2027 13:45:03.519,13 Jun 2027 13:45:53.421,49.902
230,13 Jun 2027 15:17:21.634,13 Jun 2027 15:22:27.814,306.180
231,13 Jun 2027 16:55:37.878,13 Jun 2027 16:56:20.352,42.474
232,13 Jun 2027 22:00:11.567,13 Jun 2027 22:02:28.088,136.521
233,13 Jun 2027 23:36:07.025,13 Jun 2027 23:42:34.599,387.574
