dataset/area_timing/orbit_03/Russia-To-KinoSat_110303.csv

Acces,Start Time (UTCG),Stop Time (UTCG),Duration (sec)
1,1 Jun 2027 01:02:56.365,1 Jun 2027 01:04:17.331,80.966
2,1 Jun 2027 01:04:59.590,1 Jun 2027 01:08:33.171,213.581
3,1 Jun 2027 02:37:48.459,1 Jun 2027 02:45:39.415,470.956
4,1 Jun 2027 02:46:03.996,1 Jun 2027 02:46:55.171,51.174
5,1 Jun 2027 04:15:33.279,1 Jun 2027 04:22:58.977,445.698
6,1 Jun 2027 05:52:21.050,1 Jun 2027 05:58:14.431,353.381
7,1 Jun 2027 05:58:22.381,1 Jun 2027 05:59:03.529,41.148
8,1 Jun 2027 07:30:24.780,1 Jun 2027 07:34:32.367,247.587
9,1 Jun 2027 09:04:15.257,1 Jun 2027 09:10:55.972,400.716
10,1 Jun 2027 14:12:12.361,1 Jun 2027 14:15:01.105,168.744
11,1 Jun 2027 15:48:38.401,1 Jun 2027 15:52:36.187,237.786
12,1 Jun 2027 15:53:32.173,1 Jun 2027 15:56:37.390,185.217
13,1 Jun 2027 17:25:11.607,1 Jun 2027 17:31:37.894,386.287
14,1 Jun 2027 19:00:44.603,1 Jun 2027 19:08:31.711,467.108
15,1 Jun 2027 20:37:56.913,1 Jun 2027 20:38:03.132,6.219
16,1 Jun 2027 20:38:17.598,1 Jun 2027 20:38:45.225,27.627
17,1 Jun 2027 20:38:47.085,1 Jun 2027 20:43:48.631,301.546
18,1 Jun 2027 22:16:39.218,1 Jun 2027 22:23:21.364,402.146
19,1 Jun 2027 23:40:46.030,1 Jun 2027 23:42:56.099,130.068
20,2 Jun 2027 01:16:43.196,2 Jun 2027 01:20:37.474,234.278
21,2 Jun 2027 02:50:33.071,2 Jun 2027 02:57:52.693,439.622
22,2 Jun 2027 02:58:02.955,2 Jun 2027 02:59:02.608,59.654
23,2 Jun 2027 04:27:36.207,2 Jun 2027 04:34:56.323,440.116
24,2 Jun 2027 06:04:30.630,2 Jun 2027 06:09:33.572,302.942
25,2 Jun 2027 06:09:44.606,2 Jun 2027 06:10:51.209,66.603
26,2 Jun 2027 07:41:36.974,2 Jun 2027 07:46:30.275,293.301
27,2 Jun 2027 09:16:38.471,2 Jun 2027 09:17:21.691,43.221
28,2 Jun 2027 09:18:18.159,2 Jun 2027 09:21:37.993,199.834
29,2 Jun 2027 14:24:17.409,2 Jun 2027 14:26:34.667,137.258
30,2 Jun 2027 14:26:56.250,2 Jun 2027 14:29:29.363,153.113
31,2 Jun 2027 16:00:32.271,2 Jun 2027 16:05:24.177,291.906
32,2 Jun 2027 16:05:26.481,2 Jun 2027 16:07:24.640,118.158
33,2 Jun 2027 17:37:12.200,2 Jun 2027 17:43:46.785,394.585
34,2 Jun 2027 19:12:43.080,2 Jun 2027 19:20:22.951,459.871
35,2 Jun 2027 20:50:49.243,2 Jun 2027 20:51:49.228,59.985
36,2 Jun 2027 20:51:54.415,2 Jun 2027 20:57:01.717,307.303
37,2 Jun 2027 22:29:15.629,2 Jun 2027 22:33:57.609,281.980
38,2 Jun 2027 23:52:40.134,2 Jun 2027 23:55:04.938,144.804
39,3 Jun 2027 01:29:01.173,3 Jun 2027 01:32:29.074,207.900
40,3 Jun 2027 03:02:31.031,3 Jun 2027 03:11:01.857,510.826
41,3 Jun 2027 04:40:01.928,3 Jun 2027 04:46:46.839,404.912
42,3 Jun 2027 06:16:58.056,3 Jun 2027 06:21:21.431,263.375
43,3 Jun 2027 06:21:27.500,3 Jun 2027 06:22:44.926,77.426
44,3 Jun 2027 07:53:48.464,3 Jun 2027 07:58:21.042,272.578
45,3 Jun 2027 09:31:25.581,3 Jun 2027 09:33:08.508,102.928
46,3 Jun 2027 14:36:31.347,3 Jun 2027 14:39:04.528,153.180
47,3 Jun 2027 14:39:48.671,3 Jun 2027 14:41:09.284,80.613
48,3 Jun 2027 16:12:32.863,3 Jun 2027 16:19:10.681,397.818
49,3 Jun 2027 17:49:14.924,3 Jun 2027 17:55:38.392,383.468
50,3 Jun 2027 19:24:46.993,3 Jun 2027 19:32:20.430,453.438
51,3 Jun 2027 21:02:53.571,3 Jun 2027 21:03:20.402,26.831
52,3 Jun 2027 21:03:24.371,3 Jun 2027 21:09:03.140,338.769
53,3 Jun 2027 22:40:54.534,3 Jun 2027 22:45:42.186,287.651
54,4 Jun 2027 00:04:31.011,4 Jun 2027 00:07:13.835,162.823
55,4 Jun 2027 01:41:02.744,4 Jun 2027 01:44:36.388,213.644
56,4 Jun 2027 03:15:20.771,4 Jun 2027 03:21:56.004,395.232
57,4 Jun 2027 03:21:58.863,4 Jun 2027 03:22:57.097,58.234
58,4 Jun 2027 04:52:08.781,4 Jun 2027 04:58:51.512,402.731
59,4 Jun 2027 06:29:49.792,4 Jun 2027 06:34:17.165,267.373
60,4 Jun 2027 08:05:50.965,4 Jun 2027 08:10:38.768,287.803
61,4 Jun 2027 14:48:41.120,4 Jun 2027 14:50:58.316,137.197
62,4 Jun 2027 16:24:36.490,4 Jun 2027 16:30:58.034,381.544
63,4 Jun 2027 18:01:17.664,4 Jun 2027 18:07:46.703,389.040
64,4 Jun 2027 19:36:50.013,4 Jun 2027 19:44:14.886,444.873
65,4 Jun 2027 21:14:59.469,4 Jun 2027 21:16:00.806,61.337
66,4 Jun 2027 21:16:08.587,4 Jun 2027 21:21:13.809,305.221
67,4 Jun 2027 22:54:07.448,4 Jun 2027 22:57:33.730,206.282
68,5 Jun 2027 00:16:41.019,5 Jun 2027 00:19:47.152,186.133
69,5 Jun 2027 01:53:12.165,5 Jun 2027 01:56:46.115,213.950
70,5 Jun 2027 03:28:21.834,5 Jun 2027 03:34:58.768,396.934
71,5 Jun 2027 05:04:44.418,5 Jun 2027 05:10:57.380,372.962
72,5 Jun 2027 06:41:59.491,5 Jun 2027 06:46:37.574,278.082
73,5 Jun 2027 08:18:14.387,5 Jun 2027 08:22:57.790,283.402
74,5 Jun 2027 15:00:49.405,5 Jun 2027 15:03:54.070,184.664
75,5 Jun 2027 16:36:42.002,5 Jun 2027 16:42:20.213,338.212
76,5 Jun 2027 18:13:22.939,5 Jun 2027 18:19:31.389,368.449
77,5 Jun 2027 19:48:48.244,5 Jun 2027 19:55:48.509,420.265
78,5 Jun 2027 21:27:03.901,5 Jun 2027 21:27:45.207,41.306
79,5 Jun 2027 21:28:07.061,5 Jun 2027 21:33:08.718,301.657
80,5 Jun 2027 23:05:16.108,5 Jun 2027 23:05:52.644,36.535
81,5 Jun 2027 23:06:21.330,5 Jun 2027 23:08:48.301,146.972
82,6 Jun 2027 00:29:20.761,6 Jun 2027 00:31:53.013,152.251
83,6 Jun 2027 02:05:06.077,6 Jun 2027 02:09:03.069,236.992
84,6 Jun 2027 03:40:03.615,6 Jun 2027 03:47:06.037,422.422
85,6 Jun 2027 05:16:16.237,6 Jun 2027 05:22:43.910,387.673
86,6 Jun 2027 06:54:29.101,6 Jun 2027 06:58:27.822,238.721
87,6 Jun 2027 08:29:56.830,6 Jun 2027 08:34:20.645,263.815
88,6 Jun 2027 08:34:27.794,6 Jun 2027 08:35:24.951,57.156
89,6 Jun 2027 13:36:52.538,6 Jun 2027 13:38:17.574,85.036
90,6 Jun 2027 15:12:41.160,6 Jun 2027 15:15:49.591,188.431
91,6 Jun 2027 16:49:13.348,6 Jun 2027 16:54:21.877,308.529
92,6 Jun 2027 18:25:21.481,6 Jun 2027 18:32:09.109,407.629
93,6 Jun 2027 20:00:49.922,6 Jun 2027 20:07:57.507,427.586
94,6 Jun 2027 21:40:08.323,6 Jun 2027 21:45:47.593,339.270
95,6 Jun 2027 21:46:18.489,6 Jun 2027 21:47:53.638,95.149
96,6 Jun 2027 23:06:04.702,6 Jun 2027 23:06:48.522,43.820
97,6 Jun 2027 23:17:11.647,6 Jun 2027 23:18:55.491,103.844
98,6 Jun 2027 23:19:02.942,6 Jun 2027 23:20:31.192,88.250
99,7 Jun 2027 00:40:08.969,7 Jun 2027 00:44:23.383,254.414
100,7 Jun 2027 02:15:41.530,7 Jun 2027 02:15:52.203,10.674
101,7 Jun 2027 02:16:51.673,7 Jun 2027 02:21:20.751,269.078
102,7 Jun 2027 03:51:36.942,7 Jun 2027 03:59:10.926,453.984
103,7 Jun 2027 05:28:38.231,7 Jun 2027 05:34:45.929,367.699
104,7 Jun 2027 07:06:38.327,7 Jun 2027 07:10:35.346,237.019
105,7 Jun 2027 08:39:51.780,7 Jun 2027 08:46:01.969,370.189
106,7 Jun 2027 08:46:03.435,7 Jun 2027 08:47:45.093,101.658
107,7 Jun 2027 13:48:23.568,7 Jun 2027 13:50:49.286,145.718
108,7 Jun 2027 15:24:39.060,7 Jun 2027 15:28:02.754,203.694
109,7 Jun 2027 17:01:21.784,7 Jun 2027 17:07:34.889,373.104
110,7 Jun 2027 18:37:30.403,7 Jun 2027 18:44:05.882,395.479
111,7 Jun 2027 20:13:30.257,7 Jun 2027 20:19:55.779,385.522
112,7 Jun 2027 21:52:31.104,7 Jun 2027 21:59:46.688,435.584
113,7 Jun 2027 23:17:30.286,7 Jun 2027 23:19:01.017,90.731
114,7 Jun 2027 23:29:12.628,7 Jun 2027 23:30:33.361,80.732
115,8 Jun 2027 00:51:25.699,8 Jun 2027 00:52:39.224,73.524
116,8 Jun 2027 00:53:27.543,8 Jun 2027 00:56:36.704,189.161
117,8 Jun 2027 02:26:33.321,8 Jun 2027 02:28:02.174,88.853
118,8 Jun 2027 02:28:35.016,8 Jun 2027 02:33:33.614,298.598
119,8 Jun 2027 02:34:26.950,8 Jun 2027 02:34:44.273,17.322
120,8 Jun 2027 04:03:46.275,8 Jun 2027 04:11:11.949,445.674
121,8 Jun 2027 05:40:42.837,8 Jun 2027 05:46:51.879,369.042
122,8 Jun 2027 07:18:36.481,8 Jun 2027 07:22:37.603,241.122
123,8 Jun 2027 08:52:10.689,8 Jun 2027 08:59:42.748,452.059
124,8 Jun 2027 14:00:23.665,8 Jun 2027 14:03:01.964,158.300
125,8 Jun 2027 15:36:47.466,8 Jun 2027 15:40:09.971,202.505
126,8 Jun 2027 15:41:44.653,8 Jun 2027 15:43:56.772,132.119
127,8 Jun 2027 17:13:37.867,8 Jun 2027 17:19:33.798,355.930
128,8 Jun 2027 18:49:30.009,8 Jun 2027 18:56:17.624,407.615
129,8 Jun 2027 20:25:45.853,8 Jun 2027 20:31:44.361,358.508
130,8 Jun 2027 22:04:49.383,8 Jun 2027 22:11:49.427,420.044
131,8 Jun 2027 23:28:58.267,8 Jun 2027 23:31:13.368,135.101
132,8 Jun 2027 23:41:09.632,8 Jun 2027 23:41:49.307,39.675
133,9 Jun 2027 01:03:11.065,9 Jun 2027 01:04:32.126,81.061
134,9 Jun 2027 01:05:14.205,9 Jun 2027 01:08:48.009,213.804
135,9 Jun 2027 02:38:02.823,9 Jun 2027 02:45:54.203,471.380
136,9 Jun 2027 02:46:18.672,9 Jun 2027 02:47:12.817,54.145
137,9 Jun 2027 04:15:48.211,9 Jun 2027 04:23:13.682,445.471
138,9 Jun 2027 05:52:35.809,9 Jun 2027 05:58:29.017,353.208
139,9 Jun 2027 05:58:36.827,9 Jun 2027 05:59:18.286,41.459
140,9 Jun 2027 07:30:39.622,9 Jun 2027 07:34:47.205,247.583
141,9 Jun 2027 09:04:29.736,9 Jun 2027 09:11:10.433,400.697
142,9 Jun 2027 14:12:27.078,9 Jun 2027 14:15:16.400,169.322
143,9 Jun 2027 15:48:52.926,9 Jun 2027 15:52:51.911,238.985
144,9 Jun 2027 15:53:46.366,9 Jun 2027 15:56:52.338,185.972
145,9 Jun 2027 17:25:26.358,9 Jun 2027 17:31:52.669,386.311
146,9 Jun 2027 19:00:59.084,9 Jun 2027 19:08:46.561,467.477
147,9 Jun 2027 20:38:11.659,9 Jun 2027 20:38:17.836,6.177
148,9 Jun 2027 20:38:32.426,9 Jun 2027 20:38:59.955,27.529
149,9 Jun 2027 20:39:01.831,9 Jun 2027 20:44:03.262,301.432
150,9 Jun 2027 22:16:54.138,9 Jun 2027 22:23:36.023,401.886
151,9 Jun 2027 23:41:00.699,9 Jun 2027 23:43:13.730,133.031
152,10 Jun 2027 01:16:57.916,10 Jun 2027 01:20:52.288,234.372
153,10 Jun 2027 02:50:47.826,10 Jun 2027 02:58:07.419,439.592
154,10 Jun 2027 02:58:17.639,10 Jun 2027 02:59:17.277,59.638
155,10 Jun 2027 04:27:51.071,10 Jun 2027 04:35:10.895,439.823
156,10 Jun 2027 06:04:45.451,10 Jun 2027 06:09:48.190,302.739
157,10 Jun 2027 06:09:58.894,10 Jun 2027 06:11:05.712,66.818
158,10 Jun 2027 07:41:51.904,10 Jun 2027 07:46:44.954,293.050
159,10 Jun 2027 09:16:53.466,10 Jun 2027 09:17:36.526,43.060
160,10 Jun 2027 09:18:32.894,10 Jun 2027 09:21:52.456,199.562
161,10 Jun 2027 14:24:32.152,10 Jun 2027 14:26:42.341,130.189
162,10 Jun 2027 14:27:11.117,10 Jun 2027 14:29:45.098,153.981
163,10 Jun 2027 16:00:46.860,10 Jun 2027 16:05:39.621,292.761
164,10 Jun 2027 16:05:40.808,10 Jun 2027 16:07:39.645,118.838
165,10 Jun 2027 17:37:27.094,10 Jun 2027 17:44:01.688,394.594
166,10 Jun 2027 19:12:57.746,10 Jun 2027 19:20:37.075,459.328
167,10 Jun 2027 20:51:04.183,10 Jun 2027 20:52:03.714,59.531
168,10 Jun 2027 20:52:09.121,10 Jun 2027 20:57:16.708,307.587
169,10 Jun 2027 22:29:30.605,10 Jun 2027 22:34:12.107,281.502
170,10 Jun 2027 23:52:54.720,10 Jun 2027 23:55:19.800,145.080
171,11 Jun 2027 01:29:16.223,11 Jun 2027 01:32:43.843,207.620
172,11 Jun 2027 03:02:45.815,11 Jun 2027 03:11:16.551,510.737
173,11 Jun 2027 04:40:16.957,11 Jun 2027 04:47:01.515,404.558
174,11 Jun 2027 06:17:12.723,11 Jun 2027 06:21:36.165,263.443
175,11 Jun 2027 06:21:41.547,11 Jun 2027 06:22:59.518,77.972
176,11 Jun 2027 07:54:03.172,11 Jun 2027 07:58:35.792,272.621
177,11 Jun 2027 09:31:40.310,11 Jun 2027 09:33:23.607,103.298
178,11 Jun 2027 14:36:46.001,11 Jun 2027 14:39:19.504,153.503
179,11 Jun 2027 14:40:04.086,11 Jun 2027 14:41:23.026,78.939
180,11 Jun 2027 16:12:47.696,11 Jun 2027 16:19:24.964,397.269
181,11 Jun 2027 17:49:29.607,11 Jun 2027 17:55:53.039,383.432
182,11 Jun 2027 19:25:01.708,11 Jun 2027 19:32:35.066,453.357
183,11 Jun 2027 21:03:07.276,11 Jun 2027 21:03:34.956,27.681
184,11 Jun 2027 21:03:38.935,11 Jun 2027 21:09:17.855,338.919
185,11 Jun 2027 22:41:09.270,11 Jun 2027 22:45:56.695,287.426
186,12 Jun 2027 00:04:45.669,12 Jun 2027 00:07:28.552,162.883
187,12 Jun 2027 01:41:17.673,12 Jun 2027 01:44:51.065,213.393
188,12 Jun 2027 03:15:44.910,12 Jun 2027 03:22:10.692,385.782
189,12 Jun 2027 03:22:13.696,12 Jun 2027 03:23:11.906,58.210
190,12 Jun 2027 04:52:24.731,12 Jun 2027 04:59:06.335,401.604
191,12 Jun 2027 06:30:05.171,12 Jun 2027 06:34:33.344,268.173
192,12 Jun 2027 08:06:05.654,12 Jun 2027 08:10:53.219,287.565
193,12 Jun 2027 14:48:56.005,12 Jun 2027 14:51:13.499,137.494
194,12 Jun 2027 16:24:51.272,12 Jun 2027 16:31:12.500,381.228
195,12 Jun 2027 18:01:32.497,12 Jun 2027 18:08:01.554,389.056
196,12 Jun 2027 19:37:04.661,12 Jun 2027 19:44:29.124,444.463
197,12 Jun 2027 21:15:14.183,12 Jun 2027 21:16:14.687,60.504
198,12 Jun 2027 21:16:23.232,12 Jun 2027 21:21:28.253,305.021
199,12 Jun 2027 22:54:22.216,12 Jun 2027 22:57:47.844,205.628
200,13 Jun 2027 00:16:55.741,13 Jun 2027 00:20:01.997,186.255
201,13 Jun 2027 01:53:27.054,13 Jun 2027 01:57:00.620,213.566
202,13 Jun 2027 03:28:36.454,13 Jun 2027 03:35:13.542,397.089
203,13 Jun 2027 05:04:59.385,13 Jun 2027 05:11:12.040,372.655
204,13 Jun 2027 06:42:13.966,13 Jun 2027 06:46:52.380,278.414
205,13 Jun 2027 08:18:29.625,13 Jun 2027 08:23:12.978,283.353
206,13 Jun 2027 15:01:04.873,13 Jun 2027 15:04:08.766,183.893
207,13 Jun 2027 16:36:56.800,13 Jun 2027 16:42:34.819,338.020
208,13 Jun 2027 18:13:37.647,13 Jun 2027 18:19:46.040,368.393
209,13 Jun 2027 19:49:02.860,13 Jun 2027 19:56:03.046,420.186
210,13 Jun 2027 21:27:18.748,13 Jun 2027 21:27:59.868,41.120
211,13 Jun 2027 21:28:21.713,13 Jun 2027 21:33:23.906,302.193
212,13 Jun 2027 23:05:30.684,13 Jun 2027 23:06:07.379,36.695
213,13 Jun 2027 23:06:36.200,13 Jun 2027 23:09:03.432,147.232
