dataset/area_work/orbit_16/ZorkySat_111609.csv

Acces,Start Time (UTCG),Stop Time (UTCG),Duration (sec)
1,1 Jun 2027 04:13:25.203,1 Jun 2027 04:20:47.862,442.659
2,1 Jun 2027 05:38:34.825,1 Jun 2027 05:39:54.777,79.953
3,1 Jun 2027 05:50:09.822,1 Jun 2027 05:51:36.099,86.278
4,1 Jun 2027 07:12:45.495,1 Jun 2027 07:13:44.120,58.625
5,1 Jun 2027 07:14:22.776,1 Jun 2027 07:17:27.373,184.597
6,1 Jun 2027 08:47:54.502,1 Jun 2027 08:49:08.474,73.973
7,1 Jun 2027 08:49:37.276,1 Jun 2027 08:54:25.722,288.446
8,1 Jun 2027 10:24:41.948,1 Jun 2027 10:32:07.780,445.833
9,2 Jun 2027 04:25:41.227,2 Jun 2027 04:32:43.461,422.234
10,2 Jun 2027 05:49:53.924,2 Jun 2027 05:52:05.501,131.577
11,2 Jun 2027 06:02:07.575,2 Jun 2027 06:03:03.283,55.707
12,2 Jun 2027 07:24:21.282,2 Jun 2027 07:25:29.310,68.028
13,2 Jun 2027 07:26:17.809,2 Jun 2027 07:29:41.544,203.735
14,2 Jun 2027 08:59:14.529,2 Jun 2027 09:01:22.955,128.426
15,2 Jun 2027 09:01:25.399,2 Jun 2027 09:06:47.044,321.645
16,2 Jun 2027 09:07:19.216,2 Jun 2027 09:07:46.736,27.520
17,2 Jun 2027 10:36:49.370,2 Jun 2027 10:44:11.461,442.090
18,3 Jun 2027 03:00:00.261,3 Jun 2027 03:04:58.436,298.175
19,3 Jun 2027 04:37:47.552,3 Jun 2027 04:44:36.110,408.559
20,3 Jun 2027 06:01:59.860,3 Jun 2027 06:03:54.186,114.326
21,3 Jun 2027 06:14:30.918,3 Jun 2027 06:14:34.874,3.955
22,3 Jun 2027 07:35:50.259,3 Jun 2027 07:41:53.646,363.387
23,3 Jun 2027 09:10:44.830,3 Jun 2027 09:18:55.981,491.151
24,3 Jun 2027 09:19:16.421,3 Jun 2027 09:20:14.481,58.061
25,3 Jun 2027 10:48:45.080,3 Jun 2027 10:56:13.345,448.266
26,4 Jun 2027 03:11:39.405,4 Jun 2027 03:11:49.082,9.676
27,4 Jun 2027 03:12:01.337,4 Jun 2027 03:13:03.005,61.668
28,4 Jun 2027 03:13:08.018,4 Jun 2027 03:13:46.574,38.555
29,4 Jun 2027 03:13:46.999,4 Jun 2027 03:17:16.460,209.461
30,4 Jun 2027 04:50:25.808,4 Jun 2027 04:55:06.795,280.987
31,4 Jun 2027 06:13:56.310,4 Jun 2027 06:16:13.724,137.414
32,4 Jun 2027 07:50:08.636,4 Jun 2027 07:53:39.686,211.050
33,4 Jun 2027 09:23:41.582,4 Jun 2027 09:32:16.099,514.517
34,4 Jun 2027 11:01:07.433,4 Jun 2027 11:08:07.245,419.812
35,5 Jun 2027 03:24:06.982,5 Jun 2027 03:24:35.265,28.283
36,5 Jun 2027 03:24:39.880,5 Jun 2027 03:30:18.305,338.424
37,5 Jun 2027 05:02:07.533,5 Jun 2027 05:07:00.481,292.949
38,5 Jun 2027 06:25:47.775,5 Jun 2027 06:28:25.365,157.590
39,5 Jun 2027 08:02:14.962,5 Jun 2027 08:05:46.812,211.850
40,5 Jun 2027 09:34:26.149,5 Jun 2027 09:34:32.465,6.316
41,5 Jun 2027 09:36:20.403,5 Jun 2027 09:43:10.217,409.814
42,5 Jun 2027 09:43:12.319,5 Jun 2027 09:44:13.867,61.548
43,5 Jun 2027 11:13:18.380,5 Jun 2027 11:20:02.692,404.312
44,6 Jun 2027 03:36:13.047,6 Jun 2027 03:37:16.521,63.474
45,6 Jun 2027 03:37:23.656,6 Jun 2027 03:42:29.811,306.155
46,6 Jun 2027 05:15:21.242,6 Jun 2027 05:18:54.528,213.285
47,6 Jun 2027 06:37:54.210,6 Jun 2027 06:40:55.702,181.492
48,6 Jun 2027 08:14:22.798,6 Jun 2027 08:17:53.311,210.513
49,6 Jun 2027 09:49:31.398,6 Jun 2027 09:56:15.048,403.650
50,6 Jun 2027 11:25:52.640,6 Jun 2027 11:32:09.524,376.884
51,7 Jun 2027 03:48:16.828,7 Jun 2027 03:48:58.053,41.225
52,7 Jun 2027 03:49:20.982,7 Jun 2027 03:54:24.790,303.808
53,7 Jun 2027 05:26:29.486,7 Jun 2027 05:27:06.683,37.197
54,7 Jun 2027 05:27:24.498,7 Jun 2027 05:30:01.713,157.215
55,7 Jun 2027 06:49:56.996,7 Jun 2027 06:53:05.423,188.428
56,7 Jun 2027 08:26:25.600,7 Jun 2027 08:29:51.218,205.617
57,7 Jun 2027 10:01:37.989,7 Jun 2027 10:08:13.840,395.851
58,7 Jun 2027 11:37:32.809,7 Jun 2027 11:43:42.727,369.918
59,8 Jun 2027 04:01:21.529,8 Jun 2027 04:06:43.545,322.016
60,8 Jun 2027 04:07:31.859,8 Jun 2027 04:09:08.877,97.018
61,8 Jun 2027 05:27:33.488,8 Jun 2027 05:27:56.726,23.238
62,8 Jun 2027 05:38:26.015,8 Jun 2027 05:41:54.665,208.650
63,8 Jun 2027 07:02:23.868,8 Jun 2027 07:05:09.847,165.980
64,8 Jun 2027 08:38:09.039,8 Jun 2027 08:42:24.818,255.778
65,8 Jun 2027 10:12:52.348,8 Jun 2027 10:20:24.426,452.078
66,8 Jun 2027 11:49:39.742,8 Jun 2027 11:56:01.618,381.876
67,9 Jun 2027 04:13:43.010,9 Jun 2027 04:21:02.526,439.517
68,9 Jun 2027 05:38:48.135,9 Jun 2027 05:40:12.156,84.020
69,9 Jun 2027 05:50:26.938,9 Jun 2027 05:51:51.953,85.015
70,9 Jun 2027 07:13:00.085,9 Jun 2027 07:14:00.161,60.076
71,9 Jun 2027 07:14:40.121,9 Jun 2027 07:17:44.808,184.687
72,9 Jun 2027 08:48:03.753,9 Jun 2027 08:49:24.894,81.141
73,9 Jun 2027 08:49:53.360,9 Jun 2027 08:54:44.935,291.575
74,9 Jun 2027 10:25:00.548,9 Jun 2027 10:32:25.110,444.563
75,10 Jun 2027 04:25:59.807,10 Jun 2027 04:33:00.183,420.376
76,10 Jun 2027 05:50:09.213,10 Jun 2027 05:52:23.236,134.024
77,10 Jun 2027 06:02:24.272,10 Jun 2027 06:03:19.441,55.168
78,10 Jun 2027 07:24:30.013,10 Jun 2027 07:25:46.886,76.873
79,10 Jun 2027 07:26:33.639,10 Jun 2027 07:29:59.599,205.960
80,10 Jun 2027 08:59:28.516,10 Jun 2027 09:07:04.341,455.825
81,10 Jun 2027 09:07:35.511,10 Jun 2027 09:08:04.233,28.722
82,10 Jun 2027 10:37:04.916,10 Jun 2027 10:44:28.925,444.009
83,11 Jun 2027 03:00:00.000,11 Jun 2027 03:00:14.282,14.282
84,11 Jun 2027 03:00:16.489,11 Jun 2027 03:05:16.519,300.030
85,11 Jun 2027 04:38:07.039,11 Jun 2027 04:44:08.620,361.581
86,11 Jun 2027 06:02:16.220,11 Jun 2027 06:04:10.771,114.551
87,11 Jun 2027 07:36:05.967,11 Jun 2027 07:42:10.070,364.103
88,11 Jun 2027 09:10:58.844,11 Jun 2027 09:19:12.860,494.016
89,11 Jun 2027 09:19:32.658,11 Jun 2027 09:20:31.376,58.719
90,11 Jun 2027 10:49:03.484,11 Jun 2027 10:56:30.644,447.160
91,12 Jun 2027 03:11:57.011,12 Jun 2027 03:12:04.182,7.172
92,12 Jun 2027 03:12:28.544,12 Jun 2027 03:13:19.601,51.057
93,12 Jun 2027 03:13:24.457,12 Jun 2027 03:17:33.932,249.475
94,12 Jun 2027 04:50:43.506,12 Jun 2027 04:55:24.360,280.854
95,12 Jun 2027 06:14:14.046,12 Jun 2027 06:16:30.982,136.936
96,12 Jun 2027 07:50:14.611,12 Jun 2027 07:53:54.610,219.999
97,12 Jun 2027 09:23:58.380,12 Jun 2027 09:31:28.020,449.641
98,12 Jun 2027 09:31:32.291,12 Jun 2027 09:32:32.853,60.563
99,12 Jun 2027 11:01:25.999,12 Jun 2027 11:08:17.874,411.875
100,13 Jun 2027 03:24:23.590,13 Jun 2027 03:24:51.043,27.453
101,13 Jun 2027 03:24:54.836,13 Jun 2027 03:30:31.693,336.857
102,13 Jun 2027 05:02:24.433,13 Jun 2027 05:07:17.268,292.835
103,13 Jun 2027 06:26:03.949,13 Jun 2027 06:28:42.688,158.739
104,13 Jun 2027 08:02:30.854,13 Jun 2027 08:06:04.868,214.014
105,13 Jun 2027 09:34:40.315,13 Jun 2027 09:34:49.916,9.602
106,13 Jun 2027 09:36:37.570,13 Jun 2027 09:43:26.026,408.456
107,13 Jun 2027 09:43:29.079,13 Jun 2027 09:44:30.192,61.113
108,13 Jun 2027 11:13:35.766,13 Jun 2027 11:20:19.886,404.120
