dataset/facility_timing/facility_Facility-Magadan1/Magadan1-To-KinoSat_110903.csv

Acces,Start Time (UTCG),Stop Time (UTCG),Duration (sec)
1,1 Jun 2027 00:39:56.214,1 Jun 2027 00:45:00.135,303.922
2,1 Jun 2027 02:11:38.337,1 Jun 2027 02:20:52.974,554.637
3,1 Jun 2027 03:44:46.766,1 Jun 2027 03:56:59.315,732.549
4,1 Jun 2027 05:20:08.414,1 Jun 2027 05:32:56.463,768.049
5,1 Jun 2027 06:58:26.788,1 Jun 2027 07:08:15.495,588.706
6,1 Jun 2027 16:55:24.440,1 Jun 2027 17:06:40.323,675.883
7,1 Jun 2027 18:31:01.221,1 Jun 2027 18:43:56.448,775.227
8,1 Jun 2027 20:07:02.993,1 Jun 2027 20:18:34.016,691.023
9,1 Jun 2027 21:43:08.743,1 Jun 2027 21:51:08.710,479.967
10,1 Jun 2027 23:18:43.192,1 Jun 2027 23:22:48.086,244.894
11,2 Jun 2027 00:51:24.548,2 Jun 2027 00:56:58.425,333.877
12,2 Jun 2027 02:23:12.551,2 Jun 2027 02:32:55.600,583.049
13,2 Jun 2027 03:56:35.919,2 Jun 2027 04:09:01.684,745.764
14,2 Jun 2027 05:32:16.525,2 Jun 2027 05:44:56.346,759.822
15,2 Jun 2027 07:11:04.328,2 Jun 2027 07:20:04.864,540.536
16,2 Jun 2027 15:33:37.331,2 Jun 2027 15:37:38.375,241.044
17,2 Jun 2027 17:07:20.587,2 Jun 2027 17:19:02.467,701.880
18,2 Jun 2027 18:43:02.541,2 Jun 2027 18:55:55.818,773.277
19,2 Jun 2027 20:19:05.714,2 Jun 2027 20:30:16.181,670.467
20,2 Jun 2027 21:55:10.600,2 Jun 2027 22:02:38.477,447.877
21,2 Jun 2027 23:30:32.796,2 Jun 2027 23:34:23.199,230.403
22,3 Jun 2027 01:02:52.509,3 Jun 2027 01:08:57.977,365.468
23,3 Jun 2027 02:34:48.354,3 Jun 2027 02:44:58.311,609.958
24,3 Jun 2027 04:08:27.224,3 Jun 2027 04:21:03.877,756.653
25,3 Jun 2027 05:44:27.417,3 Jun 2027 05:56:55.639,748.222
26,3 Jun 2027 07:23:48.321,3 Jun 2027 07:31:50.450,482.129
27,3 Jun 2027 15:44:55.465,3 Jun 2027 15:50:57.003,361.538
28,3 Jun 2027 17:19:17.855,3 Jun 2027 17:31:21.138,723.283
29,3 Jun 2027 18:55:04.164,3 Jun 2027 19:07:52.825,768.661
30,3 Jun 2027 20:31:08.469,3 Jun 2027 20:41:56.446,647.978
31,3 Jun 2027 22:07:12.033,3 Jun 2027 22:14:07.354,415.322
32,3 Jun 2027 23:42:18.359,3 Jun 2027 23:46:02.147,223.787
33,4 Jun 2027 01:14:20.553,4 Jun 2027 01:20:58.442,397.889
34,4 Jun 2027 02:46:25.855,4 Jun 2027 02:57:01.069,635.214
35,4 Jun 2027 04:20:20.736,4 Jun 2027 04:33:05.878,765.143
36,4 Jun 2027 05:56:41.236,4 Jun 2027 06:08:54.239,733.004
37,4 Jun 2027 07:36:40.934,4 Jun 2027 07:43:30.188,409.254
38,4 Jun 2027 15:56:30.459,4 Jun 2027 16:03:55.867,445.408
39,4 Jun 2027 17:31:16.033,4 Jun 2027 17:43:36.587,740.553
40,4 Jun 2027 19:07:06.042,4 Jun 2027 19:19:47.538,761.496
41,4 Jun 2027 20:43:11.227,4 Jun 2027 20:53:34.893,623.666
42,4 Jun 2027 22:19:12.878,4 Jun 2027 22:25:35.620,382.742
43,4 Jun 2027 23:53:59.567,4 Jun 2027 23:57:45.411,225.844
44,5 Jun 2027 01:25:49.063,5 Jun 2027 01:32:59.592,430.529
45,5 Jun 2027 02:58:05.143,5 Jun 2027 03:09:03.835,658.693
46,5 Jun 2027 04:32:16.509,5 Jun 2027 04:45:07.637,771.128
47,5 Jun 2027 06:08:58.164,5 Jun 2027 06:20:52.006,713.842
48,5 Jun 2027 07:49:47.053,5 Jun 2027 07:54:59.257,312.204
49,5 Jun 2027 16:08:13.291,5 Jun 2027 16:16:44.087,510.797
50,5 Jun 2027 17:43:14.968,5 Jun 2027 17:55:49.024,754.056
51,5 Jun 2027 19:19:08.135,5 Jun 2027 19:31:40.016,751.880
52,5 Jun 2027 20:55:13.963,5 Jun 2027 21:05:11.602,597.639
53,5 Jun 2027 22:31:12.938,5 Jun 2027 22:37:03.587,350.650
54,6 Jun 2027 00:05:36.625,6 Jun 2027 00:09:32.943,236.318
55,6 Jun 2027 01:37:18.319,6 Jun 2027 01:45:01.243,462.924
56,6 Jun 2027 03:09:46.283,6 Jun 2027 03:21:06.583,680.299
57,6 Jun 2027 04:44:14.603,6 Jun 2027 04:57:09.129,774.526
58,6 Jun 2027 06:21:18.416,6 Jun 2027 06:32:48.778,690.362
59,6 Jun 2027 08:03:27.020,6 Jun 2027 08:05:57.437,150.417
60,6 Jun 2027 16:20:00.821,6 Jun 2027 16:29:24.882,564.060
61,6 Jun 2027 17:55:14.548,6 Jun 2027 18:07:58.605,764.057
62,6 Jun 2027 19:31:10.408,6 Jun 2027 19:43:30.314,739.906
63,6 Jun 2027 21:07:16.639,6 Jun 2027 21:16:46.654,570.016
64,6 Jun 2027 22:43:11.931,6 Jun 2027 22:48:31.667,319.736
65,7 Jun 2027 00:17:10.202,7 Jun 2027 00:21:24.229,254.027
66,7 Jun 2027 01:48:48.557,7 Jun 2027 01:57:03.266,494.708
67,7 Jun 2027 03:21:29.348,7 Jun 2027 03:33:09.273,699.925
68,7 Jun 2027 04:56:15.091,7 Jun 2027 05:09:10.298,775.207
69,7 Jun 2027 06:33:42.290,7 Jun 2027 06:44:44.308,662.019
70,7 Jun 2027 16:31:51.540,7 Jun 2027 16:41:59.856,608.316
71,7 Jun 2027 18:07:14.671,7 Jun 2027 18:20:05.462,770.791
72,7 Jun 2027 19:43:12.838,7 Jun 2027 19:55:18.485,725.647
73,7 Jun 2027 21:19:19.198,7 Jun 2027 21:28:20.174,540.976
74,7 Jun 2027 22:55:09.467,7 Jun 2027 23:00:00.396,290.929
75,8 Jun 2027 00:28:41.200,8 Jun 2027 00:33:18.534,277.334
76,8 Jun 2027 02:00:19.986,8 Jun 2027 02:09:05.565,525.579
77,8 Jun 2027 03:33:14.407,8 Jun 2027 03:45:11.880,717.474
78,8 Jun 2027 05:08:18.052,8 Jun 2027 05:21:11.093,773.041
79,8 Jun 2027 06:46:10.159,8 Jun 2027 06:56:38.293,628.134
80,8 Jun 2027 16:43:44.572,8 Jun 2027 16:54:29.962,645.390
81,8 Jun 2027 18:19:15.258,8 Jun 2027 18:32:09.722,774.464
82,8 Jun 2027 19:55:15.391,8 Jun 2027 20:07:04.584,709.193
83,8 Jun 2027 21:31:21.597,8 Jun 2027 21:39:52.271,510.674
84,8 Jun 2027 23:07:05.022,8 Jun 2027 23:11:30.432,265.410
85,9 Jun 2027 00:40:10.489,9 Jun 2027 00:45:15.144,304.654
86,9 Jun 2027 02:11:52.751,9 Jun 2027 02:21:08.055,555.303
87,9 Jun 2027 03:45:01.508,9 Jun 2027 03:57:14.377,732.869
88,9 Jun 2027 05:20:23.563,9 Jun 2027 05:33:11.462,767.899
89,9 Jun 2027 06:58:42.551,9 Jun 2027 07:08:30.275,587.725
90,9 Jun 2027 16:55:39.362,9 Jun 2027 17:06:55.828,676.466
91,9 Jun 2027 18:31:16.249,9 Jun 2027 18:44:11.461,775.213
92,9 Jun 2027 20:07:18.040,9 Jun 2027 20:18:48.666,690.626
93,9 Jun 2027 21:43:23.756,9 Jun 2027 21:51:23.103,479.347
94,9 Jun 2027 23:18:57.933,9 Jun 2027 23:23:02.595,244.662
95,10 Jun 2027 00:51:38.815,10 Jun 2027 00:57:13.463,334.647
96,10 Jun 2027 02:23:27.000,10 Jun 2027 02:33:10.681,583.681
97,10 Jun 2027 03:56:50.707,10 Jun 2027 04:09:16.740,746.033
98,10 Jun 2027 05:32:31.733,10 Jun 2027 05:45:11.332,759.599
99,10 Jun 2027 07:11:20.217,10 Jun 2027 07:20:19.572,539.355
100,10 Jun 2027 15:33:51.170,10 Jun 2027 15:37:55.368,244.199
101,10 Jun 2027 17:07:35.533,10 Jun 2027 17:19:17.896,702.363
102,10 Jun 2027 18:43:17.573,10 Jun 2027 18:56:10.780,773.207
103,10 Jun 2027 20:19:20.759,10 Jun 2027 20:30:30.790,670.031
104,10 Jun 2027 21:55:25.601,10 Jun 2027 22:02:52.853,447.252
105,10 Jun 2027 23:30:47.449,10 Jun 2027 23:34:37.788,230.339
106,11 Jun 2027 01:03:06.778,11 Jun 2027 01:09:13.027,366.249
107,11 Jun 2027 02:35:02.839,11 Jun 2027 02:45:13.390,610.552
108,11 Jun 2027 04:08:42.059,11 Jun 2027 04:21:18.927,756.868
109,11 Jun 2027 05:44:42.687,11 Jun 2027 05:57:10.608,747.921
110,11 Jun 2027 07:24:04.371,11 Jun 2027 07:32:05.052,480.680
111,11 Jun 2027 15:45:09.861,11 Jun 2027 15:51:13.374,363.513
112,11 Jun 2027 17:19:32.820,11 Jun 2027 17:31:36.495,723.676
113,11 Jun 2027 18:55:19.200,11 Jun 2027 19:08:07.738,768.538
114,11 Jun 2027 20:31:23.512,11 Jun 2027 20:42:11.017,647.506
115,11 Jun 2027 22:07:27.016,11 Jun 2027 22:14:21.719,414.703
116,11 Jun 2027 23:42:32.916,11 Jun 2027 23:46:16.829,223.913
117,12 Jun 2027 01:14:34.832,12 Jun 2027 01:21:13.504,398.672
118,12 Jun 2027 02:46:40.378,12 Jun 2027 02:57:16.146,635.768
119,12 Jun 2027 04:20:35.618,12 Jun 2027 04:33:20.921,765.303
120,12 Jun 2027 05:56:56.570,12 Jun 2027 06:09:09.189,732.620
121,12 Jun 2027 07:36:57.215,12 Jun 2027 07:43:44.617,407.403
122,12 Jun 2027 15:56:45.067,12 Jun 2027 16:04:11.963,446.896
123,12 Jun 2027 17:31:31.013,12 Jun 2027 17:43:51.878,740.865
124,12 Jun 2027 19:07:21.080,12 Jun 2027 19:20:02.403,761.323
125,12 Jun 2027 20:43:26.266,12 Jun 2027 20:53:49.428,623.162
126,12 Jun 2027 22:19:27.840,12 Jun 2027 22:25:49.981,382.140
127,12 Jun 2027 23:54:14.029,12 Jun 2027 23:58:00.189,226.160
128,13 Jun 2027 01:26:03.359,13 Jun 2027 01:33:14.662,431.303
129,13 Jun 2027 02:58:19.706,13 Jun 2027 03:09:18.910,659.204
130,13 Jun 2027 04:32:31.441,13 Jun 2027 04:45:22.672,771.231
131,13 Jun 2027 06:09:13.569,13 Jun 2027 06:21:06.933,713.364
132,13 Jun 2027 07:50:03.746,13 Jun 2027 07:55:13.334,309.589
133,13 Jun 2027 16:08:28.016,13 Jun 2027 16:17:00.005,511.990
134,13 Jun 2027 17:43:29.960,13 Jun 2027 17:56:04.253,754.293
135,13 Jun 2027 19:19:23.175,13 Jun 2027 19:31:54.834,751.659
136,13 Jun 2027 20:55:28.997,13 Jun 2027 21:05:26.103,597.105
137,13 Jun 2027 22:31:27.872,13 Jun 2027 22:37:17.953,350.081
