dataset/facility_timing/facility_Facility-Magadan1/Magadan1-To-KinoSat_110703.csv

Acces,Start Time (UTCG),Stop Time (UTCG),Duration (sec)
1,1 Jun 2027 00:45:02.874,1 Jun 2027 00:53:11.285,488.412
2,1 Jun 2027 02:17:40.965,1 Jun 2027 02:29:16.977,696.012
3,1 Jun 2027 03:52:22.944,1 Jun 2027 04:05:18.224,775.280
4,1 Jun 2027 05:29:44.999,1 Jun 2027 05:40:53.399,668.400
5,1 Jun 2027 15:28:01.745,1 Jun 2027 15:38:00.632,598.887
6,1 Jun 2027 17:03:22.803,1 Jun 2027 17:16:12.319,769.516
7,1 Jun 2027 18:39:20.358,1 Jun 2027 18:51:29.468,729.110
8,1 Jun 2027 20:15:26.542,1 Jun 2027 20:24:34.468,547.926
9,1 Jun 2027 21:51:17.690,1 Jun 2027 21:56:15.907,298.217
10,1 Jun 2027 23:24:55.222,1 Jun 2027 23:29:28.383,273.161
11,2 Jun 2027 00:56:34.047,2 Jun 2027 01:05:13.452,519.405
12,2 Jun 2027 02:29:25.572,2 Jun 2027 02:41:19.545,713.973
13,2 Jun 2027 04:04:25.328,2 Jun 2027 04:17:19.052,773.724
14,2 Jun 2027 05:42:11.919,2 Jun 2027 05:52:47.694,635.775
15,2 Jun 2027 15:39:54.257,2 Jun 2027 15:50:31.713,637.456
16,2 Jun 2027 17:15:23.237,2 Jun 2027 17:28:17.109,773.871
17,2 Jun 2027 18:51:22.837,2 Jun 2027 19:03:16.008,713.172
18,2 Jun 2027 20:27:28.916,2 Jun 2027 20:36:06.882,517.966
19,2 Jun 2027 22:03:13.633,2 Jun 2027 22:07:45.651,272.018
20,2 Jun 2027 23:36:24.885,2 Jun 2027 23:41:24.435,299.550
21,3 Jun 2027 01:08:06.525,3 Jun 2027 01:17:15.841,549.316
22,3 Jun 2027 02:41:12.211,3 Jun 2027 02:53:22.016,729.805
23,3 Jun 2027 04:16:30.235,3 Jun 2027 04:29:19.470,769.235
24,3 Jun 2027 05:54:43.221,3 Jun 2027 06:04:40.105,596.884
25,3 Jun 2027 15:51:48.636,3 Jun 2027 16:02:58.436,669.800
26,3 Jun 2027 17:27:24.093,3 Jun 2027 17:40:19.367,775.274
27,3 Jun 2027 19:03:25.412,3 Jun 2027 19:15:00.523,695.110
28,3 Jun 2027 20:39:31.067,3 Jun 2027 20:47:38.002,486.935
29,3 Jun 2027 22:15:07.103,3 Jun 2027 22:19:17.325,250.222
30,3 Jun 2027 23:47:53.431,3 Jun 2027 23:53:22.316,328.884
31,4 Jun 2027 01:19:40.450,4 Jun 2027 01:29:18.374,577.925
32,4 Jun 2027 02:53:00.929,4 Jun 2027 03:05:24.359,743.430
33,4 Jun 2027 04:28:37.782,4 Jun 2027 04:41:19.402,761.620
34,4 Jun 2027 06:07:19.603,4 Jun 2027 06:16:30.007,550.403
35,4 Jun 2027 14:30:14.430,4 Jun 2027 14:33:39.786,205.356
36,4 Jun 2027 16:03:44.469,4 Jun 2027 16:15:21.277,696.807
37,4 Jun 2027 17:39:25.295,4 Jun 2027 17:52:19.188,773.893
38,4 Jun 2027 19:15:28.055,4 Jun 2027 19:26:43.068,675.013
39,4 Jun 2027 20:51:32.925,4 Jun 2027 20:59:08.002,455.077
40,4 Jun 2027 22:26:57.355,4 Jun 2027 22:30:51.809,234.455
41,4 Jun 2027 23:59:21.485,5 Jun 2027 00:05:21.540,360.056
42,5 Jun 2027 01:31:15.937,5 Jun 2027 01:41:21.011,605.074
43,5 Jun 2027 03:04:51.783,5 Jun 2027 03:17:26.537,754.753
44,5 Jun 2027 04:40:48.069,5 Jun 2027 04:53:18.765,750.697
45,5 Jun 2027 06:20:02.154,5 Jun 2027 06:28:16.386,494.232
46,5 Jun 2027 14:41:25.622,5 Jun 2027 14:47:05.840,340.218
47,5 Jun 2027 16:15:41.472,5 Jun 2027 16:27:40.587,719.114
48,5 Jun 2027 17:51:26.804,5 Jun 2027 18:04:16.644,769.840
49,5 Jun 2027 19:27:30.751,5 Jun 2027 19:38:23.712,652.961
50,5 Jun 2027 21:03:34.370,5 Jun 2027 21:10:37.074,422.704
51,5 Jun 2027 22:38:43.718,5 Jun 2027 22:42:29.950,226.232
52,6 Jun 2027 00:10:49.536,6 Jun 2027 00:17:21.751,392.215
53,6 Jun 2027 01:42:53.097,6 Jun 2027 01:53:23.695,630.598
54,6 Jun 2027 03:16:44.827,6 Jun 2027 03:29:28.522,763.695
55,6 Jun 2027 04:53:01.250,6 Jun 2027 05:05:17.463,736.213
56,6 Jun 2027 06:32:52.772,6 Jun 2027 06:39:57.446,424.674
57,6 Jun 2027 14:52:58.157,6 Jun 2027 15:00:07.631,429.473
58,6 Jun 2027 16:27:39.422,6 Jun 2027 16:39:56.631,737.208
59,6 Jun 2027 18:03:28.581,6 Jun 2027 18:16:11.790,763.209
60,6 Jun 2027 19:39:33.454,6 Jun 2027 19:50:02.525,629.071
61,6 Jun 2027 21:15:35.265,6 Jun 2027 21:22:05.483,390.218
62,6 Jun 2027 22:50:25.796,6 Jun 2027 22:54:12.303,226.507
63,7 Jun 2027 00:22:17.973,7 Jun 2027 00:29:22.695,424.722
64,7 Jun 2027 01:54:32.020,7 Jun 2027 02:05:26.402,654.381
65,7 Jun 2027 03:28:40.117,7 Jun 2027 03:41:30.276,770.159
66,7 Jun 2027 05:05:17.494,7 Jun 2027 05:17:15.354,717.861
67,7 Jun 2027 06:45:55.526,7 Jun 2027 06:51:29.191,333.664
68,7 Jun 2027 15:04:39.632,7 Jun 2027 15:12:57.661,498.029
69,7 Jun 2027 16:39:38.157,7 Jun 2027 16:52:09.631,751.474
70,7 Jun 2027 18:15:30.578,7 Jun 2027 18:28:04.698,754.120
71,7 Jun 2027 19:51:36.132,7 Jun 2027 20:01:39.579,603.446
72,7 Jun 2027 21:27:35.411,7 Jun 2027 21:33:33.529,358.118
73,7 Jun 2027 23:02:03.680,7 Jun 2027 23:05:58.938,235.258
74,8 Jun 2027 00:33:47.093,8 Jun 2027 00:41:24.170,457.077
75,8 Jun 2027 02:06:12.779,8 Jun 2027 02:17:29.096,676.317
76,8 Jun 2027 03:40:37.710,8 Jun 2027 03:53:31.772,774.062
77,8 Jun 2027 05:17:37.014,8 Jun 2027 05:29:12.285,695.271
78,8 Jun 2027 06:59:24.318,8 Jun 2027 07:02:37.827,193.509
79,8 Jun 2027 15:16:26.274,8 Jun 2027 15:25:39.787,553.513
80,8 Jun 2027 16:51:37.560,8 Jun 2027 17:04:19.748,762.189
81,8 Jun 2027 18:27:32.761,8 Jun 2027 18:39:55.423,742.662
82,8 Jun 2027 20:03:38.760,8 Jun 2027 20:13:14.973,576.213
83,8 Jun 2027 21:39:34.553,8 Jun 2027 21:45:01.602,327.049
84,8 Jun 2027 23:13:37.950,8 Jun 2027 23:17:49.423,251.473
85,9 Jun 2027 00:45:17.145,9 Jun 2027 00:53:26.049,488.904
86,9 Jun 2027 02:17:55.444,9 Jun 2027 02:29:31.741,696.297
87,9 Jun 2027 03:52:37.679,9 Jun 2027 04:05:32.956,775.277
88,9 Jun 2027 05:30:00.086,9 Jun 2027 05:41:08.032,667.946
89,9 Jun 2027 15:28:16.355,9 Jun 2027 15:38:15.826,599.471
90,9 Jun 2027 17:03:37.527,9 Jun 2027 17:16:27.124,769.596
91,9 Jun 2027 18:39:35.106,9 Jun 2027 18:51:44.010,728.904
92,9 Jun 2027 20:15:41.280,9 Jun 2027 20:24:48.811,547.530
93,9 Jun 2027 21:51:32.326,9 Jun 2027 21:56:30.215,297.889
94,9 Jun 2027 23:25:09.471,9 Jun 2027 23:29:43.071,273.600
95,10 Jun 2027 00:56:48.342,10 Jun 2027 01:05:28.221,519.880
96,10 Jun 2027 02:29:40.078,10 Jun 2027 02:41:34.306,714.229
97,10 Jun 2027 04:04:40.099,10 Jun 2027 04:17:33.777,773.678
98,10 Jun 2027 05:42:27.065,10 Jun 2027 05:53:02.304,635.238
99,10 Jun 2027 15:40:08.895,10 Jun 2027 15:50:46.840,637.945
100,10 Jun 2027 17:15:37.967,10 Jun 2027 17:28:31.876,773.910
101,10 Jun 2027 18:51:37.585,10 Jun 2027 19:03:30.521,712.937
102,10 Jun 2027 20:27:43.649,10 Jun 2027 20:36:21.206,517.557
103,10 Jun 2027 22:03:28.231,10 Jun 2027 22:07:59.986,271.755
104,10 Jun 2027 23:36:39.115,10 Jun 2027 23:41:39.149,300.034
105,11 Jun 2027 01:08:20.841,11 Jun 2027 01:17:30.611,549.769
106,11 Jun 2027 02:41:26.747,11 Jun 2027 02:53:36.774,730.027
107,11 Jun 2027 04:16:45.044,11 Jun 2027 04:29:34.187,769.143
108,11 Jun 2027 05:54:58.436,11 Jun 2027 06:04:54.680,596.244
109,11 Jun 2027 15:52:03.295,11 Jun 2027 16:03:13.504,670.209
110,11 Jun 2027 17:27:38.826,11 Jun 2027 17:40:34.099,775.273
111,11 Jun 2027 19:03:40.154,11 Jun 2027 19:15:15.007,694.853
112,11 Jun 2027 20:39:45.792,11 Jun 2027 20:47:52.311,486.519
113,11 Jun 2027 22:15:21.652,11 Jun 2027 22:19:31.700,250.048
114,11 Jun 2027 23:48:07.653,11 Jun 2027 23:53:37.050,329.397
115,12 Jun 2027 01:19:54.788,12 Jun 2027 01:29:33.144,578.356
116,12 Jun 2027 02:53:15.495,12 Jun 2027 03:05:39.113,743.618
117,12 Jun 2027 04:28:52.629,12 Jun 2027 04:41:34.109,761.480
118,12 Jun 2027 06:07:34.901,12 Jun 2027 06:16:44.535,549.634
119,12 Jun 2027 14:30:28.168,12 Jun 2027 14:33:56.053,207.884
120,12 Jun 2027 16:03:59.150,12 Jun 2027 16:15:36.288,697.139
121,12 Jun 2027 17:39:40.034,12 Jun 2027 17:52:33.885,773.851
122,12 Jun 2027 19:15:42.804,12 Jun 2027 19:26:57.526,674.722
123,12 Jun 2027 20:51:47.641,12 Jun 2027 20:59:22.300,454.659
124,12 Jun 2027 22:27:11.845,12 Jun 2027 22:31:06.240,234.395
125,12 Jun 2027 23:59:35.705,13 Jun 2027 00:05:36.288,360.583
126,13 Jun 2027 01:31:30.299,13 Jun 2027 01:41:35.780,605.481
127,13 Jun 2027 03:05:06.380,13 Jun 2027 03:17:41.286,754.906
128,13 Jun 2027 04:41:02.957,13 Jun 2027 04:53:33.461,750.504
129,13 Jun 2027 06:20:17.556,13 Jun 2027 06:28:30.847,493.290
130,13 Jun 2027 14:41:39.884,13 Jun 2027 14:47:21.536,341.652
131,13 Jun 2027 16:15:56.162,13 Jun 2027 16:27:55.553,719.391
132,13 Jun 2027 17:51:41.543,13 Jun 2027 18:04:31.308,769.765
133,13 Jun 2027 19:27:45.494,13 Jun 2027 19:38:38.143,652.649
134,13 Jun 2027 21:03:49.074,13 Jun 2027 21:10:51.363,422.290
135,13 Jun 2027 22:38:58.143,13 Jun 2027 22:42:44.443,226.301
