dataset/facility_timing/facility_Facility-Magadan1/Magadan1-To-KinoSat_111809.csv

Acces,Start Time (UTCG),Stop Time (UTCG),Duration (sec)
1,1 Jun 2027 00:46:58.296,1 Jun 2027 00:56:47.526,589.230
2,1 Jun 2027 02:22:59.786,1 Jun 2027 02:28:35.029,335.243
3,1 Jun 2027 03:57:22.045,1 Jun 2027 04:01:05.015,222.970
4,1 Jun 2027 05:28:57.894,1 Jun 2027 05:36:40.137,462.244
5,1 Jun 2027 07:01:26.062,1 Jun 2027 07:12:47.675,681.613
6,1 Jun 2027 08:35:56.487,1 Jun 2027 08:48:51.312,774.825
7,1 Jun 2027 10:13:03.402,1 Jun 2027 10:24:31.562,688.160
8,1 Jun 2027 11:55:23.936,1 Jun 2027 11:57:32.669,128.733
9,1 Jun 2027 20:11:38.454,1 Jun 2027 20:21:15.161,576.707
10,1 Jun 2027 21:46:56.033,1 Jun 2027 21:59:42.327,766.294
11,1 Jun 2027 23:22:53.636,1 Jun 2027 23:35:09.884,736.249
12,2 Jun 2027 00:59:01.531,2 Jun 2027 01:08:22.171,560.640
13,2 Jun 2027 02:34:59.491,2 Jun 2027 02:40:02.577,303.086
14,2 Jun 2027 04:08:54.467,2 Jun 2027 04:12:57.837,243.370
15,2 Jun 2027 05:40:28.057,2 Jun 2027 05:48:42.889,494.832
16,2 Jun 2027 07:13:09.513,2 Jun 2027 07:24:50.868,701.355
17,2 Jun 2027 08:47:57.630,2 Jun 2027 09:00:52.899,775.269
18,2 Jun 2027 10:25:28.269,2 Jun 2027 10:36:27.386,659.117
19,2 Jun 2027 20:23:30.278,2 Jun 2027 20:33:49.450,619.172
20,2 Jun 2027 21:58:56.728,2 Jun 2027 22:11:48.964,772.236
21,2 Jun 2027 23:34:56.591,2 Jun 2027 23:46:57.768,721.177
22,3 Jun 2027 01:11:04.675,3 Jun 2027 01:19:55.251,530.576
23,3 Jun 2027 02:46:57.705,3 Jun 2027 02:51:30.814,273.109
24,3 Jun 2027 04:20:24.376,3 Jun 2027 04:24:53.647,269.272
25,3 Jun 2027 05:51:59.490,3 Jun 2027 06:00:45.874,526.383
26,3 Jun 2027 07:24:55.011,3 Jun 2027 07:36:53.964,718.953
27,3 Jun 2027 09:00:01.301,3 Jun 2027 09:12:54.099,772.798
28,3 Jun 2027 10:37:57.231,3 Jun 2027 10:48:21.614,624.384
29,3 Jun 2027 20:35:24.260,3 Jun 2027 20:46:19.006,654.746
30,3 Jun 2027 22:10:57.881,3 Jun 2027 22:23:52.980,775.099
31,3 Jun 2027 23:46:59.664,3 Jun 2027 23:58:43.546,703.882
32,4 Jun 2027 01:23:07.665,4 Jun 2027 01:31:26.878,499.213
33,4 Jun 2027 02:58:53.828,4 Jun 2027 03:03:00.490,246.663
34,4 Jun 2027 04:31:52.736,4 Jun 2027 04:36:51.636,298.900
35,4 Jun 2027 06:03:32.352,4 Jun 2027 06:12:49.008,556.656
36,4 Jun 2027 07:36:42.602,4 Jun 2027 07:48:56.935,734.333
37,4 Jun 2027 09:12:07.580,4 Jun 2027 09:24:54.859,767.279
38,4 Jun 2027 10:50:30.847,4 Jun 2027 11:00:13.759,582.912
39,4 Jun 2027 19:14:41.487,4 Jun 2027 19:15:58.217,76.730
40,4 Jun 2027 20:47:19.896,4 Jun 2027 20:58:44.400,684.504
41,4 Jun 2027 22:22:59.419,4 Jun 2027 22:35:54.466,775.047
42,4 Jun 2027 23:59:02.844,5 Jun 2027 00:10:27.276,684.432
43,5 Jun 2027 01:35:10.442,5 Jun 2027 01:42:57.218,466.776
44,5 Jun 2027 03:10:47.069,5 Jun 2027 03:14:32.545,225.476
45,5 Jun 2027 04:43:20.320,5 Jun 2027 04:48:51.190,330.870
46,5 Jun 2027 06:15:06.777,5 Jun 2027 06:24:52.244,585.468
47,5 Jun 2027 07:48:32.346,5 Jun 2027 08:00:59.760,747.414
48,5 Jun 2027 09:24:16.574,5 Jun 2027 09:36:55.104,758.529
49,5 Jun 2027 11:03:09.915,5 Jun 2027 11:12:03.088,533.173
50,5 Jun 2027 19:25:16.610,5 Jun 2027 19:30:03.143,286.533
51,5 Jun 2027 20:59:16.839,5 Jun 2027 21:11:06.045,709.206
52,5 Jun 2027 22:35:01.288,5 Jun 2027 22:47:53.504,772.215
53,6 Jun 2027 00:11:06.087,6 Jun 2027 00:22:09.016,662.928
54,6 Jun 2027 01:47:12.917,6 Jun 2027 01:54:26.439,433.522
55,6 Jun 2027 03:22:36.530,6 Jun 2027 03:26:08.039,211.509
56,6 Jun 2027 04:54:47.718,6 Jun 2027 05:00:51.858,364.140
57,6 Jun 2027 06:26:42.865,6 Jun 2027 06:36:55.532,612.667
58,6 Jun 2027 08:00:24.294,6 Jun 2027 08:13:02.396,758.102
59,6 Jun 2027 09:36:28.420,6 Jun 2027 09:48:54.732,746.312
60,6 Jun 2027 11:15:55.741,6 Jun 2027 11:23:48.389,472.648
61,6 Jun 2027 19:36:42.476,6 Jun 2027 19:43:14.308,391.832
62,6 Jun 2027 21:11:14.840,6 Jun 2027 21:23:24.246,729.407
63,6 Jun 2027 22:47:03.456,6 Jun 2027 22:59:50.151,766.696
64,7 Jun 2027 00:23:09.378,7 Jun 2027 00:33:48.831,639.453
65,7 Jun 2027 01:59:14.980,7 Jun 2027 02:05:54.766,399.786
66,7 Jun 2027 03:34:21.453,7 Jun 2027 03:37:47.914,206.461
67,7 Jun 2027 05:06:15.385,7 Jun 2027 05:12:53.331,397.946
68,7 Jun 2027 06:38:20.724,7 Jun 2027 06:48:58.847,638.123
69,7 Jun 2027 08:12:18.501,7 Jun 2027 08:25:04.823,766.322
70,7 Jun 2027 09:48:43.262,7 Jun 2027 10:00:53.642,730.380
71,7 Jun 2027 11:28:50.758,7 Jun 2027 11:35:27.326,396.568
72,7 Jun 2027 19:48:20.971,7 Jun 2027 19:56:09.926,468.955
73,7 Jun 2027 21:23:13.711,7 Jun 2027 21:35:39.258,745.547
74,7 Jun 2027 22:59:05.865,7 Jun 2027 23:11:44.489,758.624
75,8 Jun 2027 00:35:12.681,8 Jun 2027 00:45:26.789,614.108
76,8 Jun 2027 02:11:16.463,8 Jun 2027 02:17:22.469,366.006
77,8 Jun 2027 03:46:01.547,8 Jun 2027 03:49:32.605,211.058
78,8 Jun 2027 05:17:43.657,8 Jun 2027 05:24:55.373,431.717
79,8 Jun 2027 06:50:00.435,8 Jun 2027 07:01:02.142,661.707
80,8 Jun 2027 08:24:15.025,8 Jun 2027 08:37:07.000,771.976
81,8 Jun 2027 10:01:01.289,8 Jun 2027 10:12:51.688,710.399
82,8 Jun 2027 11:42:00.784,8 Jun 2027 11:46:54.172,293.388
83,8 Jun 2027 20:00:06.015,8 Jun 2027 20:08:56.174,530.159
84,8 Jun 2027 21:35:13.312,8 Jun 2027 21:47:51.254,757.941
85,8 Jun 2027 23:11:08.491,8 Jun 2027 23:23:36.560,748.069
86,9 Jun 2027 00:47:15.966,9 Jun 2027 00:57:02.986,587.020
87,9 Jun 2027 02:23:17.160,9 Jun 2027 02:28:49.889,332.729
88,9 Jun 2027 03:57:37.227,9 Jun 2027 04:01:21.870,224.643
89,9 Jun 2027 05:29:12.808,9 Jun 2027 05:36:57.845,465.036
90,9 Jun 2027 07:01:42.061,9 Jun 2027 07:13:05.398,683.337
91,9 Jun 2027 08:36:13.924,9 Jun 2027 08:49:08.894,774.970
92,9 Jun 2027 10:13:22.741,9 Jun 2027 10:24:48.688,685.947
93,9 Jun 2027 11:55:57.217,9 Jun 2027 11:57:37.617,100.400
94,9 Jun 2027 20:11:55.174,9 Jun 2027 20:21:35.569,580.395
95,9 Jun 2027 21:47:13.519,9 Jun 2027 22:00:00.405,766.886
96,9 Jun 2027 23:23:11.299,9 Jun 2027 23:35:26.425,735.126
97,10 Jun 2027 00:59:19.194,10 Jun 2027 01:08:37.503,558.309
98,10 Jun 2027 02:35:16.753,10 Jun 2027 02:40:17.481,300.728
99,10 Jun 2027 04:09:09.416,10 Jun 2027 04:13:14.954,245.538
100,10 Jun 2027 05:40:43.075,10 Jun 2027 05:49:00.611,497.536
101,10 Jun 2027 07:13:25.678,10 Jun 2027 07:25:08.581,702.903
102,10 Jun 2027 08:48:15.273,10 Jun 2027 09:01:10.448,775.175
103,10 Jun 2027 10:25:47.930,10 Jun 2027 10:36:44.391,656.461
104,10 Jun 2027 20:23:47.187,10 Jun 2027 20:34:09.446,622.259
105,10 Jun 2027 21:59:14.251,10 Jun 2027 22:12:06.826,772.576
106,10 Jun 2027 23:35:14.263,10 Jun 2027 23:47:14.136,719.873
107,11 Jun 2027 01:11:22.324,11 Jun 2027 01:20:10.463,528.139
108,11 Jun 2027 02:47:14.810,11 Jun 2027 02:51:45.816,271.006
109,11 Jun 2027 04:20:39.178,11 Jun 2027 04:25:10.955,271.776
110,11 Jun 2027 05:52:14.624,11 Jun 2027 06:01:03.604,528.981
111,11 Jun 2027 07:25:11.345,11 Jun 2027 07:37:11.665,720.320
112,11 Jun 2027 09:00:19.152,11 Jun 2027 09:13:11.611,772.460
113,11 Jun 2027 10:38:17.248,11 Jun 2027 10:48:38.462,621.214
114,11 Jun 2027 20:35:41.314,11 Jun 2027 20:46:38.649,657.335
115,11 Jun 2027 22:11:15.434,11 Jun 2027 22:24:10.633,775.199
116,11 Jun 2027 23:47:17.341,11 Jun 2027 23:58:59.746,702.405
117,12 Jun 2027 01:23:25.292,12 Jun 2027 01:31:41.982,496.690
118,12 Jun 2027 02:59:10.715,12 Jun 2027 03:03:15.660,244.945
119,12 Jun 2027 04:32:07.461,12 Jun 2027 04:37:09.078,301.616
120,12 Jun 2027 06:03:47.613,12 Jun 2027 06:13:06.743,559.130
121,12 Jun 2027 07:36:59.113,12 Jun 2027 07:49:14.619,735.505
122,12 Jun 2027 09:12:25.653,12 Jun 2027 09:25:12.329,766.676
123,12 Jun 2027 10:50:51.277,12 Jun 2027 11:00:30.404,579.127
124,12 Jun 2027 19:14:43.857,12 Jun 2027 19:16:34.121,110.265
125,12 Jun 2027 20:47:37.062,12 Jun 2027 20:59:03.725,686.662
126,12 Jun 2027 22:23:16.998,12 Jun 2027 22:36:11.916,774.918
127,12 Jun 2027 23:59:20.524,13 Jun 2027 00:10:43.312,682.789
128,13 Jun 2027 01:35:28.042,13 Jun 2027 01:43:12.229,464.187
129,13 Jun 2027 03:11:03.673,13 Jun 2027 03:14:47.967,224.294
130,13 Jun 2027 04:43:35.021,13 Jun 2027 04:49:08.725,333.704
131,13 Jun 2027 06:15:22.173,13 Jun 2027 06:25:09.980,587.807
132,13 Jun 2027 07:48:49.035,13 Jun 2027 08:01:17.427,748.392
133,13 Jun 2027 09:24:34.873,13 Jun 2027 09:37:12.521,757.649
134,13 Jun 2027 11:03:30.844,13 Jun 2027 11:12:19.452,528.608
135,13 Jun 2027 19:25:30.561,13 Jun 2027 19:30:27.214,296.653
136,13 Jun 2027 20:59:34.095,13 Jun 2027 21:11:25.080,710.985
137,13 Jun 2027 22:35:18.889,13 Jun 2027 22:48:10.757,771.868
