dataset/facility_timing/facility_Facility-Magadan1/Magadan1-To-KinoSat_111205.csv

Acces,Start Time (UTCG),Stop Time (UTCG),Duration (sec)
1,1 Jun 2027 00:11:59.410,1 Jun 2027 00:16:57.617,298.207
2,1 Jun 2027 01:45:41.498,1 Jun 2027 01:50:05.520,264.021
3,1 Jun 2027 03:17:18.499,1 Jun 2027 03:25:50.959,512.460
4,1 Jun 2027 04:50:07.172,1 Jun 2027 05:01:57.716,710.544
5,1 Jun 2027 06:25:03.722,1 Jun 2027 06:37:58.030,774.308
6,1 Jun 2027 08:02:45.864,1 Jun 2027 08:13:28.464,642.600
7,1 Jun 2027 18:00:33.547,1 Jun 2027 18:11:06.574,633.027
8,1 Jun 2027 19:36:02.048,1 Jun 2027 19:48:55.596,773.548
9,1 Jun 2027 21:12:01.852,1 Jun 2027 21:23:57.043,715.191
10,1 Jun 2027 22:48:08.658,1 Jun 2027 22:56:49.487,520.829
11,2 Jun 2027 00:23:56.061,2 Jun 2027 00:28:26.881,270.820
12,2 Jun 2027 01:57:11.146,2 Jun 2027 02:02:01.616,290.470
13,2 Jun 2027 03:28:50.678,2 Jun 2027 03:37:53.566,542.888
14,2 Jun 2027 05:01:53.516,2 Jun 2027 05:14:00.407,726.891
15,2 Jun 2027 06:37:08.322,2 Jun 2027 06:49:58.707,770.385
16,2 Jun 2027 08:15:16.545,2 Jun 2027 08:25:21.443,604.897
17,2 Jun 2027 18:12:27.887,2 Jun 2027 18:23:34.069,666.182
18,2 Jun 2027 19:48:03.032,2 Jun 2027 20:00:58.342,775.309
19,2 Jun 2027 21:24:04.610,2 Jun 2027 21:35:41.897,697.286
20,2 Jun 2027 23:00:11.099,2 Jun 2027 23:08:20.714,489.615
21,3 Jun 2027 00:35:50.330,3 Jun 2027 00:39:57.956,247.627
22,3 Jun 2027 02:08:39.575,3 Jun 2027 02:13:59.627,320.052
23,3 Jun 2027 03:40:24.311,3 Jun 2027 03:49:56.315,572.004
24,3 Jun 2027 05:13:41.948,3 Jun 2027 05:26:02.965,741.016
25,3 Jun 2027 06:49:15.560,3 Jun 2027 07:01:58.911,763.351
26,3 Jun 2027 08:27:52.183,3 Jun 2027 08:37:12.038,559.855
27,3 Jun 2027 16:51:01.851,3 Jun 2027 16:54:04.458,182.607
28,3 Jun 2027 18:24:23.735,3 Jun 2027 18:35:57.608,693.873
29,3 Jun 2027 20:00:04.375,3 Jun 2027 20:12:58.623,774.247
30,3 Jun 2027 21:36:07.451,3 Jun 2027 21:47:24.758,677.306
31,3 Jun 2027 23:12:13.274,3 Jun 2027 23:19:50.770,457.496
32,4 Jun 2027 00:47:41.445,4 Jun 2027 00:51:31.759,230.314
33,4 Jun 2027 02:20:07.452,4 Jun 2027 02:25:59.027,351.576
34,4 Jun 2027 03:51:59.508,4 Jun 2027 04:01:59.170,599.662
35,4 Jun 2027 05:25:32.524,4 Jun 2027 05:38:05.363,752.839
36,4 Jun 2027 07:01:25.532,4 Jun 2027 07:13:58.560,753.028
37,4 Jun 2027 08:40:33.772,4 Jun 2027 08:48:59.334,505.562
38,4 Jun 2027 17:02:08.165,4 Jun 2027 17:07:36.225,328.060
39,4 Jun 2027 18:36:20.777,4 Jun 2027 18:48:17.559,716.782
40,4 Jun 2027 20:12:06.028,4 Jun 2027 20:24:56.512,770.484
41,4 Jun 2027 21:48:10.346,4 Jun 2027 21:59:05.687,655.342
42,4 Jun 2027 23:24:15.068,4 Jun 2027 23:31:19.838,424.769
43,5 Jun 2027 00:59:28.642,5 Jun 2027 01:03:09.210,220.567
44,5 Jun 2027 02:31:35.279,5 Jun 2027 02:37:59.442,384.162
45,5 Jun 2027 04:03:36.383,5 Jun 2027 04:14:02.071,625.689
46,5 Jun 2027 05:37:25.298,5 Jun 2027 05:50:07.572,762.274
47,5 Jun 2027 07:13:38.390,5 Jun 2027 07:25:57.558,739.168
48,5 Jun 2027 08:53:23.015,5 Jun 2027 09:00:41.720,438.704
49,5 Jun 2027 17:13:39.381,5 Jun 2027 17:20:40.145,420.763
50,5 Jun 2027 18:48:18.797,5 Jun 2027 19:00:34.197,735.400
51,5 Jun 2027 20:24:07.959,5 Jun 2027 20:36:52.073,764.114
52,5 Jun 2027 22:00:13.260,5 Jun 2027 22:10:44.754,631.494
53,5 Jun 2027 23:36:16.352,5 Jun 2027 23:42:48.178,391.825
54,6 Jun 2027 01:11:11.432,6 Jun 2027 01:14:50.977,219.545
55,6 Jun 2027 02:43:03.475,6 Jun 2027 02:50:00.602,417.126
56,6 Jun 2027 04:15:15.027,6 Jun 2027 04:26:04.990,649.963
57,6 Jun 2027 05:49:20.326,6 Jun 2027 06:02:09.552,769.226
58,6 Jun 2027 07:25:54.296,6 Jun 2027 07:37:55.773,721.477
59,6 Jun 2027 09:06:23.392,6 Jun 2027 09:12:15.802,352.410
60,6 Jun 2027 17:25:20.265,6 Jun 2027 17:33:31.541,491.276
61,6 Jun 2027 19:00:17.626,6 Jun 2027 19:12:47.748,750.122
62,6 Jun 2027 20:36:10.113,6 Jun 2027 20:48:45.370,755.257
63,6 Jun 2027 22:12:16.159,6 Jun 2027 22:22:22.041,605.881
64,6 Jun 2027 23:48:16.941,6 Jun 2027 23:54:16.077,359.136
65,7 Jun 2027 01:22:49.814,7 Jun 2027 01:26:37.210,227.396
66,7 Jun 2027 02:54:32.342,7 Jun 2027 03:02:02.298,449.956
67,7 Jun 2027 04:26:55.515,7 Jun 2027 04:38:07.898,672.383
68,7 Jun 2027 06:01:17.663,7 Jun 2027 06:14:11.277,773.614
69,7 Jun 2027 07:38:13.457,7 Jun 2027 07:49:53.053,699.595
70,7 Jun 2027 09:19:45.377,7 Jun 2027 09:23:31.204,225.826
71,7 Jun 2027 17:37:06.608,7 Jun 2027 17:46:14.719,548.111
72,7 Jun 2027 19:12:17.129,7 Jun 2027 19:24:58.381,761.252
73,7 Jun 2027 20:48:12.467,7 Jun 2027 21:00:36.454,743.988
74,7 Jun 2027 22:24:19.021,7 Jun 2027 22:33:57.626,578.605
75,8 Jun 2027 00:00:16.584,8 Jun 2027 00:05:43.915,327.331
76,8 Jun 2027 01:34:24.363,8 Jun 2027 01:38:27.500,243.137
77,8 Jun 2027 03:06:02.134,8 Jun 2027 03:14:04.399,482.265
78,8 Jun 2027 04:38:37.918,8 Jun 2027 04:50:10.757,692.839
79,8 Jun 2027 06:13:17.380,8 Jun 2027 06:26:12.698,775.318
80,8 Jun 2027 07:50:36.136,8 Jun 2027 08:01:49.192,673.055
81,8 Jun 2027 17:48:56.542,8 Jun 2027 17:58:51.628,595.086
82,8 Jun 2027 19:24:17.211,8 Jun 2027 19:37:06.236,769.025
83,8 Jun 2027 21:00:14.985,8 Jun 2027 21:12:25.382,730.397
84,8 Jun 2027 22:36:21.786,8 Jun 2027 22:45:31.621,549.835
85,9 Jun 2027 00:12:14.930,9 Jun 2027 00:17:12.191,297.261
86,9 Jun 2027 01:45:55.969,9 Jun 2027 01:50:21.123,265.154
87,9 Jun 2027 03:17:33.071,9 Jun 2027 03:26:06.795,513.724
88,9 Jun 2027 04:50:22.298,9 Jun 2027 05:02:13.537,711.238
89,9 Jun 2027 06:25:19.553,9 Jun 2027 06:38:13.760,774.207
90,9 Jun 2027 08:03:02.680,9 Jun 2027 08:13:43.903,641.224
91,9 Jun 2027 18:00:49.025,9 Jun 2027 18:11:23.396,634.371
92,9 Jun 2027 19:36:17.783,9 Jun 2027 19:49:11.447,773.664
93,9 Jun 2027 21:12:17.644,9 Jun 2027 21:24:12.208,714.564
94,9 Jun 2027 22:48:24.419,9 Jun 2027 22:57:04.135,519.716
95,10 Jun 2027 00:24:11.496,10 Jun 2027 00:28:41.520,270.024
96,10 Jun 2027 01:57:25.566,10 Jun 2027 02:02:17.293,291.728
97,10 Jun 2027 03:29:05.306,10 Jun 2027 03:38:09.404,544.099
98,10 Jun 2027 05:02:08.723,10 Jun 2027 05:14:16.216,727.493
99,10 Jun 2027 06:37:24.254,10 Jun 2027 06:50:14.418,770.164
100,10 Jun 2027 08:15:33.540,10 Jun 2027 08:25:36.797,603.257
101,10 Jun 2027 18:12:43.425,10 Jun 2027 18:23:50.732,667.307
102,10 Jun 2027 19:48:18.779,10 Jun 2027 20:01:14.097,775.318
103,10 Jun 2027 21:24:20.404,10 Jun 2027 21:35:56.985,696.581
104,10 Jun 2027 23:00:26.846,10 Jun 2027 23:08:35.318,488.473
105,11 Jun 2027 00:36:05.647,11 Jun 2027 00:40:12.692,247.045
106,11 Jun 2027 02:08:53.971,11 Jun 2027 02:14:15.357,321.386
107,11 Jun 2027 03:40:39.000,11 Jun 2027 03:50:12.154,573.154
108,11 Jun 2027 05:13:57.237,11 Jun 2027 05:26:18.769,741.531
109,11 Jun 2027 06:49:31.595,11 Jun 2027 07:02:14.598,763.003
110,11 Jun 2027 08:28:09.390,11 Jun 2027 08:37:27.279,557.889
111,11 Jun 2027 16:51:14.507,11 Jun 2027 16:54:24.740,190.232
112,11 Jun 2027 18:24:39.320,11 Jun 2027 18:36:14.128,694.808
113,11 Jun 2027 20:00:20.132,11 Jun 2027 20:13:14.285,774.153
114,11 Jun 2027 21:36:23.241,11 Jun 2027 21:47:39.772,676.530
115,11 Jun 2027 23:12:29.001,11 Jun 2027 23:20:05.337,456.336
116,12 Jun 2027 00:47:56.616,12 Jun 2027 00:51:46.628,230.012
117,12 Jun 2027 02:20:21.843,12 Jun 2027 02:26:14.793,352.950
118,12 Jun 2027 03:52:14.261,12 Jun 2027 04:02:15.007,600.746
119,12 Jun 2027 05:25:47.898,12 Jun 2027 05:38:21.157,753.260
120,12 Jun 2027 07:01:41.676,12 Jun 2027 07:14:14.221,752.544
121,12 Jun 2027 08:40:51.240,12 Jun 2027 08:49:14.412,503.172
122,12 Jun 2027 17:02:22.554,12 Jun 2027 17:07:54.655,332.101
123,12 Jun 2027 18:36:36.399,12 Jun 2027 18:48:33.948,717.548
124,12 Jun 2027 20:12:21.793,12 Jun 2027 20:25:12.083,770.290
125,12 Jun 2027 21:48:26.134,12 Jun 2027 21:59:20.629,654.496
126,12 Jun 2027 23:24:30.771,12 Jun 2027 23:31:34.382,423.610
127,13 Jun 2027 00:59:43.641,13 Jun 2027 01:03:24.242,220.601
128,13 Jun 2027 02:31:49.686,13 Jun 2027 02:38:15.233,385.547
129,13 Jun 2027 04:03:51.204,13 Jun 2027 04:14:17.906,626.702
130,13 Jun 2027 05:37:40.757,13 Jun 2027 05:50:23.355,762.597
131,13 Jun 2027 07:13:54.649,13 Jun 2027 07:26:13.187,738.538
132,13 Jun 2027 08:53:40.840,13 Jun 2027 09:00:56.551,435.711
133,13 Jun 2027 17:13:54.264,13 Jun 2027 17:20:57.967,423.703
134,13 Jun 2027 18:48:34.449,13 Jun 2027 19:00:50.462,736.012
135,13 Jun 2027 20:24:23.730,13 Jun 2027 20:37:07.557,763.827
136,13 Jun 2027 22:00:29.044,13 Jun 2027 22:10:59.631,630.588
137,13 Jun 2027 23:36:32.024,13 Jun 2027 23:43:02.702,390.678
