dataset/facility_timing/facility_Facility-Magadan1/Magadan1-To-KinoSat_110609.csv

Acces,Start Time (UTCG),Stop Time (UTCG),Duration (sec)
1,1 Jun 2027 01:24:57.462,1 Jun 2027 01:35:58.992,661.530
2,1 Jun 2027 02:59:10.812,1 Jun 2027 03:12:02.485,771.673
3,1 Jun 2027 04:35:54.977,1 Jun 2027 04:47:46.184,711.207
4,1 Jun 2027 06:16:50.997,1 Jun 2027 06:21:48.518,297.520
5,1 Jun 2027 14:35:06.760,1 Jun 2027 14:43:43.263,516.503
6,1 Jun 2027 16:10:09.622,1 Jun 2027 16:22:44.799,755.176
7,1 Jun 2027 17:46:02.934,1 Jun 2027 17:58:33.736,750.803
8,1 Jun 2027 19:22:08.622,1 Jun 2027 19:32:03.781,595.159
9,1 Jun 2027 20:58:06.854,1 Jun 2027 21:03:55.303,348.449
10,1 Jun 2027 22:32:27.493,1 Jun 2027 22:36:27.437,239.945
11,2 Jun 2027 00:04:09.229,2 Jun 2027 00:11:56.493,467.263
12,2 Jun 2027 01:36:38.813,2 Jun 2027 01:48:01.657,682.844
13,2 Jun 2027 03:11:09.138,2 Jun 2027 03:24:03.875,774.737
14,2 Jun 2027 04:48:15.563,2 Jun 2027 04:59:42.757,687.194
15,2 Jun 2027 06:30:41.553,2 Jun 2027 06:32:36.304,114.751
16,2 Jun 2027 14:46:54.601,2 Jun 2027 14:56:23.329,568.728
17,2 Jun 2027 16:22:09.198,2 Jun 2027 16:34:54.035,764.837
18,2 Jun 2027 17:58:05.157,2 Jun 2027 18:10:23.779,738.622
19,2 Jun 2027 19:34:11.206,2 Jun 2027 19:43:38.671,567.465
20,2 Jun 2027 21:10:05.591,2 Jun 2027 21:15:23.495,317.904
21,2 Jun 2027 22:44:00.821,2 Jun 2027 22:48:18.975,258.153
22,3 Jun 2027 00:15:39.625,3 Jun 2027 00:23:58.455,498.829
23,3 Jun 2027 01:48:22.086,3 Jun 2027 02:00:04.268,702.182
24,3 Jun 2027 03:23:09.858,3 Jun 2027 03:36:04.940,775.082
25,3 Jun 2027 05:00:39.808,3 Jun 2027 05:11:38.063,658.254
26,3 Jun 2027 14:58:45.518,3 Jun 2027 15:08:57.695,612.176
27,3 Jun 2027 16:34:09.307,3 Jun 2027 16:47:00.565,771.258
28,3 Jun 2027 18:10:07.536,3 Jun 2027 18:22:11.707,724.171
29,3 Jun 2027 19:46:13.669,3 Jun 2027 19:55:12.049,538.379
30,3 Jun 2027 21:22:02.819,3 Jun 2027 21:26:52.406,289.587
31,3 Jun 2027 22:55:31.680,3 Jun 2027 23:00:13.430,281.749
32,4 Jun 2027 00:27:11.220,4 Jun 2027 00:36:00.690,529.470
33,4 Jun 2027 02:00:07.353,4 Jun 2027 02:12:06.795,719.442
34,4 Jun 2027 03:35:13.050,4 Jun 2027 03:48:05.626,772.575
35,4 Jun 2027 05:13:08.086,4 Jun 2027 05:23:31.779,623.694
36,4 Jun 2027 15:10:38.681,4 Jun 2027 15:21:27.278,648.597
37,4 Jun 2027 16:46:09.878,4 Jun 2027 16:59:04.510,774.632
38,4 Jun 2027 18:22:10.029,4 Jun 2027 18:33:57.571,707.541
39,4 Jun 2027 19:58:15.959,4 Jun 2027 20:06:44.026,508.067
40,4 Jun 2027 21:33:58.005,4 Jun 2027 21:38:22.704,264.699
41,4 Jun 2027 23:07:00.919,4 Jun 2027 23:12:10.117,309.198
42,5 Jun 2027 00:38:44.161,5 Jun 2027 00:48:03.111,558.951
43,5 Jun 2027 02:11:54.661,5 Jun 2027 02:24:09.208,734.547
44,5 Jun 2027 03:47:18.807,5 Jun 2027 04:00:05.879,767.072
45,5 Jun 2027 05:25:40.956,5 Jun 2027 05:35:23.437,582.481
46,5 Jun 2027 15:22:33.557,5 Jun 2027 15:33:52.674,679.117
47,5 Jun 2027 16:58:10.836,5 Jun 2027 17:11:05.958,775.121
48,5 Jun 2027 18:34:12.618,5 Jun 2027 18:45:41.436,688.818
49,5 Jun 2027 20:10:18.007,5 Jun 2027 20:18:14.768,476.761
50,5 Jun 2027 21:45:50.478,5 Jun 2027 21:49:55.211,244.733
51,5 Jun 2027 23:18:29.260,5 Jun 2027 23:24:08.454,339.194
52,6 Jun 2027 00:50:18.589,6 Jun 2027 01:00:05.667,587.078
53,6 Jun 2027 02:23:44.068,6 Jun 2027 02:36:11.486,747.418
54,6 Jun 2027 03:59:27.221,6 Jun 2027 04:12:05.624,758.403
55,6 Jun 2027 05:38:19.202,6 Jun 2027 05:47:12.301,533.098
56,6 Jun 2027 14:00:40.762,6 Jun 2027 14:04:58.739,257.977
57,6 Jun 2027 15:34:29.783,6 Jun 2027 15:46:14.317,704.533
58,6 Jun 2027 17:10:12.128,6 Jun 2027 17:23:04.994,772.866
59,6 Jun 2027 18:46:15.271,6 Jun 2027 18:57:23.353,668.082
60,6 Jun 2027 20:22:19.721,6 Jun 2027 20:29:44.445,444.724
61,6 Jun 2027 21:57:39.511,6 Jun 2027 22:01:30.813,231.303
62,6 Jun 2027 23:29:57.283,6 Jun 2027 23:36:08.014,370.730
63,7 Jun 2027 01:01:54.615,7 Jun 2027 01:12:08.302,613.687
64,7 Jun 2027 02:35:35.627,7 Jun 2027 02:48:13.590,757.963
65,7 Jun 2027 04:11:38.435,7 Jun 2027 04:24:04.767,746.332
66,7 Jun 2027 05:51:04.109,7 Jun 2027 05:58:57.181,473.072
67,7 Jun 2027 14:12:01.757,7 Jun 2027 14:18:13.999,372.241
68,7 Jun 2027 15:46:27.098,7 Jun 2027 15:58:32.521,725.423
69,7 Jun 2027 17:22:13.719,7 Jun 2027 17:35:01.680,767.961
70,7 Jun 2027 18:58:17.950,7 Jun 2027 19:09:03.385,645.435
71,7 Jun 2027 20:34:20.984,7 Jun 2027 20:41:13.276,412.292
72,7 Jun 2027 22:09:24.485,7 Jun 2027 22:13:10.290,225.805
73,7 Jun 2027 23:41:25.429,7 Jun 2027 23:48:08.462,403.032
74,8 Jun 2027 01:13:32.342,8 Jun 2027 01:24:10.987,638.645
75,8 Jun 2027 02:47:29.390,8 Jun 2027 03:00:15.486,766.096
76,8 Jun 2027 04:23:52.581,8 Jun 2027 04:36:03.201,730.620
77,8 Jun 2027 06:03:58.060,8 Jun 2027 06:10:35.797,397.738
78,8 Jun 2027 14:23:37.834,8 Jun 2027 14:31:11.283,453.449
79,8 Jun 2027 15:58:25.307,8 Jun 2027 16:10:47.546,742.239
80,8 Jun 2027 17:34:15.554,8 Jun 2027 17:46:56.087,760.532
81,8 Jun 2027 19:10:20.635,8 Jun 2027 19:20:41.615,620.980
82,8 Jun 2027 20:46:21.640,8 Jun 2027 20:52:41.541,379.901
83,8 Jun 2027 22:21:05.157,8 Jun 2027 22:24:54.053,228.896
84,8 Jun 2027 23:52:54.071,9 Jun 2027 00:00:09.571,435.499
85,9 Jun 2027 01:25:11.859,9 Jun 2027 01:36:13.674,661.816
86,9 Jun 2027 02:59:25.423,9 Jun 2027 03:12:17.147,771.724
87,9 Jun 2027 04:36:09.861,9 Jun 2027 04:48:00.783,710.921
88,9 Jun 2027 06:17:06.674,9 Jun 2027 06:22:02.596,295.921
89,9 Jun 2027 14:35:21.240,9 Jun 2027 14:43:58.451,517.210
90,9 Jun 2027 16:10:24.260,9 Jun 2027 16:22:59.577,755.316
91,9 Jun 2027 17:46:17.603,9 Jun 2027 17:58:48.270,750.667
92,9 Jun 2027 19:22:23.292,9 Jun 2027 19:32:18.124,594.832
93,9 Jun 2027 20:58:21.470,9 Jun 2027 21:04:09.562,348.092
94,9 Jun 2027 22:32:41.787,9 Jun 2027 22:36:41.988,240.201
95,10 Jun 2027 00:04:23.480,10 Jun 2027 00:12:11.173,467.692
96,10 Jun 2027 01:36:53.230,10 Jun 2027 01:48:16.340,683.110
97,10 Jun 2027 03:11:23.775,10 Jun 2027 03:24:18.534,774.759
98,10 Jun 2027 04:48:30.494,10 Jun 2027 04:59:57.343,686.850
99,10 Jun 2027 06:30:58.701,10 Jun 2027 06:32:48.943,110.242
100,10 Jun 2027 14:47:09.124,10 Jun 2027 14:56:38.434,569.310
101,10 Jun 2027 16:22:23.842,10 Jun 2027 16:35:08.777,764.935
102,10 Jun 2027 17:58:19.827,10 Jun 2027 18:10:38.286,738.459
103,10 Jun 2027 19:34:25.871,10 Jun 2027 19:43:52.995,567.124
104,10 Jun 2027 21:10:20.186,10 Jun 2027 21:15:37.763,317.577
105,10 Jun 2027 22:44:15.079,10 Jun 2027 22:48:33.562,258.483
106,11 Jun 2027 00:15:53.890,11 Jun 2027 00:24:13.138,499.248
107,11 Jun 2027 01:48:36.526,11 Jun 2027 02:00:18.948,702.422
108,11 Jun 2027 03:23:24.526,11 Jun 2027 03:36:19.593,775.067
109,11 Jun 2027 05:00:54.788,11 Jun 2027 05:11:52.629,657.841
110,11 Jun 2027 14:59:00.073,11 Jun 2027 15:09:12.734,612.661
111,11 Jun 2027 16:34:23.957,11 Jun 2027 16:47:15.274,771.317
112,11 Jun 2027 18:10:22.207,11 Jun 2027 18:22:26.187,723.981
113,11 Jun 2027 19:46:28.331,11 Jun 2027 19:55:26.356,538.025
114,11 Jun 2027 21:22:17.385,11 Jun 2027 21:27:06.691,289.306
115,11 Jun 2027 22:55:45.913,11 Jun 2027 23:00:28.048,282.135
116,12 Jun 2027 00:27:25.500,12 Jun 2027 00:36:15.375,529.874
117,12 Jun 2027 02:00:21.819,12 Jun 2027 02:12:21.474,719.654
118,12 Jun 2027 03:35:27.750,12 Jun 2027 03:48:20.273,772.523
119,12 Jun 2027 05:13:23.120,12 Jun 2027 05:23:46.320,623.200
120,12 Jun 2027 15:10:53.259,12 Jun 2027 15:21:42.261,649.002
121,12 Jun 2027 16:46:24.532,12 Jun 2027 16:59:19.186,774.655
122,12 Jun 2027 18:22:24.699,12 Jun 2027 18:34:12.025,707.327
123,12 Jun 2027 19:58:30.614,12 Jun 2027 20:06:58.318,507.704
124,12 Jun 2027 21:34:12.535,12 Jun 2027 21:38:37.018,264.483
125,12 Jun 2027 23:07:15.137,12 Jun 2027 23:12:24.757,309.620
126,13 Jun 2027 00:38:58.460,13 Jun 2027 00:48:17.797,559.338
127,13 Jun 2027 02:12:09.153,13 Jun 2027 02:24:23.882,734.728
128,13 Jun 2027 03:47:33.540,13 Jun 2027 04:00:20.518,766.978
129,13 Jun 2027 05:25:56.054,13 Jun 2027 05:35:37.945,581.890
130,13 Jun 2027 15:22:48.153,13 Jun 2027 15:34:07.608,679.455
131,13 Jun 2027 16:58:25.493,13 Jun 2027 17:11:20.603,775.109
132,13 Jun 2027 18:34:27.287,13 Jun 2027 18:45:55.867,688.580
133,13 Jun 2027 20:10:32.655,13 Jun 2027 20:18:29.048,476.393
134,13 Jun 2027 21:46:04.962,13 Jun 2027 21:50:09.565,244.603
135,13 Jun 2027 23:18:43.471,13 Jun 2027 23:24:23.113,339.642
