dataset/facility_timing/facility_Facility-Magadan1/Magadan1-To-KinoSat_111307.csv

Acces,Start Time (UTCG),Stop Time (UTCG),Duration (sec)
1,1 Jun 2027 01:24:21.558,1 Jun 2027 01:28:00.254,218.696
2,1 Jun 2027 02:56:28.229,1 Jun 2027 03:02:50.277,382.048
3,1 Jun 2027 04:28:28.688,1 Jun 2027 04:38:53.158,624.470
4,1 Jun 2027 06:02:16.932,1 Jun 2027 06:14:58.854,761.922
5,1 Jun 2027 07:38:29.263,1 Jun 2027 07:50:49.119,739.856
6,1 Jun 2027 09:18:12.308,1 Jun 2027 09:25:34.290,441.983
7,1 Jun 2027 17:38:31.027,1 Jun 2027 17:45:30.096,419.069
8,1 Jun 2027 19:13:10.132,1 Jun 2027 19:25:25.190,735.058
9,1 Jun 2027 20:48:59.346,1 Jun 2027 21:01:43.639,764.294
10,1 Jun 2027 22:25:04.791,1 Jun 2027 22:35:36.712,631.922
11,2 Jun 2027 00:01:08.257,2 Jun 2027 00:07:40.145,391.887
12,2 Jun 2027 01:36:04.509,2 Jun 2027 01:39:41.886,217.377
13,2 Jun 2027 03:07:56.348,2 Jun 2027 03:14:51.506,415.159
14,2 Jun 2027 04:40:07.261,2 Jun 2027 04:50:56.143,648.881
15,2 Jun 2027 06:14:11.905,2 Jun 2027 06:27:00.903,768.998
16,2 Jun 2027 07:50:45.107,2 Jun 2027 08:02:47.427,722.320
17,2 Jun 2027 09:31:12.177,2 Jun 2027 09:37:08.898,356.721
18,2 Jun 2027 17:50:11.803,2 Jun 2027 17:58:21.796,489.994
19,2 Jun 2027 19:25:08.997,2 Jun 2027 19:37:38.868,749.871
20,2 Jun 2027 21:01:01.553,2 Jun 2027 21:13:37.023,755.470
21,2 Jun 2027 22:37:07.761,2 Jun 2027 22:47:14.045,606.284
22,3 Jun 2027 00:13:08.974,3 Jun 2027 00:19:07.999,359.025
23,3 Jun 2027 01:47:43.004,3 Jun 2027 01:51:28.041,225.037
24,3 Jun 2027 03:19:25.148,3 Jun 2027 03:26:53.279,448.130
25,3 Jun 2027 04:51:47.690,3 Jun 2027 05:02:59.107,671.417
26,3 Jun 2027 06:26:09.197,3 Jun 2027 06:39:02.692,773.495
27,3 Jun 2027 08:03:04.197,3 Jun 2027 08:14:44.797,700.600
28,3 Jun 2027 09:44:32.825,3 Jun 2027 09:48:25.653,232.828
29,3 Jun 2027 18:01:58.110,3 Jun 2027 18:11:05.205,547.095
30,3 Jun 2027 19:37:08.543,3 Jun 2027 19:49:49.621,761.078
31,3 Jun 2027 21:13:03.959,3 Jun 2027 21:25:28.190,744.231
32,3 Jun 2027 22:49:10.692,3 Jun 2027 22:58:49.669,578.977
33,4 Jun 2027 00:25:08.757,4 Jun 2027 00:30:35.764,327.007
34,4 Jun 2027 01:59:17.593,4 Jun 2027 02:03:18.316,240.722
35,4 Jun 2027 03:30:54.871,4 Jun 2027 03:38:55.453,480.582
36,4 Jun 2027 05:03:30.035,4 Jun 2027 05:15:02.032,691.997
37,4 Jun 2027 06:38:08.862,4 Jun 2027 06:51:04.181,775.319
38,4 Jun 2027 08:15:26.795,4 Jun 2027 08:26:41.038,674.243
39,4 Jun 2027 18:13:48.035,4 Jun 2027 18:23:42.309,594.274
40,4 Jun 2027 19:49:08.667,4 Jun 2027 20:01:57.590,768.923
41,4 Jun 2027 21:25:06.531,4 Jun 2027 21:37:17.195,730.664
42,4 Jun 2027 23:01:13.531,4 Jun 2027 23:10:23.693,550.162
43,5 Jun 2027 00:37:07.263,5 Jun 2027 00:42:03.945,296.681
44,5 Jun 2027 02:10:49.193,5 Jun 2027 02:15:11.968,262.775
45,5 Jun 2027 03:42:25.740,5 Jun 2027 03:50:57.919,512.179
46,5 Jun 2027 05:15:14.361,5 Jun 2027 05:27:04.875,710.514
47,5 Jun 2027 06:50:10.987,5 Jun 2027 07:03:05.312,774.325
48,5 Jun 2027 08:27:53.252,5 Jun 2027 08:38:35.863,642.610
49,5 Jun 2027 18:25:40.526,5 Jun 2027 18:36:14.247,633.721
50,5 Jun 2027 20:01:09.282,5 Jun 2027 20:14:02.907,773.624
51,5 Jun 2027 21:37:09.245,5 Jun 2027 21:49:04.090,714.845
52,5 Jun 2027 23:13:16.242,5 Jun 2027 23:21:56.225,519.983
53,6 Jun 2027 00:49:04.009,6 Jun 2027 00:53:33.150,269.141
54,6 Jun 2027 02:22:18.753,6 Jun 2027 02:27:08.196,289.443
55,6 Jun 2027 03:53:57.911,6 Jun 2027 04:03:00.599,542.688
56,6 Jun 2027 05:27:00.734,6 Jun 2027 05:39:07.621,726.887
57,6 Jun 2027 07:02:15.643,6 Jun 2027 07:15:06.039,770.396
58,6 Jun 2027 08:40:24.013,6 Jun 2027 08:50:28.887,604.874
59,6 Jun 2027 18:37:34.946,6 Jun 2027 18:48:41.736,666.790
60,6 Jun 2027 20:13:10.325,6 Jun 2027 20:26:05.655,775.331
61,6 Jun 2027 21:49:12.064,6 Jun 2027 22:00:48.931,696.868
62,6 Jun 2027 23:25:18.753,6 Jun 2027 23:33:27.415,488.662
63,7 Jun 2027 01:00:58.357,7 Jun 2027 01:05:04.177,245.821
64,7 Jun 2027 02:33:47.104,7 Jun 2027 02:39:06.328,319.224
65,7 Jun 2027 04:05:31.543,7 Jun 2027 04:15:03.416,571.873
66,7 Jun 2027 05:38:49.202,7 Jun 2027 05:51:10.232,741.030
67,7 Jun 2027 07:14:22.940,7 Jun 2027 07:27:06.291,763.351
68,7 Jun 2027 08:52:59.738,7 Jun 2027 09:02:19.525,559.786
69,7 Jun 2027 17:16:07.095,7 Jun 2027 17:19:14.186,187.091
70,7 Jun 2027 18:49:30.867,7 Jun 2027 19:01:05.268,694.401
71,7 Jun 2027 20:25:11.725,7 Jun 2027 20:38:05.935,774.210
72,7 Jun 2027 22:01:14.961,7 Jun 2027 22:12:31.775,676.813
73,7 Jun 2027 23:37:20.999,7 Jun 2027 23:44:57.428,456.428
74,8 Jun 2027 01:12:49.525,8 Jun 2027 01:16:37.957,228.432
75,8 Jun 2027 02:45:14.915,8 Jun 2027 02:51:05.844,350.929
76,8 Jun 2027 04:17:06.746,8 Jun 2027 04:27:06.336,599.589
77,8 Jun 2027 05:50:39.817,8 Jun 2027 06:03:12.684,752.867
78,8 Jun 2027 07:26:32.978,8 Jun 2027 07:39:05.988,753.011
79,8 Jun 2027 09:05:41.425,8 Jun 2027 09:14:06.857,505.432
80,8 Jun 2027 17:27:14.473,8 Jun 2027 17:32:44.964,330.491
81,8 Jun 2027 19:01:27.980,8 Jun 2027 19:13:25.217,717.237
82,8 Jun 2027 20:37:13.435,8 Jun 2027 20:50:03.821,770.386
83,8 Jun 2027 22:13:17.914,8 Jun 2027 22:24:12.682,654.768
84,8 Jun 2027 23:49:22.868,8 Jun 2027 23:56:26.453,423.584
85,9 Jun 2027 01:24:36.736,9 Jun 2027 01:28:15.427,218.692
86,9 Jun 2027 02:56:42.691,9 Jun 2027 03:03:06.362,383.671
87,9 Jun 2027 04:28:43.635,9 Jun 2027 04:39:09.299,625.665
88,9 Jun 2027 06:02:32.636,9 Jun 2027 06:15:14.945,762.309
89,9 Jun 2027 07:38:45.906,9 Jun 2027 07:51:05.032,739.126
90,9 Jun 2027 09:18:30.783,9 Jun 2027 09:25:49.272,438.489
91,9 Jun 2027 17:38:46.030,9 Jun 2027 17:45:48.614,422.584
92,9 Jun 2027 19:13:26.067,9 Jun 2027 19:25:41.848,735.781
93,9 Jun 2027 20:49:15.423,9 Jun 2027 21:01:59.372,763.949
94,9 Jun 2027 22:25:20.888,9 Jun 2027 22:35:51.725,630.837
95,10 Jun 2027 00:01:24.229,10 Jun 2027 00:07:54.736,390.507
96,10 Jun 2027 01:36:19.488,10 Jun 2027 01:39:57.267,217.779
97,10 Jun 2027 03:08:10.847,10 Jun 2027 03:15:07.618,416.770
98,10 Jun 2027 04:40:22.298,10 Jun 2027 04:51:12.279,649.980
99,10 Jun 2027 06:14:27.714,10 Jun 2027 06:27:16.975,769.262
100,10 Jun 2027 07:51:01.888,10 Jun 2027 08:03:03.291,721.403
101,10 Jun 2027 09:31:31.305,10 Jun 2027 09:37:23.349,352.044
102,10 Jun 2027 17:50:27.116,10 Jun 2027 17:58:39.876,492.760
103,10 Jun 2027 19:25:24.961,10 Jun 2027 19:37:55.395,750.435
104,10 Jun 2027 21:01:17.633,10 Jun 2027 21:13:52.657,755.024
105,10 Jun 2027 22:37:23.848,10 Jun 2027 22:47:28.978,605.130
106,11 Jun 2027 00:13:24.898,11 Jun 2027 00:19:22.581,357.683
107,11 Jun 2027 01:47:57.788,11 Jun 2027 01:51:43.617,225.830
108,11 Jun 2027 03:19:39.685,11 Jun 2027 03:27:09.402,449.717
109,11 Jun 2027 04:52:02.811,11 Jun 2027 05:03:15.244,672.433
110,11 Jun 2027 06:26:25.109,11 Jun 2027 06:39:18.750,773.640
111,11 Jun 2027 08:03:21.138,11 Jun 2027 08:15:00.613,699.475
112,11 Jun 2027 09:44:53.546,11 Jun 2027 09:48:38.648,225.102
113,11 Jun 2027 18:02:13.606,11 Jun 2027 18:11:22.971,549.365
114,11 Jun 2027 19:37:24.527,11 Jun 2027 19:50:06.020,761.492
115,11 Jun 2027 21:13:20.044,11 Jun 2027 21:25:43.725,743.681
116,11 Jun 2027 22:49:26.772,11 Jun 2027 22:59:04.530,577.757
117,12 Jun 2027 00:25:24.621,12 Jun 2027 00:30:50.362,325.741
118,12 Jun 2027 01:59:32.230,12 Jun 2027 02:03:34.053,241.823
119,12 Jun 2027 03:31:09.461,12 Jun 2027 03:39:11.585,482.125
120,12 Jun 2027 05:03:45.246,12 Jun 2027 05:15:18.161,692.914
121,12 Jun 2027 06:38:24.885,12 Jun 2027 06:51:20.219,775.335
122,12 Jun 2027 08:15:43.905,12 Jun 2027 08:26:56.791,672.886
123,12 Jun 2027 18:14:03.658,12 Jun 2027 18:23:59.824,596.166
124,12 Jun 2027 19:49:24.672,12 Jun 2027 20:02:13.865,769.194
125,12 Jun 2027 21:25:22.620,12 Jun 2027 21:37:32.634,730.014
126,12 Jun 2027 23:01:29.600,12 Jun 2027 23:10:38.487,548.886
127,13 Jun 2027 00:37:23.047,13 Jun 2027 00:42:18.585,295.537
128,13 Jun 2027 02:11:03.727,13 Jun 2027 02:15:27.829,264.102
129,13 Jun 2027 03:42:40.390,13 Jun 2027 03:51:14.058,513.668
130,13 Jun 2027 05:15:29.665,13 Jun 2027 05:27:20.997,711.331
131,13 Jun 2027 06:50:27.124,13 Jun 2027 07:03:21.329,774.205
132,13 Jun 2027 08:28:10.549,13 Jun 2027 08:38:51.538,640.989
133,13 Jun 2027 18:25:56.244,13 Jun 2027 18:36:31.549,635.306
134,13 Jun 2027 20:01:25.304,13 Jun 2027 20:14:19.064,773.760
135,13 Jun 2027 21:37:25.335,13 Jun 2027 21:49:19.436,714.100
136,13 Jun 2027 23:13:32.299,13 Jun 2027 23:22:10.958,518.660
