dataset/facility_timing/facility_Facility-Magadan1/Magadan1-To-KinoSat_111601.csv

Acces,Start Time (UTCG),Stop Time (UTCG),Duration (sec)
1,1 Jun 2027 00:35:25.140,1 Jun 2027 00:43:40.587,495.447
2,1 Jun 2027 02:11:08.976,1 Jun 2027 02:15:15.278,246.301
3,1 Jun 2027 03:44:04.111,1 Jun 2027 03:49:10.474,306.363
4,1 Jun 2027 05:15:45.480,1 Jun 2027 05:25:07.712,562.232
5,1 Jun 2027 06:48:58.403,1 Jun 2027 07:01:15.223,736.820
6,1 Jun 2027 08:24:26.527,1 Jun 2027 08:37:12.476,765.949
7,1 Jun 2027 10:02:54.588,1 Jun 2027 10:12:29.390,574.802
8,1 Jun 2027 18:26:36.903,1 Jun 2027 18:28:44.797,127.894
9,1 Jun 2027 19:59:37.324,1 Jun 2027 20:11:05.451,688.128
10,1 Jun 2027 21:35:17.330,1 Jun 2027 21:48:12.122,774.792
11,1 Jun 2027 23:11:20.684,1 Jun 2027 23:22:42.420,681.737
12,2 Jun 2027 00:47:27.720,2 Jun 2027 00:55:10.805,463.085
13,2 Jun 2027 02:23:01.461,2 Jun 2027 02:26:47.952,226.491
14,2 Jun 2027 03:55:31.776,2 Jun 2027 04:01:10.006,338.230
15,2 Jun 2027 05:27:20.187,2 Jun 2027 05:37:10.825,590.638
16,2 Jun 2027 07:00:48.458,2 Jun 2027 07:13:17.908,749.451
17,2 Jun 2027 08:36:35.888,2 Jun 2027 08:49:12.515,756.627
18,2 Jun 2027 10:15:34.559,2 Jun 2027 10:24:18.029,523.470
19,2 Jun 2027 18:37:28.988,2 Jun 2027 18:42:32.063,303.075
20,2 Jun 2027 20:11:34.325,2 Jun 2027 20:23:26.473,712.148
21,2 Jun 2027 21:47:19.137,2 Jun 2027 22:00:10.740,771.603
22,2 Jun 2027 23:23:23.815,2 Jun 2027 23:34:23.857,660.042
23,3 Jun 2027 00:59:29.973,3 Jun 2027 01:06:39.952,429.979
24,3 Jun 2027 02:34:50.098,3 Jun 2027 02:38:24.165,214.068
25,3 Jun 2027 04:06:59.314,3 Jun 2027 04:13:10.611,371.298
26,3 Jun 2027 05:38:56.562,3 Jun 2027 05:49:13.989,617.428
27,3 Jun 2027 07:12:40.716,3 Jun 2027 07:25:20.401,759.685
28,3 Jun 2027 08:48:48.116,3 Jun 2027 09:01:11.931,743.814
29,3 Jun 2027 10:28:21.576,3 Jun 2027 10:36:02.356,460.780
30,3 Jun 2027 18:48:57.126,3 Jun 2027 18:55:40.285,403.159
31,3 Jun 2027 20:23:32.354,3 Jun 2027 20:35:44.104,731.751
32,3 Jun 2027 21:59:21.231,3 Jun 2027 22:12:06.990,765.759
33,3 Jun 2027 23:35:26.986,3 Jun 2027 23:46:03.391,636.406
34,4 Jun 2027 01:11:31.780,4 Jun 2027 01:18:08.258,396.479
35,4 Jun 2027 02:46:34.209,4 Jun 2027 02:50:04.771,210.561
36,4 Jun 2027 04:18:27.158,4 Jun 2027 04:25:11.996,404.838
37,4 Jun 2027 05:50:34.709,4 Jun 2027 06:01:17.178,642.469
38,4 Jun 2027 07:24:35.233,4 Jun 2027 07:37:22.686,767.453
39,4 Jun 2027 09:01:03.358,4 Jun 2027 09:13:10.606,727.248
40,4 Jun 2027 10:41:18.398,4 Jun 2027 10:47:39.700,381.302
41,4 Jun 2027 19:00:36.609,4 Jun 2027 19:08:34.264,477.654
42,4 Jun 2027 20:35:31.229,4 Jun 2027 20:47:58.576,747.347
43,4 Jun 2027 22:11:23.567,4 Jun 2027 22:24:00.942,757.375
44,4 Jun 2027 23:47:30.162,4 Jun 2027 23:57:41.096,610.935
45,5 Jun 2027 01:23:32.968,5 Jun 2027 01:29:36.008,363.040
46,5 Jun 2027 02:58:13.628,5 Jun 2027 03:01:50.082,216.454
47,5 Jun 2027 04:29:55.637,5 Jun 2027 04:37:13.936,438.299
48,5 Jun 2027 06:02:14.709,5 Jun 2027 06:13:20.347,665.639
49,5 Jun 2027 07:36:32.065,5 Jun 2027 07:49:24.708,772.643
50,5 Jun 2027 09:13:21.813,5 Jun 2027 09:25:08.391,706.578
51,5 Jun 2027 10:54:32.086,5 Jun 2027 10:59:03.110,271.024
52,5 Jun 2027 19:12:22.195,5 Jun 2027 19:21:19.343,537.148
53,5 Jun 2027 20:47:30.812,5 Jun 2027 21:00:10.074,759.261
54,5 Jun 2027 22:23:26.110,5 Jun 2027 22:35:52.649,746.539
55,5 Jun 2027 23:59:33.314,6 Jun 2027 00:09:17.058,583.744
56,6 Jun 2027 01:35:33.312,6 Jun 2027 01:41:03.551,330.239
57,6 Jun 2027 03:09:48.837,6 Jun 2027 03:13:39.784,230.947
58,6 Jun 2027 04:41:25.016,6 Jun 2027 04:49:16.292,471.276
59,6 Jun 2027 06:13:56.628,6 Jun 2027 06:25:23.474,686.845
60,6 Jun 2027 07:48:31.274,6 Jun 2027 08:01:26.445,775.171
61,6 Jun 2027 09:25:43.722,6 Jun 2027 09:37:05.097,681.375
62,6 Jun 2027 19:24:11.685,6 Jun 2027 19:33:57.801,586.116
63,6 Jun 2027 20:59:30.994,6 Jun 2027 21:12:18.744,767.750
64,6 Jun 2027 22:35:28.828,6 Jun 2027 22:47:42.167,733.339
65,7 Jun 2027 00:11:36.390,7 Jun 2027 00:20:51.368,554.978
66,7 Jun 2027 01:47:32.487,7 Jun 2027 01:52:31.364,298.877
67,7 Jun 2027 03:21:20.766,7 Jun 2027 03:25:33.122,252.355
68,7 Jun 2027 04:52:55.523,7 Jun 2027 05:01:18.947,503.424
69,7 Jun 2027 06:25:40.532,7 Jun 2027 06:37:26.522,705.991
70,7 Jun 2027 08:00:32.937,7 Jun 2027 08:13:27.836,774.899
71,7 Jun 2027 09:38:09.414,7 Jun 2027 09:49:00.458,651.044
72,7 Jun 2027 19:36:03.904,7 Jun 2027 19:46:30.887,626.983
73,7 Jun 2027 21:11:31.686,7 Jun 2027 21:24:24.725,773.039
74,7 Jun 2027 22:47:31.698,7 Jun 2027 22:59:29.549,717.851
75,8 Jun 2027 00:23:39.361,8 Jun 2027 00:32:24.152,524.792
76,8 Jun 2027 01:59:30.033,8 Jun 2027 02:04:00.032,269.999
77,8 Jun 2027 03:32:50.431,8 Jun 2027 03:37:29.232,278.801
78,8 Jun 2027 05:04:27.322,8 Jun 2027 05:13:21.819,534.497
79,8 Jun 2027 06:37:26.481,8 Jun 2027 06:49:29.478,722.996
80,8 Jun 2027 08:12:37.131,8 Jun 2027 08:25:28.828,771.697
81,8 Jun 2027 09:50:39.307,8 Jun 2027 10:00:54.123,614.816
82,8 Jun 2027 19:47:58.161,8 Jun 2027 19:58:59.396,661.236
83,8 Jun 2027 21:23:32.818,8 Jun 2027 21:36:28.104,775.286
84,8 Jun 2027 22:59:34.675,8 Jun 2027 23:11:14.848,700.172
85,9 Jun 2027 00:35:42.153,9 Jun 2027 00:43:55.532,493.380
86,9 Jun 2027 02:11:25.328,9 Jun 2027 02:15:30.337,245.010
87,9 Jun 2027 03:44:18.730,9 Jun 2027 03:49:27.372,308.641
88,9 Jun 2027 05:16:00.567,9 Jun 2027 05:25:24.835,564.268
89,9 Jun 2027 06:49:14.532,9 Jun 2027 07:01:32.298,737.766
90,9 Jun 2027 08:24:43.954,9 Jun 2027 08:37:29.365,765.410
91,9 Jun 2027 10:03:14.003,9 Jun 2027 10:12:45.564,571.561
92,9 Jun 2027 18:26:45.829,9 Jun 2027 18:29:12.402,146.573
93,9 Jun 2027 19:59:53.986,9 Jun 2027 20:11:23.846,689.860
94,9 Jun 2027 21:35:34.321,9 Jun 2027 21:48:28.983,774.662
95,9 Jun 2027 23:11:37.751,9 Jun 2027 23:22:58.121,680.370
96,10 Jun 2027 00:47:44.707,10 Jun 2027 00:55:25.677,460.970
97,10 Jun 2027 02:23:17.570,10 Jun 2027 02:27:03.230,225.660
98,10 Jun 2027 03:55:46.383,10 Jun 2027 04:01:26.976,340.593
99,10 Jun 2027 05:27:35.386,10 Jun 2027 05:37:27.948,592.562
100,10 Jun 2027 07:01:04.735,10 Jun 2027 07:13:34.969,750.234
101,10 Jun 2027 08:36:53.505,10 Jun 2027 08:49:29.366,755.861
102,10 Jun 2027 10:15:54.398,10 Jun 2027 10:24:33.959,519.561
103,10 Jun 2027 18:37:43.223,10 Jun 2027 18:42:54.150,310.927
104,10 Jun 2027 20:11:51.059,10 Jun 2027 20:23:44.634,713.575
105,10 Jun 2027 21:47:36.145,10 Jun 2027 22:00:27.440,771.295
106,10 Jun 2027 23:23:40.882,10 Jun 2027 23:34:39.425,658.544
107,11 Jun 2027 00:59:46.927,11 Jun 2027 01:06:54.765,427.837
108,11 Jun 2027 02:35:05.912,11 Jun 2027 02:38:39.724,213.812
109,11 Jun 2027 04:07:13.937,11 Jun 2027 04:13:27.631,373.694
110,11 Jun 2027 05:39:11.882,11 Jun 2027 05:49:31.110,619.228
111,11 Jun 2027 07:12:57.145,11 Jun 2027 07:25:37.446,760.301
112,11 Jun 2027 08:49:05.932,11 Jun 2027 09:01:28.727,742.796
113,11 Jun 2027 10:28:41.981,11 Jun 2027 10:36:17.905,455.924
114,11 Jun 2027 18:49:12.417,11 Jun 2027 18:56:01.114,408.697
115,11 Jun 2027 20:23:49.145,11 Jun 2027 20:36:02.047,732.901
116,11 Jun 2027 21:59:38.253,11 Jun 2027 22:12:23.534,765.281
117,11 Jun 2027 23:35:44.049,11 Jun 2027 23:46:18.838,634.789
118,12 Jun 2027 01:11:48.688,12 Jun 2027 01:18:23.026,394.338
119,12 Jun 2027 02:46:49.697,12 Jun 2027 02:50:20.642,210.945
120,12 Jun 2027 04:18:41.819,12 Jun 2027 04:25:29.048,407.229
121,12 Jun 2027 05:50:50.154,12 Jun 2027 06:01:34.289,644.135
122,12 Jun 2027 07:24:51.813,12 Jun 2027 07:37:39.706,767.892
123,12 Jun 2027 09:01:21.382,12 Jun 2027 09:13:27.347,725.965
124,12 Jun 2027 10:41:39.652,12 Jun 2027 10:47:54.599,374.947
125,12 Jun 2027 19:00:52.407,12 Jun 2027 19:08:54.391,481.984
126,12 Jun 2027 20:35:48.069,12 Jun 2027 20:48:16.313,748.244
127,12 Jun 2027 22:11:40.600,12 Jun 2027 22:24:17.332,756.733
128,12 Jun 2027 23:47:47.220,12 Jun 2027 23:57:56.426,609.206
129,13 Jun 2027 01:23:49.821,13 Jun 2027 01:29:50.762,360.942
130,13 Jun 2027 02:58:28.818,13 Jun 2027 03:02:06.264,217.447
131,13 Jun 2027 04:30:10.359,13 Jun 2027 04:37:31.015,440.656
132,13 Jun 2027 06:02:30.283,13 Jun 2027 06:13:37.457,667.174
133,13 Jun 2027 07:36:48.809,13 Jun 2027 07:49:41.711,772.903
134,13 Jun 2027 09:13:40.067,13 Jun 2027 09:25:25.057,704.990
135,13 Jun 2027 10:54:55.090,13 Jun 2027 10:59:16.448,261.358
136,13 Jun 2027 19:12:38.298,13 Jun 2027 19:21:38.976,540.677
137,13 Jun 2027 20:47:47.691,13 Jun 2027 21:00:27.616,759.925
138,13 Jun 2027 22:23:43.152,13 Jun 2027 22:36:08.890,745.738
139,13 Jun 2027 23:59:50.359,14 Jun 2027 00:00:01.000,10.641
