dataset/facility_timing/facility_Facility-Magadan1/Magadan1-To-KinoSat_110208.csv

Acces,Start Time (UTCG),Stop Time (UTCG),Duration (sec)
1,1 Jun 2027 00:15:20.444,1 Jun 2027 00:28:05.780,765.337
2,1 Jun 2027 01:51:41.458,1 Jun 2027 02:03:53.982,732.524
3,1 Jun 2027 03:31:42.269,1 Jun 2027 03:38:29.226,406.957
4,1 Jun 2027 11:51:30.076,1 Jun 2027 11:58:56.704,446.629
5,1 Jun 2027 13:26:15.894,1 Jun 2027 13:38:36.702,740.808
6,1 Jun 2027 15:02:05.899,1 Jun 2027 15:14:47.249,761.350
7,1 Jun 2027 16:38:11.017,1 Jun 2027 16:48:34.315,623.299
8,1 Jun 2027 18:14:12.466,1 Jun 2027 18:20:34.987,382.520
9,1 Jun 2027 19:48:58.468,1 Jun 2027 19:52:45.393,226.924
10,1 Jun 2027 21:20:48.015,1 Jun 2027 21:27:59.664,431.648
11,1 Jun 2027 22:53:04.471,1 Jun 2027 23:04:03.807,659.336
12,2 Jun 2027 00:27:16.258,2 Jun 2027 00:40:07.504,771.246
13,2 Jun 2027 02:03:58.429,2 Jun 2027 02:15:51.698,713.269
14,2 Jun 2027 03:44:48.821,2 Jun 2027 03:49:57.862,309.041
15,2 Jun 2027 12:03:12.972,2 Jun 2027 12:11:44.731,511.760
16,2 Jun 2027 13:38:14.810,2 Jun 2027 13:50:49.053,754.243
17,2 Jun 2027 15:14:07.965,2 Jun 2027 15:26:39.665,751.700
18,2 Jun 2027 16:50:13.720,2 Jun 2027 17:00:10.987,597.267
19,2 Jun 2027 18:26:12.464,2 Jun 2027 18:32:02.969,350.506
20,2 Jun 2027 20:00:35.475,2 Jun 2027 20:04:32.957,237.483
21,2 Jun 2027 21:32:17.315,2 Jun 2027 21:40:01.271,463.957
22,2 Jun 2027 23:04:45.652,2 Jun 2027 23:16:06.515,680.863
23,3 Jun 2027 00:39:14.387,3 Jun 2027 00:52:08.958,774.571
24,3 Jun 2027 02:16:18.730,3 Jun 2027 02:27:48.415,689.685
25,3 Jun 2027 03:58:30.682,3 Jun 2027 04:00:54.146,143.465
26,3 Jun 2027 12:15:00.533,3 Jun 2027 12:24:25.372,564.840
27,3 Jun 2027 13:50:14.369,3 Jun 2027 14:02:58.553,764.185
28,3 Jun 2027 15:26:10.210,3 Jun 2027 15:38:29.906,739.695
29,3 Jun 2027 17:02:16.361,3 Jun 2027 17:11:46.006,569.645
30,3 Jun 2027 18:38:11.388,3 Jun 2027 18:43:31.076,319.688
31,3 Jun 2027 20:12:09.031,3 Jun 2027 20:16:24.249,255.218
32,3 Jun 2027 21:43:47.596,3 Jun 2027 21:52:03.252,495.656
33,3 Jun 2027 23:16:28.755,3 Jun 2027 23:28:09.168,700.413
34,4 Jun 2027 00:51:14.909,4 Jun 2027 01:04:10.089,775.180
35,4 Jun 2027 02:28:42.657,4 Jun 2027 02:39:43.886,661.229
36,4 Jun 2027 12:26:51.263,4 Jun 2027 12:37:00.218,608.954
37,4 Jun 2027 14:02:14.470,4 Jun 2027 14:15:05.336,770.866
38,4 Jun 2027 15:38:12.613,4 Jun 2027 15:50:18.023,725.410
39,4 Jun 2027 17:14:18.885,4 Jun 2027 17:23:19.496,540.611
40,4 Jun 2027 18:50:08.847,4 Jun 2027 18:54:59.843,290.996
41,4 Jun 2027 20:23:40.032,4 Jun 2027 20:28:18.539,278.507
42,4 Jun 2027 21:55:19.065,4 Jun 2027 22:04:05.510,526.445
43,4 Jun 2027 23:28:13.850,4 Jun 2027 23:40:11.739,717.889
44,5 Jun 2027 01:03:17.901,5 Jun 2027 01:16:10.845,772.944
45,5 Jun 2027 02:41:10.583,5 Jun 2027 02:51:37.805,627.222
46,5 Jun 2027 12:38:44.296,5 Jun 2027 12:49:30.210,645.913
47,5 Jun 2027 14:14:15.034,5 Jun 2027 14:27:09.524,774.490
48,5 Jun 2027 15:50:15.138,5 Jun 2027 16:02:04.072,708.934
49,5 Jun 2027 17:26:21.248,5 Jun 2027 17:34:51.570,510.322
50,5 Jun 2027 19:02:04.317,5 Jun 2027 19:06:29.930,265.613
51,5 Jun 2027 20:35:09.339,5 Jun 2027 20:40:15.121,305.782
52,5 Jun 2027 22:06:51.871,5 Jun 2027 22:16:07.960,556.089
53,5 Jun 2027 23:40:00.985,5 Jun 2027 23:52:14.199,733.214
54,6 Jun 2027 01:15:23.445,6 Jun 2027 01:28:11.176,767.731
55,6 Jun 2027 02:53:43.042,6 Jun 2027 03:03:29.711,586.669
56,6 Jun 2027 12:50:39.080,6 Jun 2027 13:01:55.973,676.893
57,6 Jun 2027 14:26:16.001,6 Jun 2027 14:39:11.197,775.196
58,6 Jun 2027 16:02:17.759,6 Jun 2027 16:13:48.107,690.347
59,6 Jun 2027 17:38:23.369,6 Jun 2027 17:46:22.384,479.015
60,6 Jun 2027 19:13:57.135,6 Jun 2027 19:18:02.154,245.019
61,6 Jun 2027 20:46:37.691,6 Jun 2027 20:52:13.400,335.709
62,6 Jun 2027 22:18:26.158,6 Jun 2027 22:28:10.548,584.390
63,6 Jun 2027 23:51:50.216,7 Jun 2027 00:04:16.527,746.311
64,7 Jun 2027 01:27:31.644,7 Jun 2027 01:40:11.006,759.363
65,7 Jun 2027 03:06:20.792,7 Jun 2027 03:15:18.915,538.123
66,7 Jun 2027 11:28:50.155,7 Jun 2027 11:32:56.568,246.413
67,7 Jun 2027 13:02:35.239,7 Jun 2027 13:14:17.947,702.708
68,7 Jun 2027 14:38:17.302,7 Jun 2027 14:51:10.453,773.151
69,7 Jun 2027 16:14:20.450,7 Jun 2027 16:25:30.187,669.737
70,7 Jun 2027 17:50:25.174,7 Jun 2027 17:57:52.121,446.946
71,7 Jun 2027 19:25:46.559,7 Jun 2027 19:29:37.413,230.854
72,7 Jun 2027 20:58:05.686,7 Jun 2027 21:04:12.931,367.246
73,7 Jun 2027 22:30:02.033,7 Jun 2027 22:40:13.218,611.184
74,8 Jun 2027 00:03:41.597,8 Jun 2027 00:16:18.679,757.082
75,8 Jun 2027 01:39:42.628,8 Jun 2027 01:52:10.242,747.614
76,8 Jun 2027 03:19:05.057,8 Jun 2027 03:27:04.274,479.217
77,8 Jun 2027 11:40:09.206,8 Jun 2027 11:46:14.091,364.884
78,8 Jun 2027 13:14:32.512,8 Jun 2027 13:26:36.461,723.949
79,8 Jun 2027 14:50:18.905,8 Jun 2027 15:03:07.352,768.446
80,8 Jun 2027 16:26:23.174,8 Jun 2027 16:37:10.373,647.199
81,8 Jun 2027 18:02:26.548,8 Jun 2027 18:09:20.979,414.431
82,8 Jun 2027 19:37:31.941,8 Jun 2027 19:41:16.514,224.573
83,8 Jun 2027 21:09:33.772,8 Jun 2027 21:16:13.369,399.597
84,8 Jun 2027 22:41:39.607,8 Jun 2027 22:52:15.940,636.333
85,9 Jun 2027 00:15:35.184,9 Jun 2027 00:28:20.639,765.455
86,9 Jun 2027 01:51:56.540,9 Jun 2027 02:04:08.782,732.243
87,9 Jun 2027 03:31:58.070,9 Jun 2027 03:38:43.660,405.590
88,9 Jun 2027 11:51:44.531,9 Jun 2027 11:59:12.442,447.911
89,9 Jun 2027 13:26:30.688,9 Jun 2027 13:38:51.765,741.076
90,9 Jun 2027 15:02:20.760,9 Jun 2027 15:15:01.961,761.201
91,9 Jun 2027 16:38:25.900,9 Jun 2027 16:48:48.747,622.847
92,9 Jun 2027 18:14:27.328,9 Jun 2027 18:20:49.240,381.912
93,9 Jun 2027 19:49:12.988,9 Jun 2027 19:52:59.918,226.930
94,9 Jun 2027 21:21:02.332,9 Jun 2027 21:28:14.488,432.156
95,9 Jun 2027 22:53:18.966,9 Jun 2027 23:04:18.668,659.702
96,10 Jun 2027 00:27:31.032,10 Jun 2027 00:40:22.355,771.323
97,10 Jun 2027 02:04:13.567,10 Jun 2027 02:16:06.484,712.917
98,10 Jun 2027 03:45:04.931,10 Jun 2027 03:50:12.036,307.105
99,10 Jun 2027 12:03:27.531,10 Jun 2027 12:12:00.318,512.787
100,10 Jun 2027 13:38:29.617,10 Jun 2027 13:51:04.065,754.448
101,10 Jun 2027 15:14:22.830,10 Jun 2027 15:26:54.339,751.509
102,10 Jun 2027 16:50:28.603,10 Jun 2027 17:00:25.389,596.787
103,10 Jun 2027 18:26:27.311,10 Jun 2027 18:32:17.219,349.908
104,10 Jun 2027 20:00:49.923,10 Jun 2027 20:04:47.556,237.634
105,10 Jun 2027 21:32:31.642,10 Jun 2027 21:40:16.107,464.464
106,10 Jun 2027 23:05:00.179,10 Jun 2027 23:16:21.378,681.199
107,11 Jun 2027 00:39:29.201,11 Jun 2027 00:52:23.805,774.605
108,11 Jun 2027 02:16:33.926,11 Jun 2027 02:28:03.183,689.257
109,11 Jun 2027 03:58:48.102,11 Jun 2027 04:01:07.062,138.960
110,11 Jun 2027 12:15:15.160,11 Jun 2027 12:24:40.846,565.686
111,11 Jun 2027 13:50:29.188,11 Jun 2027 14:03:13.518,764.330
112,11 Jun 2027 15:26:25.079,11 Jun 2027 15:38:44.543,739.464
113,11 Jun 2027 17:02:31.243,11 Jun 2027 17:12:00.380,569.137
114,11 Jun 2027 18:38:26.215,11 Jun 2027 18:43:45.330,319.115
115,11 Jun 2027 20:12:23.421,11 Jun 2027 20:16:38.913,255.491
116,11 Jun 2027 21:44:01.939,11 Jun 2027 21:52:18.096,496.157
117,11 Jun 2027 23:16:43.314,11 Jun 2027 23:28:24.031,700.718
118,12 Jun 2027 00:51:29.763,12 Jun 2027 01:04:24.931,775.167
119,12 Jun 2027 02:28:57.918,12 Jun 2027 02:39:58.632,660.713
120,12 Jun 2027 12:27:05.940,12 Jun 2027 12:37:15.600,609.660
121,12 Jun 2027 14:02:29.298,12 Jun 2027 14:15:20.254,770.956
122,12 Jun 2027 15:38:27.486,12 Jun 2027 15:50:32.624,725.139
123,12 Jun 2027 17:14:33.765,12 Jun 2027 17:23:33.846,540.080
124,12 Jun 2027 18:50:23.646,12 Jun 2027 18:55:14.113,290.467
125,12 Jun 2027 20:23:54.379,12 Jun 2027 20:28:33.254,278.875
126,12 Jun 2027 21:55:33.427,12 Jun 2027 22:04:20.362,526.934
127,12 Jun 2027 23:28:28.443,12 Jun 2027 23:40:26.604,718.161
128,13 Jun 2027 01:03:32.796,13 Jun 2027 01:16:25.683,772.887
129,13 Jun 2027 02:41:25.915,13 Jun 2027 02:51:52.521,626.606
130,13 Jun 2027 12:38:59.010,13 Jun 2027 12:49:45.514,646.504
131,13 Jun 2027 14:14:29.872,13 Jun 2027 14:27:24.399,774.528
132,13 Jun 2027 15:50:30.013,13 Jun 2027 16:02:18.638,708.625
133,13 Jun 2027 17:26:36.126,13 Jun 2027 17:35:05.896,509.770
134,13 Jun 2027 19:02:19.078,13 Jun 2027 19:06:44.229,265.150
135,13 Jun 2027 20:35:23.659,13 Jun 2027 20:40:29.876,306.217
136,13 Jun 2027 22:07:06.256,13 Jun 2027 22:16:22.818,556.562
137,13 Jun 2027 23:40:15.612,13 Jun 2027 23:52:29.063,733.450
