dataset/area_timing/orbit_14/Russia-To-KinoSat_111401.csv

Acces,Start Time (UTCG),Stop Time (UTCG),Duration (sec)
1,1 Jun 2027 00:46:09.098,1 Jun 2027 00:53:55.631,466.533
2,1 Jun 2027 02:23:52.891,1 Jun 2027 02:24:02.308,9.416
3,1 Jun 2027 02:24:14.732,1 Jun 2027 02:25:16.305,61.573
4,1 Jun 2027 02:25:21.231,1 Jun 2027 02:30:24.690,303.459
5,1 Jun 2027 04:02:39.466,1 Jun 2027 04:07:20.742,281.275
6,1 Jun 2027 05:26:10.210,1 Jun 2027 05:28:27.473,137.263
7,1 Jun 2027 07:02:21.325,1 Jun 2027 07:05:51.068,209.743
8,1 Jun 2027 08:35:54.739,1 Jun 2027 08:43:25.036,450.297
9,1 Jun 2027 08:43:28.320,1 Jun 2027 08:44:28.939,60.619
10,1 Jun 2027 10:13:22.481,1 Jun 2027 10:20:11.861,409.380
11,1 Jun 2027 11:50:21.954,1 Jun 2027 11:54:51.638,269.684
12,1 Jun 2027 11:54:57.821,1 Jun 2027 11:56:13.411,75.590
13,1 Jun 2027 13:27:15.958,1 Jun 2027 13:31:55.400,279.442
14,1 Jun 2027 15:04:25.378,1 Jun 2027 15:06:54.607,149.229
15,1 Jun 2027 20:09:59.049,1 Jun 2027 20:12:35.527,156.478
16,1 Jun 2027 20:13:08.866,1 Jun 2027 20:14:46.199,97.334
17,1 Jun 2027 21:45:58.472,1 Jun 2027 21:52:39.095,400.623
18,1 Jun 2027 23:22:41.351,1 Jun 2027 23:29:03.198,381.847
19,2 Jun 2027 00:58:13.149,2 Jun 2027 01:05:45.256,452.107
20,2 Jun 2027 02:36:20.202,2 Jun 2027 02:36:48.330,28.128
21,2 Jun 2027 02:36:52.333,2 Jun 2027 02:42:30.393,338.060
22,2 Jun 2027 04:14:20.761,2 Jun 2027 04:19:13.612,292.851
23,2 Jun 2027 05:38:00.164,2 Jun 2027 05:40:38.958,158.794
24,2 Jun 2027 07:14:27.051,2 Jun 2027 07:18:01.568,214.517
25,2 Jun 2027 08:46:36.711,2 Jun 2027 08:46:46.216,9.505
26,2 Jun 2027 08:48:33.854,2 Jun 2027 08:55:21.462,407.608
27,2 Jun 2027 08:55:25.158,2 Jun 2027 08:56:25.731,60.573
28,2 Jun 2027 10:25:32.063,2 Jun 2027 10:32:16.317,404.253
29,2 Jun 2027 12:02:50.201,2 Jun 2027 12:06:57.069,246.868
30,2 Jun 2027 12:06:59.529,2 Jun 2027 12:07:34.890,35.361
31,2 Jun 2027 13:39:17.303,2 Jun 2027 13:44:23.872,306.569
32,2 Jun 2027 15:17:33.758,2 Jun 2027 15:18:17.401,43.643
33,2 Jun 2027 20:22:06.682,2 Jun 2027 20:24:24.155,137.473
34,2 Jun 2027 21:58:02.574,2 Jun 2027 22:04:32.332,389.758
35,2 Jun 2027 23:34:43.684,2 Jun 2027 23:41:14.185,390.501
36,3 Jun 2027 01:10:16.519,3 Jun 2027 01:17:47.142,450.622
37,3 Jun 2027 02:48:26.174,3 Jun 2027 02:49:29.507,63.333
38,3 Jun 2027 02:49:36.805,3 Jun 2027 02:54:43.082,306.277
39,3 Jun 2027 04:27:34.323,3 Jun 2027 04:31:07.550,213.227
40,3 Jun 2027 05:50:08.198,3 Jun 2027 05:53:10.423,182.225
41,3 Jun 2027 07:26:36.346,3 Jun 2027 07:30:15.216,218.871
42,3 Jun 2027 09:01:47.223,3 Jun 2027 09:08:27.563,400.340
43,3 Jun 2027 10:38:06.206,3 Jun 2027 10:44:22.881,376.675
44,3 Jun 2027 12:15:29.591,3 Jun 2027 12:20:01.270,271.679
45,3 Jun 2027 13:51:40.560,3 Jun 2027 13:55:53.991,253.432
46,3 Jun 2027 18:59:26.191,3 Jun 2027 18:59:28.639,2.448
47,3 Jun 2027 20:34:13.485,3 Jun 2027 20:37:16.990,183.505
48,3 Jun 2027 22:10:07.921,3 Jun 2027 22:15:49.495,341.574
49,3 Jun 2027 23:46:49.518,3 Jun 2027 23:52:59.256,369.739
50,4 Jun 2027 01:22:14.885,4 Jun 2027 01:29:17.307,422.422
51,4 Jun 2027 03:00:29.989,4 Jun 2027 03:01:11.398,41.409
52,4 Jun 2027 03:01:34.045,4 Jun 2027 03:06:38.160,304.115
53,4 Jun 2027 04:38:43.354,4 Jun 2027 04:39:19.736,36.383
54,4 Jun 2027 04:39:48.338,4 Jun 2027 04:42:14.337,145.999
55,4 Jun 2027 06:02:09.574,4 Jun 2027 06:05:18.922,189.348
56,4 Jun 2027 07:38:37.320,4 Jun 2027 07:42:03.270,205.950
57,4 Jun 2027 09:13:49.897,4 Jun 2027 09:20:27.850,397.953
58,4 Jun 2027 10:49:45.163,4 Jun 2027 10:56:03.406,378.243
59,4 Jun 2027 12:27:44.668,4 Jun 2027 12:32:08.760,264.092
60,4 Jun 2027 14:03:35.784,4 Jun 2027 14:07:49.196,253.411
61,4 Jun 2027 14:07:54.864,4 Jun 2027 14:08:45.264,50.400
62,4 Jun 2027 19:10:24.403,4 Jun 2027 19:11:41.843,77.440
63,4 Jun 2027 20:46:09.237,4 Jun 2027 20:49:18.433,189.196
64,4 Jun 2027 22:22:21.088,4 Jun 2027 22:27:47.072,325.984
65,4 Jun 2027 23:58:48.082,5 Jun 2027 00:05:37.671,409.588
66,5 Jun 2027 01:34:16.672,5 Jun 2027 01:41:20.640,423.968
67,5 Jun 2027 03:13:34.614,5 Jun 2027 03:18:57.144,322.530
68,5 Jun 2027 03:19:44.421,5 Jun 2027 03:21:21.757,97.336
69,5 Jun 2027 04:39:43.144,5 Jun 2027 04:40:10.965,27.821
70,5 Jun 2027 04:50:38.985,5 Jun 2027 04:54:06.846,207.861
71,5 Jun 2027 06:14:36.045,5 Jun 2027 06:17:32.192,176.148
72,5 Jun 2027 07:50:21.251,5 Jun 2027 07:54:39.493,258.242
73,5 Jun 2027 09:25:05.127,5 Jun 2027 09:32:37.913,452.786
74,5 Jun 2027 11:01:54.857,5 Jun 2027 11:08:13.997,379.140
75,5 Jun 2027 12:40:06.976,5 Jun 2027 12:44:03.212,236.236
76,5 Jun 2027 14:13:24.426,5 Jun 2027 14:14:56.970,92.544
77,5 Jun 2027 14:14:57.544,5 Jun 2027 14:19:45.895,288.351
78,5 Jun 2027 14:20:03.796,5 Jun 2027 14:21:07.839,64.043
79,5 Jun 2027 19:21:51.142,5 Jun 2027 19:24:12.240,141.098
80,5 Jun 2027 20:58:05.846,5 Jun 2027 21:01:29.459,203.613
81,5 Jun 2027 22:34:47.871,5 Jun 2027 22:40:56.533,368.662
82,6 Jun 2027 00:10:56.553,6 Jun 2027 00:17:38.294,401.741
83,6 Jun 2027 01:46:57.137,6 Jun 2027 01:53:19.802,382.665
84,6 Jun 2027 03:25:56.191,6 Jun 2027 03:33:15.361,439.169
85,6 Jun 2027 04:50:59.981,6 Jun 2027 04:52:25.705,85.724
86,6 Jun 2027 05:02:39.925,6 Jun 2027 05:04:03.985,84.060
87,6 Jun 2027 06:25:11.121,6 Jun 2027 06:26:12.337,61.216
88,6 Jun 2027 06:26:53.206,6 Jun 2027 06:29:58.623,185.418
89,6 Jun 2027 08:00:14.352,6 Jun 2027 08:01:33.657,79.305
90,6 Jun 2027 08:02:05.324,6 Jun 2027 08:06:58.554,293.230
91,6 Jun 2027 09:37:13.272,6 Jun 2027 09:44:37.949,444.678
92,6 Jun 2027 11:14:11.328,6 Jun 2027 11:20:04.278,352.949
93,6 Jun 2027 11:20:08.247,6 Jun 2027 11:20:19.828,11.581
94,6 Jun 2027 12:52:07.067,6 Jun 2027 12:56:05.917,238.850
95,6 Jun 2027 14:25:27.352,6 Jun 2027 14:31:42.044,374.692
96,6 Jun 2027 14:31:45.049,6 Jun 2027 14:33:13.107,88.058
97,6 Jun 2027 19:33:50.321,6 Jun 2027 19:36:28.264,157.943
98,6 Jun 2027 21:10:13.723,6 Jun 2027 21:13:36.316,202.593
99,6 Jun 2027 21:15:13.919,6 Jun 2027 21:17:09.853,115.934
100,6 Jun 2027 22:47:03.470,6 Jun 2027 22:53:02.763,359.293
101,7 Jun 2027 00:22:57.522,7 Jun 2027 00:29:41.390,403.869
102,7 Jun 2027 01:59:12.889,7 Jun 2027 02:05:09.234,356.345
103,7 Jun 2027 03:38:13.164,7 Jun 2027 03:45:13.522,420.358
104,7 Jun 2027 05:02:21.012,7 Jun 2027 05:04:37.361,136.348
105,7 Jun 2027 05:14:37.152,7 Jun 2027 05:15:32.086,54.933
106,7 Jun 2027 06:36:35.883,7 Jun 2027 06:38:00.259,84.376
107,7 Jun 2027 06:38:43.909,7 Jun 2027 06:42:13.078,209.169
108,7 Jun 2027 08:11:37.577,7 Jun 2027 08:19:17.986,460.409
109,7 Jun 2027 08:19:47.366,7 Jun 2027 08:20:18.255,30.889
110,7 Jun 2027 09:49:15.282,7 Jun 2027 09:56:41.713,446.431
111,7 Jun 2027 11:26:01.358,7 Jun 2027 11:32:08.271,366.914
112,7 Jun 2027 11:32:18.294,7 Jun 2027 11:32:42.541,24.247
113,7 Jun 2027 13:04:06.414,7 Jun 2027 13:08:15.318,248.904
114,7 Jun 2027 14:37:54.899,7 Jun 2027 14:44:41.415,406.516
115,7 Jun 2027 19:45:54.285,7 Jun 2027 19:48:39.961,165.677
116,7 Jun 2027 21:22:20.983,7 Jun 2027 21:26:12.107,231.124
117,7 Jun 2027 21:27:12.609,7 Jun 2027 21:30:15.981,183.371
118,7 Jun 2027 22:58:53.845,7 Jun 2027 23:05:18.350,384.506
119,8 Jun 2027 00:34:26.854,8 Jun 2027 00:42:11.607,464.753
120,8 Jun 2027 02:11:39.024,8 Jun 2027 02:11:45.228,6.204
121,8 Jun 2027 02:11:59.442,8 Jun 2027 02:12:27.114,27.672
122,8 Jun 2027 02:12:29.316,8 Jun 2027 02:17:29.669,300.353
123,8 Jun 2027 03:50:19.973,8 Jun 2027 03:56:21.901,361.928
124,8 Jun 2027 05:14:28.952,8 Jun 2027 05:16:23.548,114.596
125,8 Jun 2027 06:48:18.419,8 Jun 2027 06:54:17.809,359.390
126,8 Jun 2027 08:23:10.393,8 Jun 2027 08:31:26.267,495.874
127,8 Jun 2027 08:31:44.850,8 Jun 2027 08:32:45.019,60.169
128,8 Jun 2027 10:01:16.198,8 Jun 2027 10:08:43.456,447.258
129,8 Jun 2027 11:38:10.744,8 Jun 2027 11:43:17.781,307.036
130,8 Jun 2027 11:43:43.924,8 Jun 2027 11:44:38.036,54.111
131,8 Jun 2027 13:15:19.469,8 Jun 2027 13:20:13.741,294.272
132,8 Jun 2027 14:50:10.297,8 Jun 2027 14:51:17.826,67.529
133,8 Jun 2027 14:52:01.411,8 Jun 2027 14:55:23.328,201.917
134,8 Jun 2027 19:57:59.596,8 Jun 2027 20:02:49.331,289.735
135,8 Jun 2027 21:34:15.087,8 Jun 2027 21:39:03.291,288.205
136,8 Jun 2027 21:39:08.997,8 Jun 2027 21:41:03.326,114.328
137,8 Jun 2027 21:41:42.758,8 Jun 2027 21:42:32.316,49.558
138,8 Jun 2027 23:10:54.120,8 Jun 2027 23:17:28.328,394.208
139,9 Jun 2027 00:46:25.344,9 Jun 2027 00:54:09.675,464.331
140,9 Jun 2027 02:24:09.726,9 Jun 2027 02:24:16.982,7.256
141,9 Jun 2027 02:24:31.208,9 Jun 2027 02:25:32.283,61.075
142,9 Jun 2027 02:25:37.142,9 Jun 2027 02:29:49.924,252.782
143,9 Jun 2027 04:02:56.423,9 Jun 2027 04:07:37.576,281.154
144,9 Jun 2027 05:26:25.105,9 Jun 2027 05:28:44.420,139.314
145,9 Jun 2027 07:02:37.881,9 Jun 2027 07:06:09.553,211.672
146,9 Jun 2027 08:36:11.165,9 Jun 2027 08:43:42.143,450.978
147,9 Jun 2027 08:43:43.942,9 Jun 2027 08:44:45.047,61.105
148,9 Jun 2027 10:13:42.675,9 Jun 2027 10:20:28.377,405.702
149,9 Jun 2027 11:50:38.790,9 Jun 2027 11:55:08.200,269.409
150,9 Jun 2027 11:55:13.734,9 Jun 2027 11:56:29.879,76.145
151,9 Jun 2027 13:27:32.690,9 Jun 2027 13:32:08.734,276.044
152,9 Jun 2027 15:04:42.784,9 Jun 2027 15:07:10.244,147.460
153,9 Jun 2027 20:10:14.662,9 Jun 2027 20:12:51.960,157.298
154,9 Jun 2027 20:13:27.328,9 Jun 2027 20:15:00.062,92.733
155,9 Jun 2027 21:46:15.104,9 Jun 2027 21:52:55.057,399.953
156,9 Jun 2027 23:22:57.576,9 Jun 2027 23:29:20.056,382.479
157,10 Jun 2027 00:58:29.474,10 Jun 2027 01:06:01.928,452.454
158,10 Jun 2027 02:36:36.280,10 Jun 2027 02:37:03.714,27.435
159,10 Jun 2027 02:37:07.494,10 Jun 2027 02:42:44.165,336.672
160,10 Jun 2027 04:14:37.095,10 Jun 2027 04:19:29.415,292.320
161,10 Jun 2027 05:38:16.148,10 Jun 2027 05:40:55.234,159.085
162,10 Jun 2027 07:14:43.076,10 Jun 2027 07:18:18.587,215.511
163,10 Jun 2027 08:46:51.188,10 Jun 2027 08:47:02.235,11.047
164,10 Jun 2027 08:48:50.012,10 Jun 2027 08:55:38.005,407.993
165,10 Jun 2027 08:55:41.208,10 Jun 2027 08:56:39.793,58.584
166,10 Jun 2027 10:25:48.759,10 Jun 2027 10:32:33.046,404.287
167,10 Jun 2027 12:03:13.451,10 Jun 2027 12:07:14.127,240.675
168,10 Jun 2027 12:07:16.435,10 Jun 2027 12:07:55.182,38.747
169,10 Jun 2027 13:39:35.409,10 Jun 2027 13:44:40.061,304.653
170,10 Jun 2027 15:17:52.941,10 Jun 2027 15:18:30.972,38.031
171,10 Jun 2027 20:22:23.264,10 Jun 2027 20:24:40.199,136.935
172,10 Jun 2027 21:58:19.054,10 Jun 2027 22:04:47.962,388.908
173,10 Jun 2027 23:35:00.175,10 Jun 2027 23:41:30.520,390.345
174,11 Jun 2027 01:10:32.596,11 Jun 2027 01:18:01.677,449.081
175,11 Jun 2027 02:48:42.242,11 Jun 2027 02:49:45.112,62.869
176,11 Jun 2027 02:49:51.882,11 Jun 2027 02:54:58.676,306.794
177,11 Jun 2027 04:27:50.415,11 Jun 2027 04:31:22.210,211.794
178,11 Jun 2027 05:50:24.554,11 Jun 2027 05:53:27.586,183.033
179,11 Jun 2027 07:26:53.020,11 Jun 2027 07:30:31.459,218.439
180,11 Jun 2027 09:02:04.269,11 Jun 2027 09:08:41.981,397.712
181,11 Jun 2027 10:38:23.008,11 Jun 2027 10:44:39.349,376.341
182,11 Jun 2027 12:15:45.908,11 Jun 2027 12:20:18.208,272.300
183,11 Jun 2027 13:51:55.921,11 Jun 2027 13:56:31.614,275.693
184,11 Jun 2027 18:59:40.584,11 Jun 2027 18:59:47.556,6.972
185,11 Jun 2027 20:34:30.479,11 Jun 2027 20:37:36.591,186.113
186,11 Jun 2027 22:10:24.644,11 Jun 2027 22:16:05.760,341.116
187,11 Jun 2027 23:47:05.869,11 Jun 2027 23:53:15.233,369.364
188,12 Jun 2027 01:22:30.865,12 Jun 2027 01:29:32.805,421.940
189,12 Jun 2027 03:00:46.635,12 Jun 2027 03:01:28.118,41.483
190,12 Jun 2027 03:01:50.204,12 Jun 2027 03:06:54.113,303.909
191,12 Jun 2027 04:38:59.386,12 Jun 2027 04:39:35.776,36.390
192,12 Jun 2027 04:40:04.383,12 Jun 2027 04:42:30.524,146.141
193,12 Jun 2027 06:03:07.025,12 Jun 2027 06:05:35.493,148.468
194,12 Jun 2027 07:38:52.174,12 Jun 2027 07:42:23.000,210.826
195,12 Jun 2027 09:14:05.280,12 Jun 2027 09:20:46.594,401.314
196,12 Jun 2027 10:50:01.804,12 Jun 2027 10:56:20.840,379.037
197,12 Jun 2027 12:27:59.576,12 Jun 2027 12:32:24.909,265.333
198,12 Jun 2027 14:03:50.982,12 Jun 2027 14:08:05.240,254.258
199,12 Jun 2027 14:08:11.186,12 Jun 2027 14:09:02.876,51.689
200,12 Jun 2027 19:10:38.403,12 Jun 2027 19:11:59.349,80.945
201,12 Jun 2027 20:46:24.843,12 Jun 2027 20:49:32.771,187.927
202,12 Jun 2027 22:22:56.473,12 Jun 2027 22:28:04.351,307.877
203,12 Jun 2027 23:59:04.550,13 Jun 2027 00:05:53.757,409.207
204,13 Jun 2027 01:34:33.221,13 Jun 2027 01:41:40.969,427.748
205,13 Jun 2027 03:13:51.167,13 Jun 2027 03:19:28.501,337.334
206,13 Jun 2027 03:20:00.782,13 Jun 2027 03:21:38.191,97.409
207,13 Jun 2027 04:39:57.188,13 Jun 2027 04:40:27.628,30.441
208,13 Jun 2027 04:50:55.049,13 Jun 2027 04:54:21.707,206.657
209,13 Jun 2027 06:14:13.918,13 Jun 2027 06:17:49.275,215.357
210,13 Jun 2027 07:50:36.737,13 Jun 2027 07:54:58.811,262.075
211,13 Jun 2027 09:25:21.797,13 Jun 2027 09:32:54.484,452.686
212,13 Jun 2027 11:02:11.144,13 Jun 2027 11:08:30.567,379.424
213,13 Jun 2027 12:40:22.103,13 Jun 2027 12:44:19.511,237.408
214,13 Jun 2027 14:13:39.637,13 Jun 2027 14:15:23.040,103.403
215,13 Jun 2027 14:15:27.725,13 Jun 2027 14:20:03.713,275.988
216,13 Jun 2027 14:20:20.628,13 Jun 2027 14:21:25.796,65.168
217,13 Jun 2027 19:22:07.138,13 Jun 2027 19:24:30.120,142.982
218,13 Jun 2027 20:58:22.248,13 Jun 2027 21:01:45.939,203.691
219,13 Jun 2027 22:35:04.961,13 Jun 2027 22:41:15.107,370.146
