dataset/area_work/orbit_17/ZorkySat_111706.csv

Acces,Start Time (UTCG),Stop Time (UTCG),Duration (sec)
1,1 Jun 2027 03:00:00.000,1 Jun 2027 03:05:51.891,351.891
2,1 Jun 2027 04:38:26.544,1 Jun 2027 04:45:46.806,440.262
3,1 Jun 2027 06:03:34.736,1 Jun 2027 06:04:55.525,80.789
4,1 Jun 2027 06:15:10.725,1 Jun 2027 06:16:36.276,85.551
5,1 Jun 2027 07:37:45.514,1 Jun 2027 07:38:44.445,58.931
6,1 Jun 2027 07:39:23.674,1 Jun 2027 07:42:28.235,184.562
7,1 Jun 2027 09:12:51.146,1 Jun 2027 09:14:09.327,78.181
8,1 Jun 2027 09:14:37.729,1 Jun 2027 09:19:27.552,289.822
9,1 Jun 2027 10:49:43.189,1 Jun 2027 10:57:08.609,445.420
10,2 Jun 2027 03:11:43.854,2 Jun 2027 03:13:07.424,83.570
11,2 Jun 2027 03:13:09.720,2 Jun 2027 03:17:39.988,270.269
12,2 Jun 2027 04:50:43.094,2 Jun 2027 04:57:44.086,420.992
13,2 Jun 2027 06:14:54.680,2 Jun 2027 06:17:06.443,131.763
14,2 Jun 2027 06:27:08.166,2 Jun 2027 06:28:03.538,55.372
15,2 Jun 2027 07:49:20.998,2 Jun 2027 07:50:30.223,69.225
16,2 Jun 2027 07:51:18.333,2 Jun 2027 07:54:42.565,204.232
17,2 Jun 2027 09:24:14.385,2 Jun 2027 09:26:24.129,129.744
18,2 Jun 2027 09:26:25.850,2 Jun 2027 09:31:47.928,322.078
19,2 Jun 2027 09:32:20.019,2 Jun 2027 09:32:47.584,27.566
20,2 Jun 2027 11:01:49.877,2 Jun 2027 11:09:12.355,442.478
21,3 Jun 2027 03:24:03.099,3 Jun 2027 03:24:16.280,13.181
22,3 Jun 2027 03:24:30.472,3 Jun 2027 03:29:59.990,329.518
23,3 Jun 2027 05:02:49.794,3 Jun 2027 05:08:51.814,362.020
24,3 Jun 2027 06:27:00.460,3 Jun 2027 06:28:54.983,114.523
25,3 Jun 2027 06:39:33.212,3 Jun 2027 06:39:34.842,1.630
26,3 Jun 2027 08:00:50.594,3 Jun 2027 08:06:54.496,363.902
27,3 Jun 2027 09:35:45.053,3 Jun 2027 09:43:56.839,491.786
28,3 Jun 2027 09:44:17.240,3 Jun 2027 09:45:15.370,58.130
29,3 Jun 2027 11:13:46.339,3 Jun 2027 11:21:14.269,447.930
30,4 Jun 2027 03:36:40.894,4 Jun 2027 03:36:48.182,7.288
31,4 Jun 2027 03:37:02.356,4 Jun 2027 03:38:03.659,61.304
32,4 Jun 2027 03:38:08.501,4 Jun 2027 03:42:17.687,249.186
33,4 Jun 2027 05:15:27.214,4 Jun 2027 05:20:08.286,281.072
34,4 Jun 2027 06:38:57.326,4 Jun 2027 06:41:14.706,137.381
35,4 Jun 2027 08:15:09.151,4 Jun 2027 08:18:40.113,210.962
36,4 Jun 2027 09:48:42.512,4 Jun 2027 09:57:17.025,514.513
37,4 Jun 2027 11:26:08.704,4 Jun 2027 11:33:11.472,422.768
38,5 Jun 2027 03:49:07.578,5 Jun 2027 03:49:35.183,27.606
39,5 Jun 2027 03:49:38.972,5 Jun 2027 03:55:17.891,338.919
40,5 Jun 2027 05:27:08.405,5 Jun 2027 05:32:01.284,292.879
41,5 Jun 2027 06:50:48.358,5 Jun 2027 06:53:26.435,158.077
42,5 Jun 2027 08:27:15.963,5 Jun 2027 08:30:47.856,211.893
43,5 Jun 2027 09:59:26.067,5 Jun 2027 09:59:33.997,7.930
44,5 Jun 2027 10:01:21.492,5 Jun 2027 10:08:11.093,409.601
45,5 Jun 2027 10:08:13.263,5 Jun 2027 10:09:14.811,61.548
46,5 Jun 2027 11:38:19.304,5 Jun 2027 11:45:03.639,404.335
47,6 Jun 2027 04:01:13.653,6 Jun 2027 04:02:16.772,63.120
48,6 Jun 2027 04:02:23.795,6 Jun 2027 04:07:30.780,306.985
49,6 Jun 2027 05:40:21.972,6 Jun 2027 05:43:55.232,213.261
50,6 Jun 2027 07:02:55.670,6 Jun 2027 07:05:56.972,181.303
51,6 Jun 2027 08:39:23.876,6 Jun 2027 08:43:02.672,218.796
52,6 Jun 2027 10:14:34.015,6 Jun 2027 10:21:16.040,402.025
53,6 Jun 2027 11:50:53.758,6 Jun 2027 11:57:10.553,376.795
54,7 Jun 2027 04:13:18.180,7 Jun 2027 04:13:59.622,41.442
55,7 Jun 2027 04:14:21.774,7 Jun 2027 04:19:26.031,304.257
56,7 Jun 2027 05:51:31.009,7 Jun 2027 05:52:07.445,36.436
57,7 Jun 2027 05:52:36.069,7 Jun 2027 05:55:02.195,146.125
58,7 Jun 2027 07:14:57.891,7 Jun 2027 07:18:06.521,188.630
59,7 Jun 2027 08:51:26.249,7 Jun 2027 08:54:52.024,205.775
60,7 Jun 2027 10:26:38.685,7 Jun 2027 10:33:14.860,396.175
61,8 Jun 2027 04:26:22.774,8 Jun 2027 04:31:58.997,336.223
62,8 Jun 2027 04:32:32.371,8 Jun 2027 04:34:09.765,97.393
63,8 Jun 2027 05:52:33.693,8 Jun 2027 05:52:58.175,24.482
64,8 Jun 2027 06:03:26.759,8 Jun 2027 06:06:54.169,207.410
65,8 Jun 2027 07:27:24.802,8 Jun 2027 07:30:13.728,168.926
66,8 Jun 2027 09:03:09.509,8 Jun 2027 09:07:26.001,256.493
67,8 Jun 2027 10:37:53.218,8 Jun 2027 10:45:25.523,452.306
68,9 Jun 2027 03:00:00.000,9 Jun 2027 03:06:09.242,369.242
69,9 Jun 2027 04:38:45.039,9 Jun 2027 04:46:03.494,438.456
70,9 Jun 2027 06:03:48.479,9 Jun 2027 06:05:13.417,84.939
71,9 Jun 2027 06:15:28.007,9 Jun 2027 06:16:48.067,80.060
72,9 Jun 2027 07:38:00.392,9 Jun 2027 07:39:00.988,60.596
73,9 Jun 2027 07:39:41.372,9 Jun 2027 07:42:46.018,184.647
74,9 Jun 2027 09:13:03.540,9 Jun 2027 09:14:21.825,78.285
75,9 Jun 2027 09:14:54.103,9 Jun 2027 09:19:46.182,292.080
76,9 Jun 2027 10:50:01.701,9 Jun 2027 10:57:26.244,444.542
77,10 Jun 2027 03:12:01.684,10 Jun 2027 03:17:57.666,355.982
78,10 Jun 2027 04:51:04.702,10 Jun 2027 04:58:01.772,417.070
79,10 Jun 2027 06:15:09.747,10 Jun 2027 06:17:24.665,134.918
80,10 Jun 2027 06:27:25.351,10 Jun 2027 06:28:19.432,54.081
81,10 Jun 2027 07:49:24.640,10 Jun 2027 07:50:48.387,83.747
82,10 Jun 2027 07:51:33.180,10 Jun 2027 07:55:00.885,207.705
83,10 Jun 2027 09:24:28.109,10 Jun 2027 09:32:05.608,457.499
84,10 Jun 2027 09:32:36.528,10 Jun 2027 09:33:05.539,29.011
85,10 Jun 2027 11:02:04.151,10 Jun 2027 11:09:30.104,445.953
86,11 Jun 2027 03:24:20.817,11 Jun 2027 03:24:33.433,12.616
87,11 Jun 2027 03:24:48.250,11 Jun 2027 03:30:18.163,329.912
88,11 Jun 2027 05:03:09.199,11 Jun 2027 05:09:10.589,361.391
89,11 Jun 2027 06:27:17.354,11 Jun 2027 06:29:11.847,114.492
90,11 Jun 2027 08:01:06.830,11 Jun 2027 08:07:10.976,364.146
91,11 Jun 2027 09:35:59.081,11 Jun 2027 09:44:14.102,495.021
92,11 Jun 2027 09:44:33.754,11 Jun 2027 09:45:32.556,58.802
93,11 Jun 2027 11:14:04.725,11 Jun 2027 11:21:31.865,447.140
94,12 Jun 2027 03:36:58.677,12 Jun 2027 03:37:01.876,3.199
95,12 Jun 2027 03:37:20.316,12 Jun 2027 03:38:20.206,59.890
96,12 Jun 2027 03:38:25.265,12 Jun 2027 03:42:38.870,253.605
97,12 Jun 2027 05:15:45.826,12 Jun 2027 05:20:26.718,280.892
98,12 Jun 2027 06:39:14.128,12 Jun 2027 06:41:32.324,138.195
99,12 Jun 2027 08:15:26.258,12 Jun 2027 08:18:55.913,209.655
100,12 Jun 2027 09:48:59.635,12 Jun 2027 09:56:29.591,449.956
101,12 Jun 2027 09:56:33.508,12 Jun 2027 09:57:34.040,60.532
102,12 Jun 2027 11:26:30.279,12 Jun 2027 11:33:18.676,408.397
103,13 Jun 2027 03:49:23.358,13 Jun 2027 03:49:51.348,27.990
104,13 Jun 2027 03:49:55.353,13 Jun 2027 03:55:33.473,338.120
105,13 Jun 2027 05:27:25.653,13 Jun 2027 05:32:17.145,291.492
106,13 Jun 2027 06:51:04.914,13 Jun 2027 06:53:43.920,159.006
107,13 Jun 2027 08:27:31.774,13 Jun 2027 08:31:06.467,214.693
108,13 Jun 2027 09:59:40.098,13 Jun 2027 09:59:50.993,10.895
109,13 Jun 2027 10:01:38.759,13 Jun 2027 10:08:26.680,407.921
110,13 Jun 2027 10:08:30.223,13 Jun 2027 10:09:31.313,61.090
111,13 Jun 2027 11:38:37.750,13 Jun 2027 11:45:21.227,403.477
