dataset/area_work/orbit_17/ZorkySat_111709.csv

Acces,Start Time (UTCG),Stop Time (UTCG),Duration (sec)
1,1 Jun 2027 04:08:14.426,1 Jun 2027 04:09:15.652,61.226
2,1 Jun 2027 04:09:22.339,1 Jun 2027 04:14:26.616,304.278
3,1 Jun 2027 05:46:31.810,1 Jun 2027 05:47:06.283,34.472
4,1 Jun 2027 05:47:20.512,1 Jun 2027 05:50:20.719,180.207
5,1 Jun 2027 07:09:54.516,1 Jun 2027 07:13:03.490,188.974
6,1 Jun 2027 08:46:27.833,1 Jun 2027 08:49:58.849,211.016
7,1 Jun 2027 10:21:37.955,1 Jun 2027 10:28:14.037,396.082
8,1 Jun 2027 11:57:59.303,1 Jun 2027 12:00:00.000,120.697
9,2 Jun 2027 04:21:21.099,2 Jun 2027 04:26:26.848,305.749
10,2 Jun 2027 04:27:45.589,2 Jun 2027 04:29:17.737,92.147
11,2 Jun 2027 05:58:28.754,2 Jun 2027 05:59:09.208,40.453
12,2 Jun 2027 05:59:26.758,2 Jun 2027 06:02:04.582,157.824
13,2 Jun 2027 07:21:56.340,2 Jun 2027 07:25:08.397,192.057
14,2 Jun 2027 08:58:18.943,2 Jun 2027 09:02:23.352,244.409
15,2 Jun 2027 10:33:12.121,2 Jun 2027 10:40:22.394,430.274
16,3 Jun 2027 03:00:00.000,3 Jun 2027 03:01:08.672,68.672
17,3 Jun 2027 04:33:25.217,3 Jun 2027 04:39:03.925,338.707
18,3 Jun 2027 04:39:12.171,3 Jun 2027 04:41:02.937,110.765
19,3 Jun 2027 05:59:10.253,3 Jun 2027 06:00:07.817,57.564
20,3 Jun 2027 06:10:25.479,3 Jun 2027 06:12:06.026,100.547
21,3 Jun 2027 07:33:01.676,3 Jun 2027 07:37:41.515,279.840
22,3 Jun 2027 09:08:36.613,3 Jun 2027 09:09:23.246,46.634
23,3 Jun 2027 09:10:03.096,3 Jun 2027 09:14:38.537,275.441
24,3 Jun 2027 10:44:50.028,3 Jun 2027 10:52:25.541,455.512
25,4 Jun 2027 03:06:50.519,4 Jun 2027 03:12:55.355,364.836
26,4 Jun 2027 04:45:55.291,4 Jun 2027 04:53:03.027,427.736
27,4 Jun 2027 06:10:45.416,4 Jun 2027 06:12:19.433,94.017
28,4 Jun 2027 06:22:26.479,4 Jun 2027 06:23:27.494,61.015
29,4 Jun 2027 07:44:44.421,4 Jun 2027 07:45:50.705,66.284
30,4 Jun 2027 07:46:41.388,4 Jun 2027 07:49:55.017,193.629
31,4 Jun 2027 09:19:43.077,4 Jun 2027 09:21:36.509,113.431
32,4 Jun 2027 09:21:46.650,4 Jun 2027 09:26:51.286,304.636
33,4 Jun 2027 09:27:41.429,4 Jun 2027 09:28:02.365,20.936
34,4 Jun 2027 10:57:10.255,4 Jun 2027 11:04:28.295,438.040
35,5 Jun 2027 03:19:10.623,5 Jun 2027 03:19:37.289,26.666
36,5 Jun 2027 03:19:42.604,5 Jun 2027 03:20:16.553,33.949
37,5 Jun 2027 03:20:20.423,5 Jun 2027 03:21:15.712,55.289
38,5 Jun 2027 03:21:16.579,5 Jun 2027 03:25:10.707,234.128
39,5 Jun 2027 04:57:57.485,5 Jun 2027 05:04:56.990,419.506
40,5 Jun 2027 06:22:18.153,5 Jun 2027 06:24:26.973,128.820
41,5 Jun 2027 06:34:34.208,5 Jun 2027 06:35:01.867,27.658
42,5 Jun 2027 07:56:21.973,5 Jun 2027 07:57:37.857,75.884
43,5 Jun 2027 07:58:26.916,5 Jun 2027 08:02:06.595,219.679
44,5 Jun 2027 09:31:10.933,5 Jun 2027 09:39:12.336,481.402
45,5 Jun 2027 09:39:34.145,5 Jun 2027 09:40:16.111,41.966
46,5 Jun 2027 11:09:04.187,5 Jun 2027 11:16:29.518,445.331
47,6 Jun 2027 03:31:53.505,6 Jun 2027 03:32:08.418,14.913
48,6 Jun 2027 03:32:17.331,6 Jun 2027 03:33:29.217,71.886
49,6 Jun 2027 03:33:58.385,6 Jun 2027 03:37:29.055,210.670
50,6 Jun 2027 05:10:22.964,6 Jun 2027 05:15:29.478,306.514
51,6 Jun 2027 06:34:15.158,6 Jun 2027 06:36:32.231,137.074
52,6 Jun 2027 08:10:14.276,6 Jun 2027 08:14:09.076,234.800
53,6 Jun 2027 09:44:02.703,6 Jun 2027 09:51:21.260,438.557
54,6 Jun 2027 09:51:33.667,6 Jun 2027 09:52:33.893,60.226
55,6 Jun 2027 11:21:11.555,6 Jun 2027 11:28:30.072,438.517
56,7 Jun 2027 03:44:37.526,7 Jun 2027 03:44:56.674,19.149
57,7 Jun 2027 03:45:10.405,7 Jun 2027 03:46:05.648,55.243
58,7 Jun 2027 03:46:05.921,7 Jun 2027 03:50:39.177,273.256
59,7 Jun 2027 05:22:45.107,7 Jun 2027 05:27:25.360,280.253
60,7 Jun 2027 06:46:08.417,7 Jun 2027 06:48:38.866,150.449
61,7 Jun 2027 08:22:31.175,7 Jun 2027 08:25:59.886,208.711
62,7 Jun 2027 09:56:26.241,7 Jun 2027 10:03:31.115,424.874
63,7 Jun 2027 10:03:32.246,7 Jun 2027 10:04:33.360,61.114
64,7 Jun 2027 11:33:37.449,7 Jun 2027 11:40:18.776,401.327
65,8 Jun 2027 03:56:41.340,8 Jun 2027 03:57:37.478,56.138
66,8 Jun 2027 03:57:43.183,8 Jun 2027 04:02:39.476,296.293
67,8 Jun 2027 05:35:07.545,8 Jun 2027 05:39:07.305,239.760
68,8 Jun 2027 06:57:59.782,8 Jun 2027 07:00:44.841,165.059
69,8 Jun 2027 08:34:34.550,8 Jun 2027 08:38:08.304,213.754
70,8 Jun 2027 10:09:43.424,8 Jun 2027 10:15:27.512,344.089
71,8 Jun 2027 10:15:30.787,8 Jun 2027 10:16:29.896,59.109
72,8 Jun 2027 11:46:03.456,8 Jun 2027 11:52:25.182,381.726
73,9 Jun 2027 04:08:31.996,9 Jun 2027 04:09:30.816,58.820
74,9 Jun 2027 04:09:39.310,9 Jun 2027 04:14:43.771,304.461
75,9 Jun 2027 05:46:48.808,9 Jun 2027 05:50:34.872,226.063
76,9 Jun 2027 07:10:10.555,9 Jun 2027 07:13:21.229,190.674
77,9 Jun 2027 08:46:45.467,9 Jun 2027 08:50:14.809,209.341
78,9 Jun 2027 10:21:55.481,9 Jun 2027 10:28:31.275,395.794
79,9 Jun 2027 11:58:16.403,9 Jun 2027 12:00:00.000,103.597
80,10 Jun 2027 04:21:38.348,10 Jun 2027 04:26:46.527,308.178
81,10 Jun 2027 04:28:00.524,10 Jun 2027 04:29:32.012,91.488
82,10 Jun 2027 05:58:45.241,10 Jun 2027 05:59:26.695,41.455
83,10 Jun 2027 05:59:34.863,10 Jun 2027 06:02:20.535,165.671
84,10 Jun 2027 07:22:42.225,10 Jun 2027 07:25:25.766,163.540
85,10 Jun 2027 08:58:33.757,10 Jun 2027 09:02:41.632,247.875
86,10 Jun 2027 10:33:26.220,10 Jun 2027 10:40:40.277,434.057
87,11 Jun 2027 03:00:00.000,11 Jun 2027 03:01:25.412,85.412
88,11 Jun 2027 04:33:43.242,11 Jun 2027 04:41:20.411,457.169
89,11 Jun 2027 05:59:23.835,11 Jun 2027 06:00:28.127,64.292
90,11 Jun 2027 06:10:42.820,11 Jun 2027 06:12:22.396,99.576
91,11 Jun 2027 07:33:18.089,11 Jun 2027 07:34:22.393,64.304
92,11 Jun 2027 07:34:53.311,11 Jun 2027 07:37:59.800,186.489
93,11 Jun 2027 09:08:49.642,11 Jun 2027 09:09:40.514,50.873
94,11 Jun 2027 09:10:18.712,11 Jun 2027 09:14:55.870,277.158
95,11 Jun 2027 10:45:09.315,11 Jun 2027 10:52:41.343,452.028
96,12 Jun 2027 03:07:08.125,12 Jun 2027 03:13:13.727,365.601
97,12 Jun 2027 04:46:12.734,12 Jun 2027 04:53:20.486,427.752
98,12 Jun 2027 06:11:02.240,12 Jun 2027 06:12:36.766,94.526
99,12 Jun 2027 06:22:42.410,12 Jun 2027 06:23:43.490,61.080
100,12 Jun 2027 07:45:01.115,12 Jun 2027 07:46:07.152,66.036
101,12 Jun 2027 07:46:57.338,12 Jun 2027 07:50:13.073,195.735
102,12 Jun 2027 09:19:57.824,12 Jun 2027 09:21:54.286,116.462
103,12 Jun 2027 09:22:02.984,12 Jun 2027 09:27:19.155,316.171
104,12 Jun 2027 09:27:58.013,12 Jun 2027 09:28:20.138,22.125
105,12 Jun 2027 10:57:27.398,12 Jun 2027 11:04:45.827,438.429
106,13 Jun 2027 03:19:28.625,13 Jun 2027 03:19:54.696,26.072
107,13 Jun 2027 03:20:01.588,13 Jun 2027 03:20:33.235,31.647
108,13 Jun 2027 03:20:37.316,13 Jun 2027 03:21:30.615,53.299
109,13 Jun 2027 03:21:33.308,13 Jun 2027 03:25:29.437,236.128
110,13 Jun 2027 04:58:15.915,13 Jun 2027 05:05:13.082,417.167
111,13 Jun 2027 06:22:35.794,13 Jun 2027 06:24:41.957,126.163
112,13 Jun 2027 06:34:51.533,13 Jun 2027 06:35:17.675,26.142
113,13 Jun 2027 07:56:33.165,13 Jun 2027 07:57:53.132,79.967
114,13 Jun 2027 07:58:27.807,13 Jun 2027 08:02:26.186,238.379
115,13 Jun 2027 09:31:26.720,13 Jun 2027 09:39:30.228,483.508
116,13 Jun 2027 09:39:51.086,13 Jun 2027 09:40:48.290,57.204
117,13 Jun 2027 11:09:21.388,13 Jun 2027 11:16:46.395,445.007
