dataset/area_timing/orbit_17/Russia-To-KinoSat_111710.csv

Acces,Start Time (UTCG),Stop Time (UTCG),Duration (sec)
1,1 Jun 2027 00:44:57.070,1 Jun 2027 00:51:25.521,388.451
2,1 Jun 2027 02:20:30.218,1 Jun 2027 02:28:01.804,451.586
3,1 Jun 2027 03:58:44.183,1 Jun 2027 03:59:45.480,61.298
4,1 Jun 2027 03:59:51.106,1 Jun 2027 04:04:54.608,303.502
5,1 Jun 2027 05:37:46.109,1 Jun 2027 05:41:15.764,209.655
6,1 Jun 2027 07:00:18.465,1 Jun 2027 07:02:56.804,158.339
7,1 Jun 2027 08:36:43.871,1 Jun 2027 08:40:16.300,212.429
8,1 Jun 2027 10:11:52.169,1 Jun 2027 10:17:37.254,345.085
9,1 Jun 2027 10:17:38.243,1 Jun 2027 10:18:39.757,61.513
10,1 Jun 2027 11:48:13.408,1 Jun 2027 11:54:34.644,381.236
11,1 Jun 2027 13:25:46.165,1 Jun 2027 13:30:08.935,262.771
12,1 Jun 2027 15:01:50.155,1 Jun 2027 15:06:02.196,252.041
13,1 Jun 2027 21:44:24.668,1 Jun 2027 21:47:28.805,184.137
14,1 Jun 2027 23:20:20.022,1 Jun 2027 23:26:11.653,351.631
15,2 Jun 2027 00:57:02.230,2 Jun 2027 01:03:12.651,370.421
16,2 Jun 2027 02:32:28.451,2 Jun 2027 02:39:36.773,428.322
17,2 Jun 2027 04:10:41.753,2 Jun 2027 04:11:30.233,48.480
18,2 Jun 2027 04:11:48.311,2 Jun 2027 04:16:49.299,300.988
19,2 Jun 2027 05:48:55.758,2 Jun 2027 05:49:57.548,61.790
20,2 Jun 2027 05:50:03.563,2 Jun 2027 05:52:41.065,157.503
21,2 Jun 2027 07:12:16.879,2 Jun 2027 07:15:31.002,194.123
22,2 Jun 2027 08:48:53.917,2 Jun 2027 08:52:21.086,207.168
23,2 Jun 2027 10:24:03.853,2 Jun 2027 10:30:39.971,396.118
24,2 Jun 2027 12:00:21.235,2 Jun 2027 12:06:08.158,346.923
25,2 Jun 2027 12:06:11.116,2 Jun 2027 12:06:28.386,17.270
26,2 Jun 2027 13:37:52.482,2 Jun 2027 13:42:23.460,270.979
27,2 Jun 2027 15:13:53.271,2 Jun 2027 15:18:04.945,251.675
28,2 Jun 2027 15:18:09.575,2 Jun 2027 15:18:47.481,37.906
29,2 Jun 2027 20:20:47.986,2 Jun 2027 20:21:14.402,26.416
30,2 Jun 2027 21:56:31.994,2 Jun 2027 21:59:30.262,178.268
31,2 Jun 2027 23:32:31.824,2 Jun 2027 23:37:58.540,326.716
32,3 Jun 2027 01:09:00.691,3 Jun 2027 01:15:14.225,373.534
33,3 Jun 2027 02:44:29.559,3 Jun 2027 02:51:26.978,417.419
34,3 Jun 2027 04:23:47.237,3 Jun 2027 04:29:01.335,314.098
35,3 Jun 2027 04:30:03.856,3 Jun 2027 04:31:37.727,93.872
36,3 Jun 2027 05:50:08.865,3 Jun 2027 05:50:15.681,6.816
37,3 Jun 2027 06:00:53.190,3 Jun 2027 06:01:35.281,42.091
38,3 Jun 2027 06:01:40.899,3 Jun 2027 06:04:29.640,168.741
39,3 Jun 2027 07:24:53.208,3 Jun 2027 07:27:35.323,162.114
40,3 Jun 2027 09:00:37.962,3 Jun 2027 09:04:51.027,253.065
41,3 Jun 2027 10:35:29.988,3 Jun 2027 10:42:49.240,439.252
42,3 Jun 2027 12:12:04.680,3 Jun 2027 12:18:28.069,383.389
43,3 Jun 2027 13:50:22.275,3 Jun 2027 13:54:16.640,234.365
44,3 Jun 2027 15:24:22.645,3 Jun 2027 15:25:08.655,46.011
45,3 Jun 2027 15:25:42.580,3 Jun 2027 15:29:52.035,249.454
46,3 Jun 2027 15:30:11.775,3 Jun 2027 15:31:10.766,58.991
47,3 Jun 2027 20:32:06.004,3 Jun 2027 20:34:15.334,129.331
48,3 Jun 2027 22:08:19.202,3 Jun 2027 22:11:42.089,202.887
49,3 Jun 2027 23:44:56.398,3 Jun 2027 23:50:53.659,357.261
50,4 Jun 2027 01:21:08.649,4 Jun 2027 01:27:53.755,405.107
51,4 Jun 2027 02:57:10.259,4 Jun 2027 03:03:37.172,386.914
52,4 Jun 2027 04:36:07.860,4 Jun 2027 04:43:32.212,444.352
53,4 Jun 2027 06:01:26.103,4 Jun 2027 06:02:38.006,71.903
54,4 Jun 2027 06:12:51.681,4 Jun 2027 06:14:19.984,88.303
55,4 Jun 2027 07:35:31.107,4 Jun 2027 07:36:30.001,58.894
56,4 Jun 2027 07:37:06.609,4 Jun 2027 07:40:09.675,183.066
57,4 Jun 2027 09:10:52.228,4 Jun 2027 09:11:48.916,56.689
58,4 Jun 2027 09:12:23.461,4 Jun 2027 09:17:06.508,283.046
59,4 Jun 2027 10:47:20.039,4 Jun 2027 10:54:50.361,450.322
60,4 Jun 2027 12:24:26.382,4 Jun 2027 12:30:28.172,361.790
61,4 Jun 2027 14:02:20.152,4 Jun 2027 14:06:18.115,237.963
62,4 Jun 2027 15:35:27.750,4 Jun 2027 15:41:50.052,382.302
63,4 Jun 2027 15:42:14.536,4 Jun 2027 15:43:26.948,72.413
64,4 Jun 2027 20:44:04.098,4 Jun 2027 20:46:44.964,160.866
65,4 Jun 2027 22:20:25.087,4 Jun 2027 22:23:48.757,203.670
66,4 Jun 2027 22:25:44.145,4 Jun 2027 22:26:57.792,73.647
67,4 Jun 2027 23:56:58.605,5 Jun 2027 00:03:12.743,374.138
68,5 Jun 2027 01:33:14.281,5 Jun 2027 01:39:50.038,395.757
69,5 Jun 2027 03:09:17.990,5 Jun 2027 03:15:24.085,366.095
70,5 Jun 2027 04:48:22.661,5 Jun 2027 04:55:27.716,425.055
71,5 Jun 2027 06:12:39.722,5 Jun 2027 06:14:47.361,127.638
72,5 Jun 2027 06:24:51.015,5 Jun 2027 06:25:49.072,58.057
73,5 Jun 2027 07:47:07.601,5 Jun 2027 07:48:14.362,66.761
74,5 Jun 2027 07:49:02.945,5 Jun 2027 07:52:23.598,200.653
75,5 Jun 2027 09:22:01.345,5 Jun 2027 09:24:03.687,122.342
76,5 Jun 2027 09:24:10.160,5 Jun 2027 09:29:19.922,309.763
77,5 Jun 2027 09:30:05.305,5 Jun 2027 09:30:29.804,24.499
78,5 Jun 2027 10:59:34.795,5 Jun 2027 11:06:54.795,439.999
79,5 Jun 2027 12:36:17.309,5 Jun 2027 12:42:33.025,375.716
80,5 Jun 2027 12:42:36.887,5 Jun 2027 12:42:54.033,17.146
81,5 Jun 2027 14:14:20.385,5 Jun 2027 14:18:30.132,249.746
82,5 Jun 2027 15:47:57.299,5 Jun 2027 15:55:21.433,444.134
83,5 Jun 2027 20:56:06.741,5 Jun 2027 20:59:00.818,174.077
84,5 Jun 2027 22:32:37.383,5 Jun 2027 22:36:11.912,214.530
85,5 Jun 2027 22:37:20.385,5 Jun 2027 22:40:20.865,180.480
86,6 Jun 2027 00:09:09.450,6 Jun 2027 00:15:28.986,379.535
87,6 Jun 2027 01:44:41.480,6 Jun 2027 01:45:26.467,44.987
88,6 Jun 2027 01:45:32.064,6 Jun 2027 01:52:18.920,406.855
89,6 Jun 2027 03:21:45.119,6 Jun 2027 03:22:02.545,17.427
90,6 Jun 2027 03:22:10.791,6 Jun 2027 03:22:40.246,29.456
91,6 Jun 2027 03:22:45.057,6 Jun 2027 03:23:39.082,54.025
92,6 Jun 2027 03:23:41.293,6 Jun 2027 03:27:40.225,238.932
93,6 Jun 2027 05:00:27.888,6 Jun 2027 05:07:20.092,412.205
94,6 Jun 2027 06:24:44.731,6 Jun 2027 06:26:38.666,113.935
95,6 Jun 2027 06:37:07.119,6 Jun 2027 06:37:23.400,16.282
96,6 Jun 2027 07:58:37.190,6 Jun 2027 08:00:00.366,83.176
97,6 Jun 2027 08:00:48.407,6 Jun 2027 08:04:36.340,227.933
98,6 Jun 2027 09:33:32.098,6 Jun 2027 09:41:39.595,487.497
99,6 Jun 2027 09:41:59.712,6 Jun 2027 09:42:57.855,58.143
100,6 Jun 2027 11:11:29.009,6 Jun 2027 11:18:55.104,446.095
101,6 Jun 2027 12:48:20.189,6 Jun 2027 12:53:57.490,337.301
102,6 Jun 2027 12:54:09.310,6 Jun 2027 12:54:57.479,48.169
103,6 Jun 2027 14:26:07.363,6 Jun 2027 14:30:29.413,262.051
104,6 Jun 2027 16:02:06.689,6 Jun 2027 16:06:24.104,257.415
105,6 Jun 2027 21:08:12.751,6 Jun 2027 21:12:42.283,269.531
106,6 Jun 2027 22:44:33.599,6 Jun 2027 22:49:07.322,273.723
107,6 Jun 2027 22:49:21.946,6 Jun 2027 22:51:12.891,110.945
108,6 Jun 2027 22:51:58.467,6 Jun 2027 22:52:34.815,36.347
109,7 Jun 2027 00:21:07.485,7 Jun 2027 00:27:42.503,395.018
110,7 Jun 2027 01:56:39.510,7 Jun 2027 02:04:25.009,465.499
111,7 Jun 2027 03:34:21.323,7 Jun 2027 03:34:33.248,11.925
112,7 Jun 2027 03:34:44.275,7 Jun 2027 03:35:45.078,60.803
113,7 Jun 2027 03:35:52.276,7 Jun 2027 03:36:27.858,35.583
114,7 Jun 2027 03:36:29.966,7 Jun 2027 03:39:57.711,207.746
115,7 Jun 2027 05:12:51.774,7 Jun 2027 05:17:51.565,299.791
116,7 Jun 2027 06:36:41.240,7 Jun 2027 06:38:56.693,135.454
117,7 Jun 2027 08:12:40.376,7 Jun 2027 08:16:33.384,233.008
118,7 Jun 2027 09:46:26.270,7 Jun 2027 09:53:48.622,442.353
119,7 Jun 2027 09:53:50.893,7 Jun 2027 09:54:59.546,68.653
120,7 Jun 2027 11:23:49.394,7 Jun 2027 11:30:55.275,425.882
121,7 Jun 2027 13:00:53.951,7 Jun 2027 13:05:23.100,269.148
122,7 Jun 2027 13:05:32.787,7 Jun 2027 13:06:44.542,71.755
123,7 Jun 2027 14:37:38.235,7 Jun 2027 14:42:26.682,288.448
124,7 Jun 2027 16:12:54.442,7 Jun 2027 16:13:03.077,8.635
125,7 Jun 2027 16:14:35.170,7 Jun 2027 16:17:27.567,172.398
126,7 Jun 2027 21:20:32.216,7 Jun 2027 21:23:02.199,149.983
127,7 Jun 2027 21:23:25.029,7 Jun 2027 21:25:24.491,119.462
128,7 Jun 2027 22:56:28.230,7 Jun 2027 23:03:14.547,406.317
129,8 Jun 2027 00:33:11.088,8 Jun 2027 00:39:36.610,385.523
130,8 Jun 2027 02:08:41.622,8 Jun 2027 02:16:10.883,449.261
131,8 Jun 2027 03:46:53.790,8 Jun 2027 03:47:20.011,26.222
132,8 Jun 2027 03:47:27.656,8 Jun 2027 03:53:03.604,335.948
133,8 Jun 2027 05:25:10.517,8 Jun 2027 05:29:44.106,273.589
134,8 Jun 2027 06:48:32.771,8 Jun 2027 06:51:07.901,155.130
135,8 Jun 2027 08:24:54.968,8 Jun 2027 08:28:26.425,211.457
136,8 Jun 2027 09:58:58.995,8 Jun 2027 10:05:53.455,414.459
137,8 Jun 2027 10:05:57.201,8 Jun 2027 10:06:58.554,61.353
138,8 Jun 2027 11:36:03.564,8 Jun 2027 11:42:46.010,402.446
139,8 Jun 2027 13:12:59.629,8 Jun 2027 13:17:59.468,299.839
140,8 Jun 2027 14:49:46.216,8 Jun 2027 14:54:26.776,280.560
141,8 Jun 2027 16:27:58.295,8 Jun 2027 16:28:57.142,58.847
142,8 Jun 2027 21:32:36.201,8 Jun 2027 21:34:52.163,135.962
143,8 Jun 2027 23:08:32.860,8 Jun 2027 23:15:04.998,392.137
144,9 Jun 2027 00:45:14.679,9 Jun 2027 00:51:43.761,389.082
145,9 Jun 2027 02:20:47.221,9 Jun 2027 02:28:22.240,455.019
146,9 Jun 2027 03:58:59.903,9 Jun 2027 04:00:01.489,61.586
147,9 Jun 2027 04:00:07.862,9 Jun 2027 04:05:14.411,306.549
148,9 Jun 2027 05:38:04.597,9 Jun 2027 05:41:38.026,213.429
149,9 Jun 2027 07:00:36.589,9 Jun 2027 07:03:15.143,158.555
150,9 Jun 2027 08:37:05.799,9 Jun 2027 08:40:34.027,208.228
151,9 Jun 2027 10:12:10.772,9 Jun 2027 10:18:58.261,407.489
152,9 Jun 2027 11:48:32.780,9 Jun 2027 11:54:52.375,379.595
153,9 Jun 2027 13:26:03.052,9 Jun 2027 13:30:27.732,264.680
154,9 Jun 2027 15:02:07.763,9 Jun 2027 15:06:21.887,254.124
155,9 Jun 2027 21:44:43.183,9 Jun 2027 21:47:44.859,181.676
156,9 Jun 2027 23:20:37.809,9 Jun 2027 23:26:24.994,347.184
157,10 Jun 2027 00:57:19.558,10 Jun 2027 01:03:30.328,370.771
158,10 Jun 2027 02:32:45.622,10 Jun 2027 02:39:52.029,426.407
159,10 Jun 2027 04:10:59.657,10 Jun 2027 04:11:44.025,44.368
160,10 Jun 2027 04:12:05.462,10 Jun 2027 04:17:06.968,301.506
161,10 Jun 2027 05:49:12.511,10 Jun 2027 05:52:47.486,214.975
162,10 Jun 2027 07:12:33.036,10 Jun 2027 07:15:48.688,195.652
163,10 Jun 2027 08:49:10.839,10 Jun 2027 08:52:37.532,206.693
164,10 Jun 2027 10:24:21.199,10 Jun 2027 10:30:57.250,396.051
165,10 Jun 2027 12:00:35.297,10 Jun 2027 12:06:25.534,350.237
166,10 Jun 2027 12:06:33.757,10 Jun 2027 12:06:44.095,10.339
167,10 Jun 2027 13:38:08.958,10 Jun 2027 13:42:40.863,271.904
168,10 Jun 2027 15:14:10.334,10 Jun 2027 15:18:22.365,252.031
169,10 Jun 2027 15:18:26.564,10 Jun 2027 15:19:08.897,42.333
170,10 Jun 2027 20:21:35.504,10 Jun 2027 20:22:08.078,32.574
171,10 Jun 2027 21:56:42.730,10 Jun 2027 21:59:48.754,186.025
172,10 Jun 2027 23:32:49.497,10 Jun 2027 23:38:15.714,326.217
173,11 Jun 2027 01:09:18.360,11 Jun 2027 01:15:33.655,375.295
174,11 Jun 2027 02:44:47.168,11 Jun 2027 02:45:09.606,22.438
175,11 Jun 2027 02:45:11.969,11 Jun 2027 02:51:46.738,394.769
176,11 Jun 2027 04:24:04.780,11 Jun 2027 04:29:21.302,316.522
177,11 Jun 2027 04:30:19.406,11 Jun 2027 04:31:54.280,94.874
178,11 Jun 2027 05:50:23.134,11 Jun 2027 05:50:36.223,13.089
179,11 Jun 2027 06:01:10.341,11 Jun 2027 06:01:52.107,41.767
180,11 Jun 2027 06:01:57.197,11 Jun 2027 06:04:45.113,167.916
181,11 Jun 2027 07:25:09.226,11 Jun 2027 07:27:52.628,163.402
182,11 Jun 2027 09:00:54.723,11 Jun 2027 09:05:08.309,253.586
183,11 Jun 2027 10:35:45.467,11 Jun 2027 10:43:06.882,441.415
184,11 Jun 2027 12:12:21.492,11 Jun 2027 12:18:45.348,383.856
185,11 Jun 2027 13:50:39.258,11 Jun 2027 13:54:34.105,234.847
186,11 Jun 2027 15:23:59.230,11 Jun 2027 15:24:11.868,12.637
187,11 Jun 2027 15:25:59.075,11 Jun 2027 15:30:10.342,251.267
188,11 Jun 2027 15:30:30.208,11 Jun 2027 15:31:28.693,58.485
189,11 Jun 2027 20:32:22.857,11 Jun 2027 20:34:35.765,132.908
190,11 Jun 2027 22:08:36.475,11 Jun 2027 22:12:00.225,203.751
191,11 Jun 2027 23:45:15.079,11 Jun 2027 23:51:22.931,367.851
192,12 Jun 2027 01:21:26.585,12 Jun 2027 01:28:10.234,403.649
193,12 Jun 2027 02:57:27.650,12 Jun 2027 03:03:53.991,386.341
194,12 Jun 2027 04:36:25.544,12 Jun 2027 04:43:49.870,444.325
195,12 Jun 2027 06:01:39.460,12 Jun 2027 06:02:55.575,76.115
196,12 Jun 2027 06:13:09.299,12 Jun 2027 06:14:37.017,87.718
197,12 Jun 2027 07:35:48.118,12 Jun 2027 07:36:46.976,58.858
198,12 Jun 2027 07:37:23.683,12 Jun 2027 07:40:27.512,183.829
199,12 Jun 2027 09:11:05.129,12 Jun 2027 09:12:07.549,62.420
200,12 Jun 2027 09:12:39.506,12 Jun 2027 09:17:25.510,286.004
201,12 Jun 2027 10:47:39.553,12 Jun 2027 10:55:07.971,448.418
202,12 Jun 2027 12:24:42.937,12 Jun 2027 12:30:32.711,349.774
203,12 Jun 2027 12:30:34.066,12 Jun 2027 12:30:56.991,22.926
204,12 Jun 2027 14:02:37.236,12 Jun 2027 14:06:36.800,239.564
205,12 Jun 2027 15:35:51.070,12 Jun 2027 15:42:10.097,379.027
206,12 Jun 2027 15:42:30.832,12 Jun 2027 15:43:41.328,70.495
207,12 Jun 2027 20:44:21.110,12 Jun 2027 20:46:59.873,158.762
208,12 Jun 2027 22:20:43.360,12 Jun 2027 22:24:06.580,203.221
209,12 Jun 2027 22:25:46.299,12 Jun 2027 22:27:21.087,94.788
210,12 Jun 2027 23:57:16.205,13 Jun 2027 00:03:32.034,375.829
211,13 Jun 2027 01:33:31.535,13 Jun 2027 01:40:07.861,396.326
212,13 Jun 2027 03:09:35.968,13 Jun 2027 03:11:08.658,92.691
213,13 Jun 2027 03:11:10.736,13 Jun 2027 03:15:41.091,270.355
214,13 Jun 2027 04:48:41.371,13 Jun 2027 04:55:45.237,423.867
215,13 Jun 2027 06:12:55.820,13 Jun 2027 06:15:05.339,129.519
216,13 Jun 2027 06:25:08.450,13 Jun 2027 06:26:04.829,56.379
217,13 Jun 2027 07:47:24.085,13 Jun 2027 07:48:30.491,66.406
218,13 Jun 2027 07:49:19.542,13 Jun 2027 07:52:41.679,202.137
219,13 Jun 2027 09:22:16.684,13 Jun 2027 09:24:22.284,125.599
220,13 Jun 2027 09:24:27.226,13 Jun 2027 09:29:38.533,311.307
221,13 Jun 2027 09:30:21.593,13 Jun 2027 09:30:47.323,25.731
222,13 Jun 2027 10:59:51.260,13 Jun 2027 11:07:11.811,440.551
223,13 Jun 2027 12:36:34.043,13 Jun 2027 12:41:48.808,314.766
224,13 Jun 2027 12:41:50.467,13 Jun 2027 12:42:48.290,57.823
225,13 Jun 2027 12:42:52.810,13 Jun 2027 12:43:11.921,19.110
226,13 Jun 2027 14:14:37.366,13 Jun 2027 14:18:47.067,249.700
227,13 Jun 2027 15:48:19.577,13 Jun 2027 15:55:38.378,438.801
228,13 Jun 2027 20:56:24.432,13 Jun 2027 20:59:18.777,174.344
229,13 Jun 2027 22:32:52.974,13 Jun 2027 22:36:31.083,218.109
230,13 Jun 2027 22:37:37.481,13 Jun 2027 22:40:41.400,183.919
