dataset/area_timing/orbit_10/Russia-To-KinoSat_111001.csv

Acces,Start Time (UTCG),Stop Time (UTCG),Duration (sec)
1,1 Jun 2027 01:03:51.165,1 Jun 2027 01:04:51.862,60.697
2,1 Jun 2027 01:04:57.443,1 Jun 2027 01:10:01.963,304.520
3,1 Jun 2027 02:42:28.886,1 Jun 2027 02:46:26.055,237.169
4,1 Jun 2027 04:05:26.076,1 Jun 2027 04:08:28.085,182.010
5,1 Jun 2027 05:41:55.226,1 Jun 2027 05:45:25.744,210.518
6,1 Jun 2027 07:17:02.124,1 Jun 2027 07:23:47.187,405.063
7,1 Jun 2027 08:53:23.497,1 Jun 2027 08:59:41.927,378.430
8,1 Jun 2027 10:30:50.503,1 Jun 2027 10:35:18.965,268.463
9,1 Jun 2027 12:07:01.165,1 Jun 2027 12:11:11.263,250.098
10,1 Jun 2027 18:49:30.228,1 Jun 2027 18:52:34.638,184.411
11,1 Jun 2027 20:25:25.588,1 Jun 2027 20:31:14.467,348.879
12,1 Jun 2027 22:02:08.213,1 Jun 2027 22:08:18.500,370.288
13,1 Jun 2027 23:37:38.105,1 Jun 2027 23:44:41.772,423.667
14,2 Jun 2027 01:15:47.339,2 Jun 2027 01:16:40.525,53.186
15,2 Jun 2027 01:16:54.241,2 Jun 2027 01:21:55.363,301.122
16,2 Jun 2027 02:54:01.946,2 Jun 2027 02:54:39.071,37.124
17,2 Jun 2027 02:54:51.634,2 Jun 2027 02:57:40.795,169.162
18,2 Jun 2027 04:17:29.585,2 Jun 2027 04:20:37.589,188.003
19,2 Jun 2027 05:53:58.604,2 Jun 2027 05:57:23.523,204.919
20,2 Jun 2027 07:29:09.433,2 Jun 2027 07:35:45.861,396.428
21,2 Jun 2027 09:05:06.876,2 Jun 2027 09:11:14.841,367.965
22,2 Jun 2027 10:42:57.158,2 Jun 2027 10:47:27.967,270.809
23,2 Jun 2027 12:18:56.788,2 Jun 2027 12:23:09.854,253.066
24,2 Jun 2027 12:23:14.088,2 Jun 2027 12:24:00.830,46.742
25,2 Jun 2027 17:25:54.363,2 Jun 2027 17:26:55.717,61.354
26,2 Jun 2027 19:01:37.874,2 Jun 2027 19:04:36.379,178.505
27,2 Jun 2027 20:37:37.430,2 Jun 2027 20:43:04.114,326.683
28,2 Jun 2027 22:14:05.722,2 Jun 2027 22:20:21.335,375.612
29,2 Jun 2027 23:49:35.080,2 Jun 2027 23:56:33.436,418.356
30,3 Jun 2027 01:28:52.838,3 Jun 2027 01:34:07.476,314.637
31,3 Jun 2027 01:35:08.514,3 Jun 2027 01:36:42.590,94.076
32,3 Jun 2027 02:55:06.735,3 Jun 2027 02:55:28.255,21.520
33,3 Jun 2027 03:05:58.925,3 Jun 2027 03:09:34.896,215.971
34,3 Jun 2027 04:29:56.303,3 Jun 2027 04:32:41.770,165.467
35,3 Jun 2027 06:05:43.000,3 Jun 2027 06:09:56.787,253.787
36,3 Jun 2027 07:40:26.410,3 Jun 2027 07:47:56.505,450.095
37,3 Jun 2027 09:17:11.157,3 Jun 2027 09:23:33.554,382.397
38,3 Jun 2027 10:55:28.025,3 Jun 2027 10:59:22.299,234.274
39,3 Jun 2027 12:28:46.564,3 Jun 2027 12:30:15.049,88.484
40,3 Jun 2027 12:30:45.216,3 Jun 2027 12:35:00.491,255.275
41,3 Jun 2027 12:35:20.914,3 Jun 2027 12:36:25.204,64.290
42,3 Jun 2027 17:37:12.240,3 Jun 2027 17:39:20.835,128.595
43,3 Jun 2027 19:13:24.738,3 Jun 2027 19:16:47.720,202.982
44,3 Jun 2027 20:50:00.859,3 Jun 2027 20:56:10.605,369.746
45,3 Jun 2027 22:26:11.900,3 Jun 2027 22:32:58.548,406.648
46,4 Jun 2027 00:02:16.176,4 Jun 2027 00:08:42.658,386.482
47,4 Jun 2027 01:41:13.281,4 Jun 2027 01:48:38.006,444.725
48,4 Jun 2027 03:06:22.520,4 Jun 2027 03:07:43.713,81.193
49,4 Jun 2027 03:17:56.982,4 Jun 2027 03:19:25.477,88.495
50,4 Jun 2027 04:40:34.569,4 Jun 2027 04:41:32.843,58.274
51,4 Jun 2027 04:42:11.549,4 Jun 2027 04:45:16.519,184.971
52,4 Jun 2027 06:15:43.516,4 Jun 2027 06:16:57.128,73.612
53,4 Jun 2027 06:17:26.139,4 Jun 2027 06:22:16.658,290.519
54,4 Jun 2027 07:52:30.348,4 Jun 2027 07:59:56.866,446.517
55,4 Jun 2027 09:29:31.378,4 Jun 2027 09:35:21.896,350.518
56,4 Jun 2027 09:35:25.320,4 Jun 2027 09:35:40.441,15.121
57,4 Jun 2027 11:07:25.165,4 Jun 2027 11:11:24.514,239.348
58,4 Jun 2027 12:40:41.089,4 Jun 2027 12:47:00.709,379.620
59,4 Jun 2027 12:47:16.366,4 Jun 2027 12:48:31.729,75.362
60,4 Jun 2027 17:49:09.489,4 Jun 2027 17:51:50.212,160.723
61,4 Jun 2027 19:25:29.792,4 Jun 2027 19:28:53.981,204.189
62,4 Jun 2027 19:30:48.993,4 Jun 2027 19:32:04.021,75.028
63,4 Jun 2027 21:02:04.076,4 Jun 2027 21:08:18.466,374.390
64,4 Jun 2027 22:38:19.371,4 Jun 2027 22:44:55.508,396.137
65,5 Jun 2027 00:14:22.095,5 Jun 2027 00:20:29.237,367.142
66,5 Jun 2027 01:53:26.879,5 Jun 2027 02:00:33.070,426.190
67,5 Jun 2027 03:17:42.444,5 Jun 2027 03:19:54.379,131.935
68,5 Jun 2027 03:29:56.114,5 Jun 2027 03:30:54.756,58.642
69,5 Jun 2027 04:52:10.464,5 Jun 2027 04:53:17.819,67.355
70,5 Jun 2027 04:54:06.339,5 Jun 2027 04:57:31.045,204.706
71,5 Jun 2027 06:27:03.577,5 Jun 2027 06:29:11.181,127.605
72,5 Jun 2027 06:29:14.154,5 Jun 2027 06:34:35.859,321.705
73,5 Jun 2027 06:35:06.794,5 Jun 2027 06:35:36.401,29.607
74,5 Jun 2027 08:04:38.188,5 Jun 2027 08:12:00.470,442.282
75,5 Jun 2027 09:41:21.064,5 Jun 2027 09:47:34.882,373.819
76,5 Jun 2027 09:47:39.221,5 Jun 2027 09:48:00.299,21.078
77,5 Jun 2027 11:19:25.100,5 Jun 2027 11:23:34.436,249.335
78,5 Jun 2027 12:53:07.958,5 Jun 2027 13:00:01.448,413.490
79,5 Jun 2027 18:01:10.696,5 Jun 2027 18:04:05.701,175.005
80,5 Jun 2027 19:37:42.284,5 Jun 2027 19:41:16.822,214.538
81,5 Jun 2027 19:42:25.329,5 Jun 2027 19:45:26.976,181.647
82,5 Jun 2027 21:14:15.264,5 Jun 2027 21:20:34.365,379.101
83,5 Jun 2027 22:49:46.934,5 Jun 2027 22:50:23.866,36.932
84,5 Jun 2027 22:50:34.985,5 Jun 2027 22:57:23.823,408.838
85,6 Jun 2027 00:26:43.511,6 Jun 2027 00:27:08.306,24.796
86,6 Jun 2027 00:27:15.257,6 Jun 2027 00:27:45.186,29.930
87,6 Jun 2027 00:27:50.315,6 Jun 2027 00:28:44.305,53.990
88,6 Jun 2027 00:28:46.461,6 Jun 2027 00:32:45.188,238.728
89,6 Jun 2027 02:05:31.252,6 Jun 2027 02:12:25.025,413.773
90,6 Jun 2027 03:29:48.195,6 Jun 2027 03:31:42.364,114.169
91,6 Jun 2027 03:42:11.029,6 Jun 2027 03:42:29.327,18.298
92,6 Jun 2027 05:03:39.191,6 Jun 2027 05:09:41.565,362.374
93,6 Jun 2027 06:38:33.516,6 Jun 2027 06:46:44.143,490.627
94,6 Jun 2027 06:47:03.905,6 Jun 2027 06:48:03.220,59.315
95,6 Jun 2027 08:16:33.199,6 Jun 2027 08:24:01.962,448.763
96,6 Jun 2027 09:53:29.173,6 Jun 2027 09:58:47.711,318.538
97,6 Jun 2027 09:59:05.946,6 Jun 2027 09:59:58.437,52.491
98,6 Jun 2027 11:31:02.585,6 Jun 2027 11:35:33.010,270.425
99,6 Jun 2027 13:05:26.602,6 Jun 2027 13:06:37.520,70.918
100,6 Jun 2027 13:07:13.806,6 Jun 2027 13:10:43.791,209.984
101,6 Jun 2027 18:13:17.350,6 Jun 2027 18:16:31.624,194.274
102,6 Jun 2027 18:16:44.130,6 Jun 2027 18:18:04.578,80.448
103,6 Jun 2027 19:49:38.242,6 Jun 2027 19:54:12.011,273.769
104,6 Jun 2027 19:54:26.641,6 Jun 2027 19:56:17.736,111.094
105,6 Jun 2027 19:57:03.090,6 Jun 2027 19:57:39.173,36.082
106,6 Jun 2027 21:26:11.770,6 Jun 2027 21:32:47.225,395.456
107,6 Jun 2027 23:01:44.461,6 Jun 2027 23:09:29.575,465.114
108,7 Jun 2027 00:39:25.044,7 Jun 2027 00:39:38.411,13.367
109,7 Jun 2027 00:39:48.282,7 Jun 2027 00:40:49.095,60.813
110,7 Jun 2027 00:40:57.585,7 Jun 2027 00:41:24.677,27.092
111,7 Jun 2027 00:41:34.582,7 Jun 2027 00:45:02.373,207.791
112,7 Jun 2027 02:17:56.856,7 Jun 2027 02:22:55.850,298.994
113,7 Jun 2027 03:41:44.415,7 Jun 2027 03:44:01.928,137.513
114,7 Jun 2027 05:17:57.692,7 Jun 2027 05:21:25.460,207.767
115,7 Jun 2027 06:51:29.040,7 Jun 2027 06:58:59.154,450.114
116,7 Jun 2027 06:59:03.366,7 Jun 2027 07:00:03.668,60.302
117,7 Jun 2027 08:28:55.084,7 Jun 2027 08:35:49.034,413.950
118,7 Jun 2027 10:05:58.072,7 Jun 2027 10:10:27.111,269.040
119,7 Jun 2027 10:10:33.898,7 Jun 2027 10:11:48.195,74.297
120,7 Jun 2027 11:42:45.223,7 Jun 2027 11:47:30.983,285.759
121,7 Jun 2027 13:18:00.658,7 Jun 2027 13:18:04.330,3.672
122,7 Jun 2027 13:19:42.705,7 Jun 2027 13:22:30.077,167.371
123,7 Jun 2027 18:25:38.528,7 Jun 2027 18:28:06.531,148.003
124,7 Jun 2027 18:28:28.828,7 Jun 2027 18:30:28.840,120.012
125,7 Jun 2027 20:01:32.615,7 Jun 2027 20:08:18.816,406.201
126,7 Jun 2027 21:38:15.870,7 Jun 2027 21:44:40.949,385.079
127,7 Jun 2027 23:13:44.904,7 Jun 2027 23:21:15.429,450.524
128,8 Jun 2027 00:51:59.127,8 Jun 2027 00:52:26.122,26.995
129,8 Jun 2027 00:52:36.729,8 Jun 2027 00:58:07.968,331.239
130,8 Jun 2027 02:30:15.168,8 Jun 2027 02:34:48.493,273.325
131,8 Jun 2027 03:53:36.237,8 Jun 2027 03:56:13.398,157.161
132,8 Jun 2027 05:30:02.796,8 Jun 2027 05:33:34.980,212.185
133,8 Jun 2027 07:02:12.260,8 Jun 2027 07:02:22.585,10.326
134,8 Jun 2027 07:04:06.951,8 Jun 2027 07:10:57.337,410.386
135,8 Jun 2027 07:11:00.013,8 Jun 2027 07:12:00.555,60.542
136,8 Jun 2027 08:41:06.435,8 Jun 2027 08:47:50.658,404.222
137,8 Jun 2027 10:18:09.395,8 Jun 2027 10:22:29.636,260.241
138,8 Jun 2027 10:22:33.175,8 Jun 2027 10:23:06.735,33.560
139,8 Jun 2027 11:54:49.233,8 Jun 2027 11:59:57.944,308.712
140,8 Jun 2027 13:33:08.736,8 Jun 2027 13:33:59.121,50.385
141,8 Jun 2027 18:37:40.209,8 Jun 2027 18:39:56.117,135.907
142,8 Jun 2027 20:13:36.927,8 Jun 2027 20:20:09.176,392.248
143,8 Jun 2027 21:50:18.462,8 Jun 2027 21:56:47.918,389.455
144,8 Jun 2027 23:25:53.680,8 Jun 2027 23:33:26.385,452.705
145,9 Jun 2027 01:04:06.044,9 Jun 2027 01:05:06.826,60.782
146,9 Jun 2027 01:05:12.463,9 Jun 2027 01:10:18.451,305.987
147,9 Jun 2027 02:42:44.624,9 Jun 2027 02:46:41.985,237.361
148,9 Jun 2027 04:05:41.620,9 Jun 2027 04:08:43.798,182.177
149,9 Jun 2027 05:42:10.435,9 Jun 2027 05:45:49.496,219.061
150,9 Jun 2027 07:17:17.980,9 Jun 2027 07:24:02.202,404.222
151,9 Jun 2027 08:53:39.559,9 Jun 2027 08:59:57.215,377.656
152,9 Jun 2027 10:31:05.485,9 Jun 2027 10:35:34.653,269.168
153,9 Jun 2027 12:07:16.411,9 Jun 2027 12:11:26.562,250.150
154,9 Jun 2027 18:49:45.795,9 Jun 2027 18:52:49.442,183.647
155,9 Jun 2027 20:25:40.979,9 Jun 2027 20:31:29.027,348.049
156,9 Jun 2027 22:02:23.585,9 Jun 2027 22:08:33.980,370.395
157,9 Jun 2027 23:37:53.354,9 Jun 2027 23:44:56.297,422.943
158,10 Jun 2027 01:16:02.711,10 Jun 2027 01:16:52.153,49.442
159,10 Jun 2027 01:17:09.478,10 Jun 2027 01:22:10.689,301.212
160,10 Jun 2027 02:54:16.868,10 Jun 2027 02:54:54.359,37.491
161,10 Jun 2027 02:55:06.828,10 Jun 2027 02:57:55.355,168.527
162,10 Jun 2027 04:17:44.617,10 Jun 2027 04:20:52.949,188.332
163,10 Jun 2027 05:54:13.484,10 Jun 2027 05:57:38.372,204.888
164,10 Jun 2027 07:29:24.924,10 Jun 2027 07:36:01.694,396.770
165,10 Jun 2027 09:05:21.151,10 Jun 2027 09:11:30.624,369.473
166,10 Jun 2027 10:43:12.659,10 Jun 2027 10:47:42.748,270.089
167,10 Jun 2027 12:19:10.880,10 Jun 2027 12:23:24.589,253.709
168,10 Jun 2027 12:23:29.260,10 Jun 2027 12:24:17.047,47.788
169,10 Jun 2027 17:26:08.376,10 Jun 2027 17:27:11.252,62.876
170,10 Jun 2027 19:01:53.015,10 Jun 2027 19:04:52.086,179.071
171,10 Jun 2027 20:37:52.700,10 Jun 2027 20:43:19.233,326.534
172,10 Jun 2027 22:14:21.163,10 Jun 2027 22:20:37.046,375.883
173,10 Jun 2027 23:49:50.275,10 Jun 2027 23:56:49.525,419.250
174,11 Jun 2027 01:29:08.120,11 Jun 2027 01:34:24.000,315.880
175,11 Jun 2027 01:35:23.287,11 Jun 2027 01:36:57.904,94.617
176,11 Jun 2027 02:55:20.827,11 Jun 2027 02:55:44.053,23.226
177,11 Jun 2027 03:06:14.087,11 Jun 2027 03:09:49.658,215.571
178,11 Jun 2027 04:30:11.287,11 Jun 2027 04:32:57.259,165.972
179,11 Jun 2027 06:05:57.616,11 Jun 2027 06:10:12.352,254.736
180,11 Jun 2027 07:40:40.664,11 Jun 2027 07:48:11.931,451.268
181,11 Jun 2027 09:17:26.596,11 Jun 2027 09:23:48.687,382.091
182,11 Jun 2027 10:55:42.480,11 Jun 2027 10:59:37.443,234.962
183,11 Jun 2027 12:29:01.410,11 Jun 2027 12:30:30.790,89.381
184,11 Jun 2027 12:30:58.592,11 Jun 2027 12:35:15.769,257.177
185,11 Jun 2027 12:35:36.749,11 Jun 2027 12:36:40.949,64.200
186,11 Jun 2027 17:37:26.882,11 Jun 2027 17:39:37.861,130.979
187,11 Jun 2027 19:13:39.945,11 Jun 2027 19:17:03.270,203.325
188,11 Jun 2027 20:50:16.464,11 Jun 2027 20:56:26.181,369.717
189,11 Jun 2027 22:26:27.648,11 Jun 2027 22:33:13.424,405.776
190,12 Jun 2027 00:02:31.248,12 Jun 2027 00:08:57.755,386.507
191,12 Jun 2027 01:41:28.504,12 Jun 2027 01:48:53.226,444.722
192,12 Jun 2027 03:06:36.314,12 Jun 2027 03:07:59.180,82.866
193,12 Jun 2027 03:18:12.271,12 Jun 2027 03:19:40.496,88.226
194,12 Jun 2027 04:40:48.765,12 Jun 2027 04:41:47.516,58.751
195,12 Jun 2027 04:42:26.932,12 Jun 2027 04:45:31.922,184.990
196,12 Jun 2027 06:15:58.382,12 Jun 2027 06:17:12.501,74.119
197,12 Jun 2027 06:17:40.915,12 Jun 2027 06:22:32.131,291.216
198,12 Jun 2027 07:52:46.035,12 Jun 2027 08:00:12.079,446.044
199,12 Jun 2027 09:29:47.065,12 Jun 2027 09:35:37.410,350.345
200,12 Jun 2027 09:35:47.302,12 Jun 2027 09:35:55.029,7.727
201,12 Jun 2027 11:07:40.450,12 Jun 2027 11:11:39.569,239.120
202,12 Jun 2027 12:40:57.650,12 Jun 2027 12:47:16.157,378.507
203,12 Jun 2027 12:47:31.301,12 Jun 2027 12:48:47.153,75.852
204,12 Jun 2027 17:49:24.653,12 Jun 2027 17:52:04.781,160.128
205,12 Jun 2027 19:25:45.211,12 Jun 2027 19:29:09.309,204.098
206,12 Jun 2027 19:30:58.261,12 Jun 2027 19:32:21.042,82.781
207,12 Jun 2027 21:02:19.147,12 Jun 2027 21:08:34.431,375.284
208,12 Jun 2027 22:38:34.640,12 Jun 2027 22:45:10.946,396.307
209,13 Jun 2027 00:14:37.443,13 Jun 2027 00:20:44.613,367.170
210,13 Jun 2027 01:53:42.513,13 Jun 2027 02:00:48.437,425.924
211,13 Jun 2027 03:17:57.618,13 Jun 2027 03:20:10.003,132.385
212,13 Jun 2027 03:30:11.338,13 Jun 2027 03:31:09.526,58.188
213,13 Jun 2027 04:52:24.642,13 Jun 2027 04:53:33.138,68.495
214,13 Jun 2027 04:54:21.146,13 Jun 2027 04:57:46.529,205.383
215,13 Jun 2027 06:27:18.328,13 Jun 2027 06:29:26.898,128.570
216,13 Jun 2027 06:29:28.944,13 Jun 2027 06:34:51.309,322.365
217,13 Jun 2027 06:35:21.711,13 Jun 2027 06:35:51.875,30.164
218,13 Jun 2027 08:04:53.068,13 Jun 2027 08:12:15.699,442.631
219,13 Jun 2027 09:41:36.367,13 Jun 2027 09:47:49.904,373.538
220,13 Jun 2027 09:47:53.487,13 Jun 2027 09:48:15.837,22.350
221,13 Jun 2027 11:19:39.910,13 Jun 2027 11:23:49.544,249.634
222,13 Jun 2027 12:53:23.625,13 Jun 2027 13:00:16.307,412.682
223,13 Jun 2027 18:01:26.585,13 Jun 2027 18:04:21.316,174.731
224,13 Jun 2027 19:37:57.542,13 Jun 2027 19:41:32.468,214.927
225,13 Jun 2027 19:42:40.542,13 Jun 2027 19:45:43.398,182.856
226,13 Jun 2027 21:14:30.348,13 Jun 2027 21:20:50.054,379.706
227,13 Jun 2027 22:50:02.009,13 Jun 2027 22:50:39.381,37.372
228,13 Jun 2027 22:50:50.431,13 Jun 2027 22:57:39.042,408.611
