dataset/facility_timing/facility_Facility-RioGallegos/RioGallegos-To-KinoSat_111204.csv

Acces,Start Time (UTCG),Stop Time (UTCG),Duration (sec)
1,1 Jun 2027 01:14:56.228,1 Jun 2027 01:19:14.536,258.308
2,1 Jun 2027 07:24:10.229,1 Jun 2027 07:34:25.199,614.970
3,1 Jun 2027 08:57:57.736,1 Jun 2027 09:10:49.774,772.038
4,1 Jun 2027 10:35:24.473,1 Jun 2027 10:46:05.118,640.645
5,1 Jun 2027 20:38:04.403,1 Jun 2027 20:47:51.776,587.372
6,1 Jun 2027 22:13:03.584,1 Jun 2027 22:25:56.614,773.030
7,1 Jun 2027 23:49:19.803,2 Jun 2027 00:00:13.176,653.374
8,2 Jun 2027 01:27:59.027,2 Jun 2027 01:29:38.031,99.003
9,2 Jun 2027 06:06:38.008,2 Jun 2027 06:07:37.590,59.582
10,2 Jun 2027 07:35:43.910,2 Jun 2027 07:46:33.735,649.825
11,2 Jun 2027 09:09:57.600,2 Jun 2027 09:22:50.771,773.171
12,2 Jun 2027 10:47:58.451,2 Jun 2027 10:57:51.730,593.279
13,2 Jun 2027 20:49:50.580,2 Jun 2027 21:00:26.493,635.914
14,2 Jun 2027 22:25:04.467,2 Jun 2027 22:37:56.844,772.378
15,3 Jun 2027 00:01:28.190,3 Jun 2027 00:11:47.261,619.071
16,3 Jun 2027 06:16:47.896,3 Jun 2027 06:20:53.762,245.866
17,3 Jun 2027 07:47:21.132,3 Jun 2027 07:58:41.086,679.954
18,3 Jun 2027 09:22:00.807,3 Jun 2027 09:34:50.761,769.954
19,3 Jun 2027 11:00:39.881,3 Jun 2027 11:09:33.681,533.799
20,3 Jun 2027 21:01:40.234,3 Jun 2027 21:12:55.034,674.800
21,3 Jun 2027 22:37:06.287,3 Jun 2027 22:49:53.800,767.513
22,4 Jun 2027 00:13:37.959,4 Jun 2027 00:23:17.604,579.646
23,4 Jun 2027 06:27:43.636,4 Jun 2027 06:33:26.302,342.666
24,4 Jun 2027 07:59:01.751,4 Jun 2027 08:10:47.405,705.653
25,4 Jun 2027 09:34:07.476,4 Jun 2027 09:46:49.656,762.181
26,4 Jun 2027 11:13:31.288,4 Jun 2027 11:21:08.557,457.269
27,4 Jun 2027 21:13:32.533,4 Jun 2027 21:25:18.325,705.792
28,4 Jun 2027 22:49:08.990,4 Jun 2027 23:01:47.550,758.560
29,5 Jun 2027 00:25:49.437,5 Jun 2027 00:34:43.873,534.435
30,5 Jun 2027 06:38:51.826,5 Jun 2027 06:45:48.676,416.851
31,5 Jun 2027 08:10:45.661,5 Jun 2027 08:22:52.777,727.115
32,5 Jun 2027 09:46:17.782,5 Jun 2027 09:58:47.305,749.523
33,5 Jun 2027 11:26:38.328,5 Jun 2027 11:32:30.854,352.526
34,5 Jun 2027 19:53:01.784,5 Jun 2027 19:55:34.239,152.455
35,5 Jun 2027 21:25:26.916,5 Jun 2027 21:37:36.977,730.062
36,5 Jun 2027 23:01:12.556,5 Jun 2027 23:13:38.108,745.552
37,6 Jun 2027 00:38:03.159,6 Jun 2027 00:46:05.539,482.380
38,6 Jun 2027 06:50:07.517,6 Jun 2027 06:58:05.852,478.335
39,6 Jun 2027 08:22:32.798,6 Jun 2027 08:34:57.262,744.465
40,6 Jun 2027 09:58:31.951,6 Jun 2027 10:10:43.518,731.567
41,6 Jun 2027 11:40:23.764,6 Jun 2027 11:43:17.949,174.184
42,6 Jun 2027 20:03:42.773,6 Jun 2027 20:09:26.023,343.249
43,6 Jun 2027 21:37:23.021,6 Jun 2027 21:49:51.434,748.413
44,6 Jun 2027 23:13:16.973,6 Jun 2027 23:25:25.476,728.503
45,7 Jun 2027 00:50:20.044,7 Jun 2027 00:57:21.690,421.646
46,7 Jun 2027 07:01:28.817,7 Jun 2027 07:10:19.774,530.957
47,7 Jun 2027 08:34:23.129,7 Jun 2027 08:47:00.883,757.754
48,7 Jun 2027 10:10:50.294,7 Jun 2027 10:22:38.035,707.742
49,7 Jun 2027 20:15:03.754,7 Jun 2027 20:22:34.604,450.849
50,7 Jun 2027 21:49:20.576,7 Jun 2027 22:02:02.009,761.434
51,7 Jun 2027 23:25:22.276,7 Jun 2027 23:37:09.621,707.346
52,8 Jun 2027 01:02:41.916,8 Jun 2027 01:08:30.541,348.625
53,8 Jun 2027 07:12:54.774,8 Jun 2027 07:22:31.394,576.620
54,8 Jun 2027 08:46:16.644,8 Jun 2027 08:59:03.652,767.007
55,8 Jun 2027 10:23:13.232,8 Jun 2027 10:34:30.491,677.259
56,8 Jun 2027 20:26:37.982,8 Jun 2027 20:35:26.880,528.898
57,8 Jun 2027 22:01:19.384,8 Jun 2027 22:14:08.932,769.548
58,8 Jun 2027 23:37:28.514,8 Jun 2027 23:48:50.484,681.970
59,9 Jun 2027 01:15:13.347,9 Jun 2027 01:19:27.550,254.203
60,9 Jun 2027 07:24:24.831,9 Jun 2027 07:34:41.274,616.444
61,9 Jun 2027 08:58:13.371,9 Jun 2027 09:11:05.534,772.163
62,9 Jun 2027 10:35:41.372,9 Jun 2027 10:46:20.348,638.975
63,9 Jun 2027 20:38:19.524,9 Jun 2027 20:48:08.928,589.403
64,9 Jun 2027 22:13:19.299,9 Jun 2027 22:26:12.388,773.088
65,9 Jun 2027 23:49:35.780,10 Jun 2027 00:00:27.963,652.184
66,10 Jun 2027 01:28:19.629,10 Jun 2027 01:29:47.487,87.858
67,10 Jun 2027 06:06:44.653,10 Jun 2027 06:08:01.003,76.350
68,10 Jun 2027 07:35:58.650,10 Jun 2027 07:46:49.761,651.111
69,10 Jun 2027 09:10:13.358,10 Jun 2027 09:23:06.487,773.129
70,10 Jun 2027 10:48:15.615,10 Jun 2027 10:58:06.799,591.184
71,10 Jun 2027 20:50:05.849,10 Jun 2027 21:00:43.387,637.538
72,10 Jun 2027 22:25:20.220,10 Jun 2027 22:38:12.488,772.268
73,11 Jun 2027 00:01:44.214,11 Jun 2027 00:12:01.907,617.693
74,11 Jun 2027 06:17:00.662,11 Jun 2027 06:21:11.141,250.479
75,11 Jun 2027 07:47:36.011,11 Jun 2027 07:58:57.064,681.053
76,11 Jun 2027 09:22:16.699,11 Jun 2027 09:35:06.432,769.733
77,11 Jun 2027 11:00:57.375,11 Jun 2027 11:09:48.525,531.150
78,11 Jun 2027 21:01:55.613,11 Jun 2027 21:13:11.710,676.096
79,11 Jun 2027 22:37:22.071,11 Jun 2027 22:50:09.319,767.248
80,12 Jun 2027 00:13:54.039,12 Jun 2027 00:23:32.103,578.064
81,12 Jun 2027 06:27:57.101,12 Jun 2027 06:33:43.067,345.965
82,12 Jun 2027 07:59:16.760,12 Jun 2027 08:11:03.340,706.580
83,12 Jun 2027 09:34:23.504,12 Jun 2027 09:47:05.279,761.775
84,12 Jun 2027 11:13:49.254,12 Jun 2027 11:21:23.041,453.787
85,12 Jun 2027 21:13:47.996,12 Jun 2027 21:25:34.815,706.819
86,12 Jun 2027 22:49:24.803,12 Jun 2027 23:02:02.947,758.144
87,13 Jun 2027 00:26:05.582,13 Jun 2027 00:34:58.210,532.628
88,13 Jun 2027 06:39:05.652,13 Jun 2027 06:46:05.166,419.514
89,13 Jun 2027 08:11:00.796,13 Jun 2027 08:23:08.673,727.877
90,13 Jun 2027 09:46:33.955,13 Jun 2027 09:59:02.872,748.917
91,13 Jun 2027 11:26:57.133,13 Jun 2027 11:32:44.615,347.482
92,13 Jun 2027 19:53:12.286,13 Jun 2027 19:55:56.475,164.189
93,13 Jun 2027 21:25:42.448,13 Jun 2027 21:37:53.300,730.853
94,13 Jun 2027 23:01:28.399,13 Jun 2027 23:13:53.383,744.984
