dataset/facility_timing/facility_Facility-RioGallegos/RioGallegos-To-KinoSat_111304.csv

Acces,Start Time (UTCG),Stop Time (UTCG),Duration (sec)
1,1 Jun 2027 01:10:12.790,1 Jun 2027 01:17:41.693,448.903
2,1 Jun 2027 07:21:45.769,1 Jun 2027 07:30:13.890,508.121
3,1 Jun 2027 08:54:27.298,1 Jun 2027 09:06:59.602,752.304
4,1 Jun 2027 10:30:41.882,1 Jun 2027 10:42:41.088,719.207
5,1 Jun 2027 20:35:18.439,1 Jun 2027 20:42:07.679,409.240
6,1 Jun 2027 22:09:21.680,1 Jun 2027 22:21:58.129,756.449
7,1 Jun 2027 23:45:20.225,1 Jun 2027 23:57:17.206,716.981
8,2 Jun 2027 01:22:32.305,2 Jun 2027 01:28:53.965,381.660
9,2 Jun 2027 07:33:09.713,2 Jun 2027 07:42:26.539,556.826
10,2 Jun 2027 09:06:19.427,2 Jun 2027 09:19:02.810,763.383
11,2 Jun 2027 10:43:02.772,2 Jun 2027 10:54:34.570,691.798
12,2 Jun 2027 20:46:48.096,2 Jun 2027 20:55:05.963,497.867
13,2 Jun 2027 22:21:20.022,2 Jun 2027 22:34:06.666,766.644
14,2 Jun 2027 23:57:26.112,3 Jun 2027 00:08:59.523,693.410
15,3 Jun 2027 01:34:58.848,3 Jun 2027 01:39:56.914,298.066
16,3 Jun 2027 07:44:37.990,3 Jun 2027 07:54:37.225,599.234
17,3 Jun 2027 09:18:14.755,3 Jun 2027 09:31:05.146,770.391
18,3 Jun 2027 10:55:28.577,3 Jun 2027 11:06:25.713,657.136
19,3 Jun 2027 20:58:26.950,3 Jun 2027 21:07:52.075,565.125
20,3 Jun 2027 22:33:19.527,3 Jun 2027 22:46:11.650,772.123
21,4 Jun 2027 00:09:32.990,4 Jun 2027 00:20:38.496,665.506
22,4 Jun 2027 01:47:42.419,4 Jun 2027 01:50:40.562,178.143
23,4 Jun 2027 07:56:10.171,4 Jun 2027 08:06:46.369,636.198
24,4 Jun 2027 09:30:13.334,4 Jun 2027 09:43:06.571,773.237
25,4 Jun 2027 11:08:00.042,4 Jun 2027 11:18:13.851,613.810
26,4 Jun 2027 21:10:11.474,4 Jun 2027 21:20:29.653,618.179
27,4 Jun 2027 22:45:20.076,4 Jun 2027 22:58:13.235,773.159
28,5 Jun 2027 00:21:40.965,5 Jun 2027 00:32:13.998,633.033
29,5 Jun 2027 06:37:37.390,5 Jun 2027 06:40:49.660,192.270
30,5 Jun 2027 08:07:46.000,5 Jun 2027 08:18:54.249,668.249
31,5 Jun 2027 09:42:15.219,5 Jun 2027 09:55:07.031,771.813
32,5 Jun 2027 11:20:38.316,5 Jun 2027 11:29:57.939,559.622
33,5 Jun 2027 21:21:59.932,5 Jun 2027 21:33:00.561,660.629
34,5 Jun 2027 22:57:21.589,5 Jun 2027 23:10:11.512,769.923
35,6 Jun 2027 00:33:50.232,6 Jun 2027 00:43:45.847,595.615
36,6 Jun 2027 06:48:23.857,6 Jun 2027 06:53:30.619,306.763
37,6 Jun 2027 08:19:25.282,6 Jun 2027 08:31:01.032,695.750
38,6 Jun 2027 09:54:20.525,6 Jun 2027 10:07:06.433,765.908
39,6 Jun 2027 11:33:25.356,6 Jun 2027 11:41:36.126,490.770
40,6 Jun 2027 21:33:51.320,6 Jun 2027 21:45:25.885,694.565
41,6 Jun 2027 23:09:24.008,6 Jun 2027 23:22:06.551,762.543
42,7 Jun 2027 00:46:01.066,7 Jun 2027 00:55:13.754,552.688
43,7 Jun 2027 06:59:27.871,7 Jun 2027 07:05:56.308,388.437
44,7 Jun 2027 08:31:07.898,7 Jun 2027 08:43:06.834,718.936
45,7 Jun 2027 10:06:29.401,7 Jun 2027 10:19:04.651,755.250
46,7 Jun 2027 11:46:25.088,7 Jun 2027 11:53:04.608,399.520
47,7 Jun 2027 21:45:44.988,7 Jun 2027 21:57:46.357,721.368
48,7 Jun 2027 23:21:27.290,7 Jun 2027 23:33:58.389,751.099
49,8 Jun 2027 00:58:13.913,8 Jun 2027 01:06:37.277,503.364
50,8 Jun 2027 07:10:40.812,8 Jun 2027 07:18:15.364,454.553
51,8 Jun 2027 08:42:53.766,8 Jun 2027 08:55:11.729,737.963
52,8 Jun 2027 10:18:42.042,8 Jun 2027 10:31:01.520,739.477
53,8 Jun 2027 11:59:48.900,8 Jun 2027 12:04:12.150,263.251
54,8 Jun 2027 20:24:20.905,8 Jun 2027 20:29:07.617,286.712
55,8 Jun 2027 21:57:40.507,8 Jun 2027 22:10:02.463,741.957
56,8 Jun 2027 23:33:31.433,8 Jun 2027 23:45:47.033,735.600
57,9 Jun 2027 01:10:29.513,9 Jun 2027 01:17:55.696,446.183
58,9 Jun 2027 07:21:59.981,9 Jun 2027 07:30:30.535,510.554
59,9 Jun 2027 08:54:42.846,9 Jun 2027 09:07:15.756,752.910
60,9 Jun 2027 10:30:58.722,9 Jun 2027 10:42:56.802,718.080
61,9 Jun 2027 20:35:32.813,9 Jun 2027 20:42:26.632,413.820
62,9 Jun 2027 22:09:37.570,9 Jun 2027 22:22:14.576,757.006
63,9 Jun 2027 23:45:36.446,9 Jun 2027 23:57:32.465,716.019
64,10 Jun 2027 01:22:49.243,10 Jun 2027 01:29:07.644,378.401
65,10 Jun 2027 07:33:24.139,10 Jun 2027 07:42:43.079,558.940
66,10 Jun 2027 09:06:35.124,10 Jun 2027 09:19:18.921,763.797
67,10 Jun 2027 10:43:19.825,10 Jun 2027 10:54:50.183,690.358
68,10 Jun 2027 20:47:03.000,10 Jun 2027 20:55:24.239,501.239
69,10 Jun 2027 22:21:35.964,10 Jun 2027 22:34:22.948,766.984
70,10 Jun 2027 23:57:42.368,11 Jun 2027 00:09:14.633,692.265
71,11 Jun 2027 01:35:16.216,11 Jun 2027 01:40:10.059,293.843
72,11 Jun 2027 07:44:52.601,11 Jun 2027 07:54:53.679,601.078
73,11 Jun 2027 09:18:30.603,11 Jun 2027 09:31:21.209,770.606
74,11 Jun 2027 10:55:45.875,11 Jun 2027 11:06:41.201,655.326
75,11 Jun 2027 20:58:42.158,11 Jun 2027 21:08:09.910,567.752
76,11 Jun 2027 22:33:35.515,11 Jun 2027 22:46:27.775,772.259
77,12 Jun 2027 00:09:49.287,12 Jun 2027 00:20:53.454,664.167
78,12 Jun 2027 01:48:01.187,12 Jun 2027 01:50:52.204,171.017
79,12 Jun 2027 07:56:24.960,12 Jun 2027 08:07:02.757,637.798
80,12 Jun 2027 09:30:29.327,12 Jun 2027 09:43:22.593,773.266
81,12 Jun 2027 11:08:17.618,12 Jun 2027 11:18:29.175,611.557
82,12 Jun 2027 21:10:26.884,12 Jun 2027 21:20:47.156,620.272
83,12 Jun 2027 22:45:36.106,12 Jun 2027 22:58:29.208,773.103
84,13 Jun 2027 00:21:57.312,13 Jun 2027 00:32:28.796,631.485
85,13 Jun 2027 06:37:49.167,13 Jun 2027 06:41:08.324,199.157
86,13 Jun 2027 08:08:00.951,13 Jun 2027 08:19:10.579,669.628
87,13 Jun 2027 09:42:31.365,13 Jun 2027 09:55:23.002,771.637
88,13 Jun 2027 11:20:56.244,13 Jun 2027 11:30:13.035,556.791
89,13 Jun 2027 21:22:15.487,13 Jun 2027 21:33:17.793,662.306
90,13 Jun 2027 22:57:37.657,13 Jun 2027 23:10:27.338,769.681
