dataset/facility_timing/facility_Facility-RioGallegos/RioGallegos-To-KinoSat_110304.csv

Acces,Start Time (UTCG),Stop Time (UTCG),Duration (sec)
1,1 Jun 2027 01:41:42.259,1 Jun 2027 01:47:29.436,347.177
2,1 Jun 2027 03:13:02.213,1 Jun 2027 03:24:48.801,706.588
3,1 Jun 2027 04:48:08.595,1 Jun 2027 05:00:50.340,761.745
4,1 Jun 2027 06:27:33.799,1 Jun 2027 06:35:07.745,453.946
5,1 Jun 2027 16:27:33.832,1 Jun 2027 16:39:19.233,705.402
6,1 Jun 2027 18:03:09.762,1 Jun 2027 18:15:48.435,758.674
7,1 Jun 2027 19:39:49.495,1 Jun 2027 19:48:45.050,535.555
8,2 Jun 2027 01:52:51.005,2 Jun 2027 01:59:51.113,420.107
9,2 Jun 2027 03:24:46.141,2 Jun 2027 03:36:53.936,727.794
10,2 Jun 2027 05:00:18.825,2 Jun 2027 05:12:47.778,748.953
11,2 Jun 2027 06:40:41.212,2 Jun 2027 06:46:29.321,348.109
12,2 Jun 2027 15:07:05.739,2 Jun 2027 15:09:32.706,146.966
13,2 Jun 2027 16:39:28.028,2 Jun 2027 16:51:37.711,729.683
14,2 Jun 2027 18:15:13.127,2 Jun 2027 18:27:38.908,745.781
15,2 Jun 2027 19:52:02.889,2 Jun 2027 20:00:06.836,483.946
16,3 Jun 2027 02:04:07.025,3 Jun 2027 02:12:07.803,480.778
17,3 Jun 2027 03:36:33.268,3 Jun 2027 03:48:58.196,744.928
18,3 Jun 2027 05:12:32.901,3 Jun 2027 05:24:43.778,730.877
19,3 Jun 2027 06:54:28.858,3 Jun 2027 06:57:13.843,164.985
20,3 Jun 2027 15:17:45.036,3 Jun 2027 15:23:25.758,340.722
21,3 Jun 2027 16:51:23.944,3 Jun 2027 17:03:52.016,748.073
22,3 Jun 2027 18:27:17.335,3 Jun 2027 18:39:26.212,728.877
23,3 Jun 2027 20:04:19.372,3 Jun 2027 20:11:23.199,423.827
24,4 Jun 2027 02:15:28.533,4 Jun 2027 02:24:21.343,532.810
25,4 Jun 2027 03:48:23.562,4 Jun 2027 04:01:01.601,758.039
26,4 Jun 2027 05:24:51.135,4 Jun 2027 05:36:38.089,706.955
27,4 Jun 2027 15:29:05.540,4 Jun 2027 15:36:34.415,448.875
28,4 Jun 2027 17:03:21.305,4 Jun 2027 17:16:02.458,761.153
29,4 Jun 2027 18:39:22.421,4 Jun 2027 18:51:10.322,707.902
30,4 Jun 2027 20:16:40.685,4 Jun 2027 20:22:32.433,351.748
31,5 Jun 2027 02:26:54.620,5 Jun 2027 02:36:32.641,578.020
32,5 Jun 2027 04:00:17.019,5 Jun 2027 04:13:04.162,767.143
33,5 Jun 2027 05:37:13.948,5 Jun 2027 05:48:30.337,676.389
34,5 Jun 2027 15:40:39.436,5 Jun 2027 15:49:26.647,527.211
35,5 Jun 2027 17:15:19.920,5 Jun 2027 17:28:09.268,769.348
36,5 Jun 2027 18:51:28.434,5 Jun 2027 19:02:51.176,682.742
37,5 Jun 2027 20:29:11.140,5 Jun 2027 20:33:30.268,259.127
38,6 Jun 2027 02:38:24.749,6 Jun 2027 02:48:42.238,617.488
39,6 Jun 2027 04:12:13.662,6 Jun 2027 04:25:05.844,772.182
40,6 Jun 2027 05:49:41.947,6 Jun 2027 06:00:19.986,638.039
41,6 Jun 2027 15:52:20.698,6 Jun 2027 16:02:08.609,587.911
42,6 Jun 2027 17:27:19.633,6 Jun 2027 17:40:12.630,772.998
43,6 Jun 2027 19:03:35.455,6 Jun 2027 19:14:28.673,653.218
44,6 Jun 2027 20:42:12.305,6 Jun 2027 20:43:55.181,102.876
45,7 Jun 2027 01:20:38.020,7 Jun 2027 01:22:08.480,90.459
46,7 Jun 2027 02:49:58.603,7 Jun 2027 03:00:50.462,651.858
47,7 Jun 2027 04:24:13.548,7 Jun 2027 04:37:06.602,773.054
48,7 Jun 2027 06:02:16.033,7 Jun 2027 06:12:06.228,590.195
49,7 Jun 2027 16:04:06.767,7 Jun 2027 16:14:42.977,636.210
50,7 Jun 2027 17:39:20.350,7 Jun 2027 17:52:12.657,772.307
51,7 Jun 2027 19:15:43.630,7 Jun 2027 19:26:02.680,619.050
52,8 Jun 2027 01:30:59.039,8 Jun 2027 01:35:13.446,254.407
53,8 Jun 2027 03:01:35.960,8 Jun 2027 03:12:57.531,681.570
54,8 Jun 2027 04:36:16.764,8 Jun 2027 04:49:06.360,769.595
55,8 Jun 2027 06:14:57.624,8 Jun 2027 06:23:47.741,530.118
56,8 Jun 2027 16:15:56.290,8 Jun 2027 16:27:11.214,674.925
57,8 Jun 2027 17:51:21.995,8 Jun 2027 18:04:09.435,767.440
58,8 Jun 2027 19:27:53.169,8 Jun 2027 19:37:32.978,579.810
59,9 Jun 2027 01:41:56.190,9 Jun 2027 01:47:44.484,348.295
60,9 Jun 2027 03:13:16.674,9 Jun 2027 03:25:03.586,706.912
61,9 Jun 2027 04:48:23.423,9 Jun 2027 05:01:05.025,761.602
62,9 Jun 2027 06:27:49.327,9 Jun 2027 06:35:22.033,452.706
63,9 Jun 2027 16:27:48.440,9 Jun 2027 16:39:34.239,705.799
64,9 Jun 2027 18:03:24.514,9 Jun 2027 18:16:03.030,758.516
65,9 Jun 2027 19:40:04.388,9 Jun 2027 19:48:59.242,534.854
66,10 Jun 2027 01:53:05.056,10 Jun 2027 02:00:06.071,421.015
67,10 Jun 2027 03:25:00.647,10 Jun 2027 03:37:08.709,728.062
68,10 Jun 2027 05:00:33.706,10 Jun 2027 05:13:02.444,748.738
69,10 Jun 2027 06:40:57.042,10 Jun 2027 06:46:43.350,346.308
70,10 Jun 2027 15:07:18.291,10 Jun 2027 15:09:50.048,151.758
71,10 Jun 2027 16:39:42.665,10 Jun 2027 16:51:52.654,729.989
72,10 Jun 2027 18:15:27.892,10 Jun 2027 18:27:53.457,745.565
73,10 Jun 2027 19:52:17.819,10 Jun 2027 20:00:20.957,483.138
74,11 Jun 2027 02:04:21.159,11 Jun 2027 02:12:22.714,481.555
75,11 Jun 2027 03:36:47.819,11 Jun 2027 03:49:12.958,745.139
76,11 Jun 2027 05:12:47.838,11 Jun 2027 05:24:58.422,730.584
77,11 Jun 2027 06:54:45.932,11 Jun 2027 06:57:26.676,160.744
78,11 Jun 2027 15:17:59.012,11 Jun 2027 15:23:41.632,342.620
79,11 Jun 2027 16:51:38.603,11 Jun 2027 17:04:06.901,748.298
80,11 Jun 2027 18:27:32.112,11 Jun 2027 18:39:40.715,728.603
81,11 Jun 2027 20:04:34.356,11 Jun 2027 20:11:37.233,422.877
82,12 Jun 2027 02:15:42.734,12 Jun 2027 02:24:36.219,533.485
83,12 Jun 2027 03:48:38.157,12 Jun 2027 04:01:16.351,758.194
84,12 Jun 2027 05:25:06.134,12 Jun 2027 05:36:52.707,706.573
85,12 Jun 2027 15:29:19.797,12 Jun 2027 15:36:49.966,450.169
86,12 Jun 2027 17:03:35.984,12 Jun 2027 17:16:17.290,761.306
87,12 Jun 2027 18:39:37.211,12 Jun 2027 18:51:24.781,707.569
88,12 Jun 2027 20:16:55.760,12 Jun 2027 20:22:46.344,350.584
89,13 Jun 2027 02:27:08.881,13 Jun 2027 02:36:47.493,578.611
90,13 Jun 2027 04:00:31.658,13 Jun 2027 04:13:18.901,767.242
91,13 Jun 2027 05:37:29.016,13 Jun 2027 05:48:44.922,675.906
92,13 Jun 2027 15:40:53.829,13 Jun 2027 15:49:42.020,528.191
93,13 Jun 2027 17:15:34.617,13 Jun 2027 17:28:24.049,769.433
94,13 Jun 2027 18:51:43.240,13 Jun 2027 19:03:05.588,682.348
95,13 Jun 2027 20:29:26.411,13 Jun 2027 20:33:43.950,257.540
