dataset/facility_timing/facility_Facility-RioGallegos/RioGallegos-To-KinoSat_110303.csv

Acces,Start Time (UTCG),Stop Time (UTCG),Duration (sec)
1,1 Jun 2027 01:50:35.186,1 Jun 2027 01:57:21.764,406.578
2,1 Jun 2027 03:22:23.647,1 Jun 2027 03:34:27.503,723.856
3,1 Jun 2027 04:57:50.993,1 Jun 2027 05:10:22.931,751.938
4,1 Jun 2027 06:38:00.332,1 Jun 2027 06:44:13.168,372.836
5,1 Jun 2027 15:05:31.220,1 Jun 2027 15:06:09.365,38.145
6,1 Jun 2027 16:37:03.582,1 Jun 2027 16:49:08.864,725.282
7,1 Jun 2027 18:12:46.911,1 Jun 2027 18:25:15.610,748.699
8,1 Jun 2027 19:49:34.506,1 Jun 2027 19:57:49.463,494.957
9,2 Jun 2027 02:01:49.930,2 Jun 2027 02:09:39.265,469.335
10,2 Jun 2027 03:34:10.132,2 Jun 2027 03:46:31.934,741.802
11,2 Jun 2027 05:10:04.276,2 Jun 2027 05:22:19.238,734.962
12,2 Jun 2027 06:51:34.248,2 Jun 2027 06:55:10.762,216.514
13,2 Jun 2027 15:15:30.442,2 Jun 2027 15:20:43.158,312.716
14,2 Jun 2027 16:48:59.172,2 Jun 2027 17:01:23.984,744.811
15,2 Jun 2027 18:24:50.946,2 Jun 2027 18:37:03.555,732.609
16,2 Jun 2027 20:01:50.266,2 Jun 2027 20:09:07.021,436.755
17,3 Jun 2027 02:13:10.424,3 Jun 2027 02:21:53.345,522.921
18,3 Jun 2027 03:45:59.792,3 Jun 2027 03:58:35.511,755.719
19,3 Jun 2027 05:22:21.639,3 Jun 2027 05:34:13.914,712.274
20,3 Jun 2027 15:26:46.631,3 Jun 2027 15:33:56.758,430.126
21,3 Jun 2027 17:00:56.260,3 Jun 2027 17:13:35.182,758.923
22,3 Jun 2027 18:36:55.853,3 Jun 2027 18:48:48.312,712.459
23,3 Jun 2027 20:14:10.391,3 Jun 2027 20:20:17.902,367.511
24,4 Jun 2027 02:24:35.638,4 Jun 2027 02:34:05.046,569.408
25,4 Jun 2027 03:57:52.610,4 Jun 2027 04:10:38.245,765.635
26,4 Jun 2027 05:34:43.486,4 Jun 2027 05:46:06.616,683.130
27,4 Jun 2027 15:38:18.510,4 Jun 2027 15:46:51.601,513.091
28,4 Jun 2027 17:12:54.633,4 Jun 2027 17:25:42.707,768.075
29,4 Jun 2027 18:49:01.671,4 Jun 2027 19:00:29.828,688.157
30,4 Jun 2027 20:26:38.370,4 Jun 2027 20:31:18.668,280.298
31,5 Jun 2027 02:36:04.986,5 Jun 2027 02:46:14.951,609.966
32,5 Jun 2027 04:09:48.610,5 Jun 2027 04:22:40.103,771.493
33,5 Jun 2027 05:47:10.382,5 Jun 2027 05:57:56.842,646.460
34,5 Jun 2027 15:49:58.552,5 Jun 2027 15:59:35.358,576.806
35,5 Jun 2027 17:24:54.139,5 Jun 2027 17:37:46.751,772.611
36,5 Jun 2027 19:01:08.486,5 Jun 2027 19:12:08.014,659.528
37,5 Jun 2027 20:39:27.707,5 Jun 2027 20:41:55.842,148.135
38,6 Jun 2027 02:47:38.111,6 Jun 2027 02:58:23.436,645.325
39,6 Jun 2027 04:21:47.838,6 Jun 2027 04:34:41.056,773.217
40,6 Jun 2027 05:59:43.148,6 Jun 2027 06:09:43.858,600.710
41,6 Jun 2027 16:01:43.791,6 Jun 2027 16:12:11.111,627.320
42,6 Jun 2027 17:36:54.658,6 Jun 2027 17:49:47.444,772.786
43,6 Jun 2027 19:13:16.410,6 Jun 2027 19:23:42.736,626.326
44,7 Jun 2027 01:28:48.663,7 Jun 2027 01:32:39.553,230.891
45,7 Jun 2027 02:59:14.776,7 Jun 2027 03:10:30.726,675.950
46,7 Jun 2027 04:33:50.374,7 Jun 2027 04:46:41.021,770.648
47,7 Jun 2027 06:12:23.075,7 Jun 2027 06:21:26.466,543.391
48,7 Jun 2027 16:13:32.697,7 Jun 2027 16:24:40.499,667.802
49,7 Jun 2027 17:48:56.121,7 Jun 2027 18:01:44.870,768.749
50,7 Jun 2027 19:25:25.653,7 Jun 2027 19:35:13.802,588.149
51,8 Jun 2027 01:39:42.187,8 Jun 2027 01:45:13.769,331.582
52,8 Jun 2027 03:10:54.823,8 Jun 2027 03:22:36.973,702.151
53,8 Jun 2027 04:45:56.326,8 Jun 2027 04:58:39.914,763.589
54,8 Jun 2027 06:25:12.433,8 Jun 2027 06:33:02.517,470.084
55,8 Jun 2027 16:25:24.365,8 Jun 2027 16:37:04.518,700.153
56,8 Jun 2027 18:00:58.467,8 Jun 2027 18:13:39.105,760.638
57,8 Jun 2027 19:37:36.498,8 Jun 2027 19:46:40.913,544.415
58,9 Jun 2027 01:50:49.217,9 Jun 2027 01:57:36.739,407.522
59,9 Jun 2027 03:22:38.147,9 Jun 2027 03:34:42.278,724.131
60,9 Jun 2027 04:58:05.863,9 Jun 2027 05:10:37.597,751.734
61,9 Jun 2027 06:38:16.082,9 Jun 2027 06:44:27.268,371.186
62,9 Jun 2027 15:05:38.250,9 Jun 2027 15:06:32.242,53.992
63,9 Jun 2027 16:37:18.209,9 Jun 2027 16:49:23.820,725.611
64,9 Jun 2027 18:13:01.673,9 Jun 2027 18:25:30.169,748.495
65,9 Jun 2027 19:49:49.430,9 Jun 2027 19:58:03.594,494.164
66,10 Jun 2027 02:02:04.051,10 Jun 2027 02:09:54.188,470.138
67,10 Jun 2027 03:34:24.677,10 Jun 2027 03:46:46.700,742.023
68,10 Jun 2027 05:10:19.197,10 Jun 2027 05:22:33.892,734.695
69,10 Jun 2027 06:51:50.770,10 Jun 2027 06:55:24.140,213.371
70,10 Jun 2027 15:15:44.315,10 Jun 2027 15:20:59.142,314.827
71,10 Jun 2027 16:49:13.831,10 Jun 2027 17:01:38.880,745.049
72,10 Jun 2027 18:25:05.726,10 Jun 2027 18:37:18.066,732.341
73,10 Jun 2027 20:02:05.238,10 Jun 2027 20:09:21.070,435.832
74,11 Jun 2027 02:13:24.614,11 Jun 2027 02:22:08.227,523.613
75,11 Jun 2027 03:46:14.373,11 Jun 2027 03:58:50.268,755.895
76,11 Jun 2027 05:22:36.622,11 Jun 2027 05:34:28.540,711.918
77,11 Jun 2027 15:27:00.847,11 Jun 2027 15:34:12.357,431.510
78,11 Jun 2027 17:01:10.935,11 Jun 2027 17:13:50.025,759.089
79,11 Jun 2027 18:37:10.641,11 Jun 2027 18:49:02.779,712.138
80,11 Jun 2027 20:14:25.440,11 Jun 2027 20:20:31.841,366.400
81,12 Jun 2027 02:24:49.891,12 Jun 2027 02:34:19.898,570.007
82,12 Jun 2027 03:58:07.241,12 Jun 2027 04:10:52.987,765.746
83,12 Jun 2027 05:34:58.539,12 Jun 2027 05:46:21.209,682.670
84,12 Jun 2027 15:38:32.885,12 Jun 2027 15:47:07.002,514.117
85,12 Jun 2027 17:13:09.329,12 Jun 2027 17:25:57.498,768.169
86,12 Jun 2027 18:49:16.473,12 Jun 2027 19:00:44.248,687.775
87,12 Jun 2027 20:26:53.586,12 Jun 2027 20:31:32.412,278.826
88,13 Jun 2027 02:36:19.290,13 Jun 2027 02:46:29.786,610.496
89,13 Jun 2027 04:10:03.286,13 Jun 2027 04:22:54.833,771.547
90,13 Jun 2027 05:47:25.512,13 Jun 2027 05:58:11.396,645.884
91,13 Jun 2027 15:50:13.020,13 Jun 2027 15:59:50.630,577.611
92,13 Jun 2027 17:25:08.849,13 Jun 2027 17:38:01.493,772.645
93,13 Jun 2027 19:01:23.303,13 Jun 2027 19:12:22.387,659.084
94,13 Jun 2027 20:39:43.565,13 Jun 2027 20:42:08.911,145.346
