dataset/facility_timing/facility_Facility-RioGallegos/RioGallegos-To-KinoSat_111306.csv

Acces,Start Time (UTCG),Stop Time (UTCG),Duration (sec)
1,1 Jun 2027 00:50:40.715,1 Jun 2027 00:59:36.217,535.501
2,1 Jun 2027 07:03:45.165,1 Jun 2027 07:10:38.980,413.815
3,1 Jun 2027 08:35:37.602,1 Jun 2027 08:47:43.922,726.320
4,1 Jun 2027 10:11:08.759,1 Jun 2027 10:23:38.906,750.147
5,1 Jun 2027 11:51:26.766,1 Jun 2027 11:57:24.401,357.636
6,1 Jun 2027 20:17:56.593,1 Jun 2027 20:20:20.962,144.369
7,1 Jun 2027 21:50:18.364,1 Jun 2027 22:02:27.913,729.549
8,1 Jun 2027 23:26:03.917,1 Jun 2027 23:38:29.839,745.921
9,2 Jun 2027 01:02:54.461,2 Jun 2027 01:10:57.990,483.529
10,2 Jun 2027 07:15:00.567,2 Jun 2027 07:22:56.424,475.858
11,2 Jun 2027 08:47:24.647,2 Jun 2027 08:59:48.501,743.854
12,2 Jun 2027 10:23:22.833,2 Jun 2027 10:35:35.228,732.394
13,2 Jun 2027 12:05:09.311,2 Jun 2027 12:08:14.398,185.086
14,2 Jun 2027 20:28:35.191,2 Jun 2027 20:34:15.354,340.163
15,2 Jun 2027 22:02:14.475,2 Jun 2027 22:14:42.535,748.059
16,2 Jun 2027 23:38:08.371,2 Jun 2027 23:50:17.313,728.941
17,3 Jun 2027 01:15:11.361,3 Jun 2027 01:22:14.254,422.893
18,3 Jun 2027 07:26:21.649,3 Jun 2027 07:35:10.544,528.895
19,3 Jun 2027 08:59:14.889,3 Jun 2027 09:11:52.212,757.323
20,3 Jun 2027 10:35:41.070,3 Jun 2027 10:47:29.865,708.794
21,3 Jun 2027 20:39:55.752,3 Jun 2027 20:47:24.565,448.813
22,3 Jun 2027 22:14:12.048,3 Jun 2027 22:26:53.259,761.210
23,3 Jun 2027 23:50:13.713,4 Jun 2027 00:02:01.569,707.855
24,4 Jun 2027 01:27:33.217,4 Jun 2027 01:33:23.239,350.023
25,4 Jun 2027 07:37:47.434,4 Jun 2027 07:47:22.321,574.887
26,4 Jun 2027 09:11:08.325,4 Jun 2027 09:23:55.070,766.745
27,4 Jun 2027 10:48:03.898,4 Jun 2027 10:59:22.453,678.555
28,4 Jun 2027 20:51:29.806,4 Jun 2027 21:00:17.218,527.412
29,4 Jun 2027 22:26:10.881,4 Jun 2027 22:39:00.319,769.438
30,5 Jun 2027 00:02:19.993,5 Jun 2027 00:13:42.530,682.537
31,5 Jun 2027 01:40:04.544,5 Jun 2027 01:44:20.466,255.922
32,5 Jun 2027 07:49:17.350,5 Jun 2027 07:59:32.334,614.984
33,5 Jun 2027 09:23:04.977,5 Jun 2027 09:35:57.039,772.062
34,5 Jun 2027 11:00:31.911,5 Jun 2027 11:11:12.463,640.552
35,5 Jun 2027 21:03:11.263,5 Jun 2027 21:12:59.542,588.279
36,5 Jun 2027 22:38:10.826,5 Jun 2027 22:51:03.903,773.077
37,6 Jun 2027 00:14:27.301,6 Jun 2027 00:25:20.103,652.803
38,6 Jun 2027 01:53:09.635,6 Jun 2027 01:54:41.701,92.066
39,6 Jun 2027 06:31:45.919,6 Jun 2027 06:32:43.806,57.887
40,6 Jun 2027 08:00:51.047,6 Jun 2027 08:11:40.937,649.890
41,6 Jun 2027 09:35:04.895,6 Jun 2027 09:47:58.081,773.186
42,6 Jun 2027 11:13:05.995,6 Jun 2027 11:22:59.101,593.106
43,6 Jun 2027 21:14:57.547,6 Jun 2027 21:25:34.226,636.678
44,6 Jun 2027 22:50:11.780,6 Jun 2027 23:03:04.122,772.343
45,7 Jun 2027 00:26:35.779,7 Jun 2027 00:36:54.135,618.356
46,7 Jun 2027 06:41:55.087,7 Jun 2027 06:46:00.766,245.679
47,7 Jun 2027 08:12:28.305,7 Jun 2027 08:23:48.346,680.041
48,7 Jun 2027 09:47:08.170,7 Jun 2027 09:59:58.116,769.946
49,7 Jun 2027 11:25:47.543,7 Jun 2027 11:34:41.066,533.523
50,7 Jun 2027 21:26:47.297,7 Jun 2027 21:38:02.739,675.442
51,7 Jun 2027 23:02:13.668,7 Jun 2027 23:15:01.064,767.397
52,8 Jun 2027 00:38:45.644,8 Jun 2027 00:48:24.413,578.768
53,8 Jun 2027 06:52:50.762,8 Jun 2027 06:58:33.440,342.678
54,8 Jun 2027 08:24:08.963,8 Jun 2027 08:35:54.719,705.756
55,8 Jun 2027 09:59:14.910,8 Jun 2027 10:11:57.054,762.144
56,8 Jun 2027 11:38:39.107,8 Jun 2027 11:46:15.932,456.826
57,8 Jun 2027 21:38:39.682,8 Jun 2027 21:50:26.011,706.330
58,8 Jun 2027 23:14:16.439,8 Jun 2027 23:26:54.795,758.356
59,9 Jun 2027 00:50:57.235,9 Jun 2027 00:59:50.596,533.361
60,9 Jun 2027 07:03:58.935,9 Jun 2027 07:10:55.905,416.970
61,9 Jun 2027 08:35:52.918,9 Jun 2027 08:48:00.143,727.225
62,9 Jun 2027 10:11:25.296,9 Jun 2027 10:23:54.742,749.446
63,9 Jun 2027 11:51:46.367,9 Jun 2027 11:57:38.153,351.786
64,9 Jun 2027 20:18:06.096,9 Jun 2027 20:20:45.015,158.919
65,9 Jun 2027 21:50:34.146,9 Jun 2027 22:02:44.645,730.499
66,9 Jun 2027 23:26:20.076,9 Jun 2027 23:38:45.327,745.251
67,10 Jun 2027 01:03:11.092,10 Jun 2027 01:11:12.149,481.057
68,10 Jun 2027 07:15:14.632,10 Jun 2027 07:23:13.155,478.523
69,10 Jun 2027 08:47:40.107,10 Jun 2027 09:00:04.679,744.572
70,10 Jun 2027 10:23:39.553,10 Jun 2027 10:35:50.990,731.437
71,10 Jun 2027 12:05:32.453,10 Jun 2027 12:08:24.755,172.301
72,10 Jun 2027 20:28:48.975,10 Jun 2027 20:34:34.976,346.001
73,10 Jun 2027 22:02:30.329,10 Jun 2027 22:14:59.082,748.753
74,10 Jun 2027 23:38:24.565,10 Jun 2027 23:50:32.661,728.096
75,11 Jun 2027 01:15:28.154,11 Jun 2027 01:22:28.139,419.985
76,11 Jun 2027 07:26:35.955,11 Jun 2027 07:35:27.142,531.187
77,11 Jun 2027 08:59:30.495,11 Jun 2027 09:12:08.347,757.852
78,11 Jun 2027 10:35:57.997,11 Jun 2027 10:47:45.537,707.541
79,11 Jun 2027 20:40:10.385,11 Jun 2027 20:47:43.193,452.808
80,11 Jun 2027 22:14:27.959,11 Jun 2027 22:27:09.635,761.676
81,11 Jun 2027 23:50:29.944,12 Jun 2027 00:02:16.766,706.822
82,12 Jun 2027 01:27:50.289,12 Jun 2027 01:33:36.738,346.449
83,12 Jun 2027 07:38:01.938,12 Jun 2027 07:47:38.823,576.885
84,12 Jun 2027 09:11:24.080,12 Jun 2027 09:24:11.161,767.081
85,12 Jun 2027 10:48:21.044,12 Jun 2027 10:59:38.016,676.972
86,12 Jun 2027 20:51:44.850,12 Jun 2027 21:00:35.293,530.443
87,12 Jun 2027 22:26:26.841,12 Jun 2027 22:39:16.535,769.694
88,13 Jun 2027 00:02:36.264,13 Jun 2027 00:13:57.578,681.314
89,13 Jun 2027 01:40:22.240,13 Jun 2027 01:44:33.238,250.997
90,13 Jun 2027 07:49:32.036,13 Jun 2027 07:59:48.760,616.724
91,13 Jun 2027 09:23:20.880,13 Jun 2027 09:36:13.087,772.206
92,13 Jun 2027 11:00:49.312,13 Jun 2027 11:11:27.888,638.576
93,13 Jun 2027 21:03:26.562,13 Jun 2027 21:13:17.230,590.668
94,13 Jun 2027 22:38:26.830,13 Jun 2027 22:51:19.963,773.134
