dataset/facility_timing/facility_Facility-RioGallegos/RioGallegos-To-KinoSat_110209.csv

Acces,Start Time (UTCG),Stop Time (UTCG),Duration (sec)
1,1 Jun 2027 00:58:43.420,1 Jun 2027 01:04:10.533,327.113
2,1 Jun 2027 02:29:54.000,1 Jun 2027 02:41:34.926,700.926
3,1 Jun 2027 04:04:54.228,1 Jun 2027 04:17:38.291,764.063
4,1 Jun 2027 05:44:08.005,1 Jun 2027 05:52:02.261,474.257
5,1 Jun 2027 15:44:22.933,1 Jun 2027 15:56:01.789,698.856
6,1 Jun 2027 17:19:56.632,1 Jun 2027 17:32:37.719,761.087
7,1 Jun 2027 18:56:34.320,1 Jun 2027 19:05:40.771,546.450
8,2 Jun 2027 01:09:49.937,2 Jun 2027 01:16:33.924,403.987
9,2 Jun 2027 02:41:37.167,2 Jun 2027 02:53:40.299,723.133
10,2 Jun 2027 04:17:03.605,2 Jun 2027 04:29:36.058,752.453
11,2 Jun 2027 05:57:10.776,2 Jun 2027 06:03:27.800,377.024
12,2 Jun 2027 15:56:16.706,2 Jun 2027 16:08:21.322,724.616
13,2 Jun 2027 17:31:59.817,2 Jun 2027 17:44:28.938,749.121
14,2 Jun 2027 19:08:47.179,2 Jun 2027 19:17:03.661,496.482
15,3 Jun 2027 01:21:04.432,3 Jun 2027 01:28:51.619,467.187
16,3 Jun 2027 02:53:23.551,3 Jun 2027 03:05:44.783,741.232
17,3 Jun 2027 04:29:16.773,3 Jun 2027 04:41:32.438,735.665
18,3 Jun 2027 06:10:42.858,3 Jun 2027 06:14:27.174,224.317
19,3 Jun 2027 14:34:45.089,3 Jun 2027 14:39:53.455,308.366
20,3 Jun 2027 16:08:12.270,3 Jun 2027 16:20:36.588,744.318
21,3 Jun 2027 17:44:03.856,3 Jun 2027 17:56:16.988,733.132
22,3 Jun 2027 19:21:02.876,3 Jun 2027 19:28:21.373,438.497
23,4 Jun 2027 01:32:24.737,4 Jun 2027 01:41:05.833,521.096
24,4 Jun 2027 03:05:13.110,4 Jun 2027 03:17:48.418,755.309
25,4 Jun 2027 04:41:34.010,4 Jun 2027 04:53:27.198,713.188
26,4 Jun 2027 14:46:00.579,4 Jun 2027 14:53:07.900,427.321
27,4 Jun 2027 16:20:09.333,4 Jun 2027 16:32:47.923,758.590
28,4 Jun 2027 17:56:08.757,4 Jun 2027 18:08:01.854,713.097
29,4 Jun 2027 19:33:22.888,4 Jun 2027 19:39:32.463,369.576
30,5 Jun 2027 01:43:49.797,5 Jun 2027 01:53:17.635,567.837
31,5 Jun 2027 03:17:05.838,5 Jun 2027 03:29:51.200,765.362
32,5 Jun 2027 04:53:55.723,5 Jun 2027 05:05:19.990,684.267
33,5 Jun 2027 14:57:32.159,5 Jun 2027 15:06:03.177,511.018
34,5 Jun 2027 16:32:07.690,5 Jun 2027 16:44:55.575,767.885
35,5 Jun 2027 18:08:14.572,5 Jun 2027 18:19:43.475,688.902
36,5 Jun 2027 19:45:50.622,5 Jun 2027 19:50:33.566,282.943
37,6 Jun 2027 01:55:19.010,6 Jun 2027 02:05:27.632,608.622
38,6 Jun 2027 03:29:01.741,6 Jun 2027 03:41:53.113,771.372
39,6 Jun 2027 05:06:22.467,6 Jun 2027 05:17:10.334,647.867
40,6 Jun 2027 15:09:12.035,6 Jun 2027 15:18:47.238,575.204
41,6 Jun 2027 16:44:07.187,6 Jun 2027 16:56:59.738,772.551
42,6 Jun 2027 18:20:21.383,6 Jun 2027 18:31:21.765,660.383
43,6 Jun 2027 19:58:38.939,6 Jun 2027 20:01:11.846,152.907
44,7 Jun 2027 02:06:52.012,7 Jun 2027 02:17:36.183,644.172
45,7 Jun 2027 03:41:00.881,7 Jun 2027 03:53:54.116,773.235
46,7 Jun 2027 05:18:55.041,7 Jun 2027 05:28:57.491,602.450
47,7 Jun 2027 15:20:57.167,7 Jun 2027 15:31:23.224,626.057
48,7 Jun 2027 16:56:07.699,7 Jun 2027 17:09:00.544,772.845
49,7 Jun 2027 18:32:29.301,7 Jun 2027 18:42:56.593,627.291
50,8 Jun 2027 00:48:04.506,8 Jun 2027 00:51:50.868,226.362
51,8 Jun 2027 02:18:28.567,8 Jun 2027 02:29:43.538,674.971
52,8 Jun 2027 03:53:03.323,8 Jun 2027 04:05:54.137,770.814
53,8 Jun 2027 05:31:34.729,8 Jun 2027 05:40:40.296,545.568
54,8 Jun 2027 15:32:46.002,8 Jun 2027 15:43:52.807,666.804
55,8 Jun 2027 17:08:09.157,8 Jun 2027 17:20:58.078,768.921
56,8 Jun 2027 18:44:38.534,8 Jun 2027 18:54:27.769,589.235
57,9 Jun 2027 00:58:57.274,9 Jun 2027 01:04:25.789,328.515
58,9 Jun 2027 02:30:08.511,9 Jun 2027 02:41:49.843,701.333
59,9 Jun 2027 04:05:09.180,9 Jun 2027 04:17:53.088,763.908
60,9 Jun 2027 05:44:23.754,9 Jun 2027 05:52:16.632,472.878
61,9 Jun 2027 15:44:37.621,9 Jun 2027 15:56:16.993,699.372
62,9 Jun 2027 17:20:11.502,9 Jun 2027 17:32:52.418,760.917
63,9 Jun 2027 18:56:49.361,9 Jun 2027 19:05:54.990,545.628
64,10 Jun 2027 01:10:03.949,10 Jun 2027 01:16:49.064,405.115
65,10 Jun 2027 02:41:51.739,10 Jun 2027 02:53:55.203,723.464
66,10 Jun 2027 04:17:18.619,10 Jun 2027 04:29:50.834,752.215
67,10 Jun 2027 05:57:26.828,10 Jun 2027 06:03:41.918,375.090
68,10 Jun 2027 14:25:10.452,10 Jun 2027 14:25:25.157,14.705
69,10 Jun 2027 15:56:31.430,10 Jun 2027 16:08:36.445,725.014
70,10 Jun 2027 17:32:14.708,10 Jun 2027 17:44:43.584,748.875
71,10 Jun 2027 19:09:02.264,10 Jun 2027 19:17:17.793,495.529
72,11 Jun 2027 01:21:18.553,11 Jun 2027 01:29:06.697,468.144
73,11 Jun 2027 02:53:38.178,11 Jun 2027 03:05:59.677,741.499
74,11 Jun 2027 04:29:31.850,11 Jun 2027 04:41:47.199,735.348
75,11 Jun 2027 06:10:59.772,11 Jun 2027 06:14:40.482,220.710
76,11 Jun 2027 14:34:58.882,11 Jun 2027 14:40:09.837,310.955
77,11 Jun 2027 16:08:27.028,11 Jun 2027 16:20:51.641,744.612
78,11 Jun 2027 17:44:18.761,11 Jun 2027 17:56:31.581,732.819
79,11 Jun 2027 19:21:18.022,11 Jun 2027 19:28:35.410,437.388
80,12 Jun 2027 01:32:38.940,12 Jun 2027 01:41:20.863,521.923
81,12 Jun 2027 03:05:27.786,12 Jun 2027 03:18:03.296,755.510
82,12 Jun 2027 04:41:49.164,12 Jun 2027 04:53:41.924,712.761
83,12 Jun 2027 14:46:14.799,12 Jun 2027 14:53:23.805,429.006
84,12 Jun 2027 16:20:24.116,12 Jun 2027 16:33:02.910,758.794
85,12 Jun 2027 17:56:23.678,12 Jun 2027 18:08:16.390,712.712
86,12 Jun 2027 19:33:38.130,12 Jun 2027 19:39:46.363,368.233
87,13 Jun 2027 01:44:04.073,13 Jun 2027 01:53:32.633,568.560
88,13 Jun 2027 03:17:20.568,13 Jun 2027 03:30:06.064,765.496
89,13 Jun 2027 04:54:10.957,13 Jun 2027 05:05:34.684,683.727
90,13 Jun 2027 14:57:46.574,13 Jun 2027 15:06:18.846,512.272
91,13 Jun 2027 16:32:22.499,13 Jun 2027 16:45:10.501,768.002
92,13 Jun 2027 18:08:29.511,13 Jun 2027 18:19:57.955,688.444
93,13 Jun 2027 19:46:06.062,13 Jun 2027 19:50:47.232,281.171
