dataset/facility_timing/facility_Facility-RioGallegos/RioGallegos-To-KinoSat_111902.csv

Acces,Start Time (UTCG),Stop Time (UTCG),Duration (sec)
1,1 Jun 2027 01:05:36.963,1 Jun 2027 01:18:29.942,772.978
2,1 Jun 2027 02:41:53.455,1 Jun 2027 02:52:49.616,656.162
3,1 Jun 2027 04:20:29.094,1 Jun 2027 04:22:21.053,111.959
4,1 Jun 2027 10:28:22.194,1 Jun 2027 10:39:05.020,642.826
5,1 Jun 2027 12:02:31.172,1 Jun 2027 12:15:24.571,773.399
6,1 Jun 2027 13:40:25.853,1 Jun 2027 13:50:29.531,603.678
7,1 Jun 2027 23:42:24.605,1 Jun 2027 23:52:56.516,631.911
8,2 Jun 2027 01:17:38.119,2 Jun 2027 01:30:30.845,772.727
9,2 Jun 2027 02:54:02.202,2 Jun 2027 03:04:24.140,621.937
10,2 Jun 2027 09:09:38.737,2 Jun 2027 09:13:15.005,216.268
11,2 Jun 2027 10:39:58.850,2 Jun 2027 10:51:13.058,674.208
12,2 Jun 2027 12:14:34.079,2 Jun 2027 12:27:25.132,771.053
13,2 Jun 2027 13:53:06.299,2 Jun 2027 14:02:12.811,546.512
14,2 Jun 2027 23:54:14.290,3 Jun 2027 00:05:26.130,671.840
15,3 Jun 2027 01:29:40.234,3 Jun 2027 01:42:28.423,768.189
16,3 Jun 2027 03:06:12.344,3 Jun 2027 03:15:54.868,582.524
17,3 Jun 2027 09:20:29.341,3 Jun 2027 09:25:52.674,323.334
18,3 Jun 2027 10:51:38.992,3 Jun 2027 11:03:20.003,701.011
19,3 Jun 2027 12:26:40.477,3 Jun 2027 12:39:24.592,764.114
20,3 Jun 2027 14:05:56.197,3 Jun 2027 14:13:49.556,473.359
21,4 Jun 2027 00:06:06.702,4 Jun 2027 00:17:50.354,703.651
22,4 Jun 2027 01:41:43.245,4 Jun 2027 01:54:22.732,759.487
23,4 Jun 2027 03:18:24.217,4 Jun 2027 03:27:21.467,537.251
24,4 Jun 2027 09:31:35.197,4 Jun 2027 09:38:17.411,402.214
25,4 Jun 2027 11:03:22.499,4 Jun 2027 11:15:25.967,723.469
26,4 Jun 2027 12:38:50.525,4 Jun 2027 12:51:22.832,752.307
27,4 Jun 2027 14:19:00.354,4 Jun 2027 14:25:15.107,374.753
28,4 Jun 2027 22:45:46.394,4 Jun 2027 22:47:53.162,126.769
29,5 Jun 2027 00:18:01.273,5 Jun 2027 00:30:09.837,728.565
30,5 Jun 2027 01:53:47.139,5 Jun 2027 02:06:13.811,746.672
31,5 Jun 2027 03:30:38.355,5 Jun 2027 03:38:43.400,485.045
32,5 Jun 2027 09:42:49.435,5 Jun 2027 09:50:36.099,466.664
33,5 Jun 2027 11:15:09.293,5 Jun 2027 11:27:31.015,741.722
34,5 Jun 2027 12:51:04.443,5 Jun 2027 13:03:19.652,735.210
35,5 Jun 2027 14:32:35.083,5 Jun 2027 14:36:13.301,218.218
36,5 Jun 2027 22:56:19.576,5 Jun 2027 23:01:53.969,334.393
37,6 Jun 2027 00:29:57.596,6 Jun 2027 00:42:25.045,747.449
38,6 Jun 2027 02:05:51.899,6 Jun 2027 02:18:01.647,729.748
39,6 Jun 2027 03:42:55.693,6 Jun 2027 03:49:59.745,424.052
40,6 Jun 2027 09:54:09.710,6 Jun 2027 10:02:51.139,521.429
41,6 Jun 2027 11:26:59.335,6 Jun 2027 11:39:35.186,755.851
42,6 Jun 2027 13:03:22.519,6 Jun 2027 13:15:14.812,712.293
43,6 Jun 2027 23:07:39.456,6 Jun 2027 23:15:04.814,445.358
44,7 Jun 2027 00:41:55.406,7 Jun 2027 00:54:36.298,760.892
45,7 Jun 2027 02:17:57.562,7 Jun 2027 02:29:46.211,708.650
46,7 Jun 2027 03:55:18.072,7 Jun 2027 04:01:08.693,350.621
47,7 Jun 2027 10:05:34.885,7 Jun 2027 10:15:03.667,568.782
48,7 Jun 2027 11:38:52.618,7 Jun 2027 11:51:38.482,765.864
49,7 Jun 2027 13:15:45.175,7 Jun 2027 13:27:07.955,682.780
50,7 Jun 2027 23:19:13.356,7 Jun 2027 23:27:58.523,525.166
51,8 Jun 2027 00:53:54.495,8 Jun 2027 01:06:43.836,769.341
52,8 Jun 2027 02:30:04.181,8 Jun 2027 02:41:27.441,683.260
53,8 Jun 2027 04:07:50.124,8 Jun 2027 04:12:05.648,255.524
54,8 Jun 2027 10:17:04.331,8 Jun 2027 10:27:14.320,609.989
55,8 Jun 2027 11:50:49.149,8 Jun 2027 12:03:40.879,771.731
56,8 Jun 2027 13:28:12.986,8 Jun 2027 13:38:58.580,645.594
57,8 Jun 2027 23:30:54.863,8 Jun 2027 23:40:41.665,586.802
58,9 Jun 2027 01:05:54.715,9 Jun 2027 01:18:47.850,773.135
59,9 Jun 2027 02:42:11.840,9 Jun 2027 02:53:05.230,653.389
60,9 Jun 2027 04:20:57.676,9 Jun 2027 04:22:24.832,87.156
61,9 Jun 2027 10:28:37.669,9 Jun 2027 10:39:23.489,645.820
62,9 Jun 2027 12:02:48.981,9 Jun 2027 12:15:42.351,773.370
63,9 Jun 2027 13:40:46.803,9 Jun 2027 13:50:45.915,599.111
64,9 Jun 2027 23:42:41.290,9 Jun 2027 23:53:17.032,635.742
65,10 Jun 2027 01:17:55.957,10 Jun 2027 01:30:48.455,772.498
66,10 Jun 2027 02:54:20.696,10 Jun 2027 03:04:39.433,618.737
67,10 Jun 2027 09:09:49.160,10 Jun 2027 09:13:37.095,227.934
68,10 Jun 2027 10:40:14.645,10 Jun 2027 10:51:31.418,676.774
69,10 Jun 2027 12:14:52.190,10 Jun 2027 12:27:42.814,770.624
70,10 Jun 2027 13:53:27.970,10 Jun 2027 14:02:28.716,540.746
71,10 Jun 2027 23:54:31.242,11 Jun 2027 00:05:46.140,674.898
72,11 Jun 2027 01:29:58.149,11 Jun 2027 01:42:45.745,767.596
73,11 Jun 2027 03:06:30.968,11 Jun 2027 03:16:09.816,578.848
74,11 Jun 2027 09:20:41.758,11 Jun 2027 09:26:12.971,331.212
75,11 Jun 2027 10:51:55.088,11 Jun 2027 11:03:38.269,703.181
76,11 Jun 2027 12:26:58.902,11 Jun 2027 12:39:42.168,763.266
77,11 Jun 2027 14:06:18.876,11 Jun 2027 14:14:04.719,465.843
78,12 Jun 2027 00:06:23.853,12 Jun 2027 00:18:09.927,706.074
79,12 Jun 2027 01:42:01.234,12 Jun 2027 01:54:39.773,758.539
80,12 Jun 2027 03:18:43.009,12 Jun 2027 03:27:36.036,533.027
81,12 Jun 2027 09:31:48.530,12 Jun 2027 09:38:36.991,408.461
82,12 Jun 2027 11:03:38.887,12 Jun 2027 11:15:44.146,725.259
83,12 Jun 2027 12:39:09.279,12 Jun 2027 12:51:40.288,751.009
84,12 Jun 2027 14:19:24.740,12 Jun 2027 14:25:28.835,364.095
85,12 Jun 2027 22:45:50.369,12 Jun 2027 22:48:27.703,157.333
86,13 Jun 2027 00:18:18.583,13 Jun 2027 00:30:29.022,730.440
87,13 Jun 2027 01:54:05.201,13 Jun 2027 02:06:30.566,745.365
88,13 Jun 2027 03:30:57.373,13 Jun 2027 03:38:57.530,480.157
89,13 Jun 2027 09:43:03.375,13 Jun 2027 09:50:55.277,471.902
90,13 Jun 2027 11:15:25.973,13 Jun 2027 11:27:49.112,743.139
91,13 Jun 2027 12:51:23.551,13 Jun 2027 13:03:36.969,733.418
92,13 Jun 2027 14:33:04.746,13 Jun 2027 14:36:22.046,197.299
93,13 Jun 2027 22:56:32.896,13 Jun 2027 23:02:18.869,345.973
