dataset/facility_timing/facility_Facility-RioGallegos/RioGallegos-To-KinoSat_110610.csv

Acces,Start Time (UTCG),Stop Time (UTCG),Duration (sec)
1,1 Jun 2027 03:41:40.205,1 Jun 2027 03:48:30.795,410.590
2,1 Jun 2027 05:13:30.619,1 Jun 2027 05:25:35.617,724.998
3,1 Jun 2027 06:48:59.467,1 Jun 2027 07:01:30.563,751.096
4,1 Jun 2027 08:29:12.417,1 Jun 2027 08:35:18.369,365.952
5,1 Jun 2027 16:56:17.629,1 Jun 2027 16:57:40.578,82.948
6,1 Jun 2027 18:28:11.144,1 Jun 2027 18:40:17.628,726.483
7,1 Jun 2027 20:03:54.913,1 Jun 2027 20:16:22.850,747.937
8,1 Jun 2027 21:40:43.030,1 Jun 2027 21:48:55.125,492.095
9,2 Jun 2027 03:52:55.329,2 Jun 2027 04:00:48.038,472.708
10,2 Jun 2027 05:25:17.278,2 Jun 2027 05:37:39.990,742.712
11,2 Jun 2027 07:01:12.961,2 Jun 2027 07:13:26.773,733.813
12,2 Jun 2027 08:42:49.640,2 Jun 2027 08:46:12.810,203.169
13,2 Jun 2027 17:06:35.270,2 Jun 2027 17:11:55.741,320.470
14,2 Jun 2027 18:40:06.811,2 Jun 2027 18:52:32.509,745.698
15,2 Jun 2027 20:15:58.985,2 Jun 2027 20:28:10.612,731.627
16,2 Jun 2027 21:52:58.952,2 Jun 2027 22:00:12.380,433.428
17,3 Jun 2027 04:04:16.120,3 Jun 2027 04:13:01.938,525.818
18,3 Jun 2027 05:37:07.108,3 Jun 2027 05:49:43.505,756.397
19,3 Jun 2027 07:13:30.552,3 Jun 2027 07:25:21.331,710.779
20,3 Jun 2027 17:17:52.693,3 Jun 2027 17:25:07.909,435.215
21,3 Jun 2027 18:52:03.961,3 Jun 2027 19:04:43.491,759.529
22,3 Jun 2027 20:28:03.924,3 Jun 2027 20:39:55.195,711.271
23,3 Jun 2027 22:05:19.345,3 Jun 2027 22:11:22.857,363.512
24,4 Jun 2027 04:15:41.588,4 Jun 2027 04:25:13.504,571.916
25,4 Jun 2027 05:49:00.099,4 Jun 2027 06:01:46.177,766.078
26,4 Jun 2027 07:25:52.661,4 Jun 2027 07:37:13.894,681.233
27,4 Jun 2027 17:29:25.128,4 Jun 2027 17:38:02.010,516.881
28,4 Jun 2027 19:04:02.390,4 Jun 2027 19:16:50.812,768.422
29,4 Jun 2027 20:40:09.777,4 Jun 2027 20:51:36.531,686.754
30,4 Jun 2027 22:17:47.881,4 Jun 2027 22:22:22.926,275.045
31,5 Jun 2027 04:27:11.156,5 Jun 2027 04:37:23.306,612.151
32,5 Jun 2027 06:00:56.271,5 Jun 2027 06:13:47.971,771.700
33,5 Jun 2027 07:38:19.847,5 Jun 2027 07:49:03.947,644.099
34,5 Jun 2027 17:41:05.495,5 Jun 2027 17:50:45.262,579.767
35,5 Jun 2027 19:16:01.938,5 Jun 2027 19:28:54.662,772.724
36,5 Jun 2027 20:52:16.631,5 Jun 2027 21:03:14.533,657.903
37,5 Jun 2027 22:30:39.535,5 Jun 2027 22:32:57.655,138.119
38,6 Jun 2027 03:10:01.038,6 Jun 2027 03:10:15.273,14.236
39,6 Jun 2027 04:38:44.485,6 Jun 2027 04:49:31.702,647.217
40,6 Jun 2027 06:12:55.674,6 Jun 2027 06:25:48.854,773.180
41,6 Jun 2027 07:50:52.965,6 Jun 2027 08:00:50.735,597.770
42,6 Jun 2027 17:52:50.945,6 Jun 2027 18:03:20.624,629.679
43,6 Jun 2027 19:28:02.495,6 Jun 2027 19:40:55.168,772.672
44,6 Jun 2027 21:04:24.600,6 Jun 2027 21:14:49.065,624.466
45,7 Jun 2027 03:19:51.978,7 Jun 2027 03:23:49.994,238.016
46,7 Jun 2027 04:50:21.342,7 Jun 2027 05:01:38.910,677.569
47,7 Jun 2027 06:24:58.388,7 Jun 2027 06:37:48.751,770.363
48,7 Jun 2027 08:03:33.332,7 Jun 2027 08:12:33.031,539.699
49,7 Jun 2027 18:04:40.006,7 Jun 2027 18:15:49.688,669.682
50,7 Jun 2027 19:40:03.995,7 Jun 2027 19:52:52.413,768.418
51,7 Jun 2027 21:16:33.897,7 Jun 2027 21:26:19.932,586.035
52,8 Jun 2027 03:30:46.645,8 Jun 2027 03:36:23.176,336.531
53,8 Jun 2027 05:02:01.571,8 Jun 2027 05:13:45.090,703.519
54,8 Jun 2027 06:37:04.525,8 Jun 2027 06:49:47.570,763.045
55,8 Jun 2027 08:16:23.315,8 Jun 2027 08:24:08.586,465.272
56,8 Jun 2027 18:16:31.794,8 Jun 2027 18:28:13.428,701.633
57,8 Jun 2027 19:52:06.370,8 Jun 2027 20:04:46.471,760.102
58,8 Jun 2027 21:28:44.816,8 Jun 2027 21:37:46.828,542.012
59,9 Jun 2027 03:41:54.227,9 Jun 2027 03:48:45.704,411.477
60,9 Jun 2027 05:13:45.070,9 Jun 2027 05:25:50.329,725.259
61,9 Jun 2027 06:49:14.256,9 Jun 2027 07:01:45.166,750.909
62,9 Jun 2027 08:29:28.030,9 Jun 2027 08:35:32.419,364.389
63,9 Jun 2027 16:56:28.909,9 Jun 2027 16:57:59.033,90.125
64,9 Jun 2027 18:28:25.723,9 Jun 2027 18:40:32.481,726.758
65,9 Jun 2027 20:04:09.605,9 Jun 2027 20:16:37.361,747.755
66,9 Jun 2027 21:40:57.847,9 Jun 2027 21:49:09.268,491.421
67,10 Jun 2027 03:53:09.434,10 Jun 2027 04:01:02.888,473.454
68,10 Jun 2027 05:25:31.772,10 Jun 2027 05:37:54.688,742.916
69,10 Jun 2027 07:01:27.802,10 Jun 2027 07:13:41.354,733.552
70,10 Jun 2027 08:43:06.052,10 Jun 2027 08:46:26.101,200.048
71,10 Jun 2027 17:06:49.241,10 Jun 2027 17:12:11.460,322.220
72,10 Jun 2027 18:40:21.418,10 Jun 2027 18:52:47.310,745.893
73,10 Jun 2027 20:16:13.686,10 Jun 2027 20:28:25.083,731.397
74,10 Jun 2027 21:53:13.805,10 Jun 2027 22:00:26.459,432.654
75,11 Jun 2027 04:04:30.295,11 Jun 2027 04:13:16.754,526.459
76,11 Jun 2027 05:37:21.637,11 Jun 2027 05:49:58.193,756.556
77,11 Jun 2027 07:13:45.448,11 Jun 2027 07:25:35.890,710.442
78,11 Jun 2027 17:18:06.935,11 Jun 2027 17:25:23.314,436.379
79,11 Jun 2027 18:52:18.580,11 Jun 2027 19:04:58.248,759.668
80,11 Jun 2027 20:28:18.630,11 Jun 2027 20:40:09.625,710.995
81,11 Jun 2027 22:05:34.261,11 Jun 2027 22:11:36.837,362.575
82,12 Jun 2027 04:15:55.813,12 Jun 2027 04:25:28.291,572.478
83,12 Jun 2027 05:49:14.672,12 Jun 2027 06:02:00.849,766.177
84,12 Jun 2027 07:26:07.618,12 Jun 2027 07:37:28.420,680.802
85,12 Jun 2027 17:29:39.496,12 Jun 2027 17:38:17.250,517.754
86,12 Jun 2027 19:04:17.022,12 Jun 2027 19:17:05.524,768.501
87,12 Jun 2027 20:40:24.493,12 Jun 2027 20:51:50.920,686.427
88,12 Jun 2027 22:18:02.938,12 Jun 2027 22:22:36.740,273.802
89,13 Jun 2027 04:27:25.431,13 Jun 2027 04:37:38.073,612.642
90,13 Jun 2027 06:01:10.885,13 Jun 2027 06:14:02.630,771.746
91,13 Jun 2027 07:38:34.874,13 Jun 2027 07:49:18.434,643.560
92,13 Jun 2027 17:41:19.939,13 Jun 2027 17:51:00.390,580.451
93,13 Jun 2027 19:16:16.583,13 Jun 2027 19:29:09.329,772.747
94,13 Jun 2027 20:52:31.358,13 Jun 2027 21:03:28.881,657.523
95,13 Jun 2027 22:30:55.186,13 Jun 2027 22:33:10.846,135.660
