dataset/facility_timing/facility_Facility-RioGallegos/RioGallegos-To-KinoSat_110702.csv

Acces,Start Time (UTCG),Stop Time (UTCG),Duration (sec)
1,1 Jun 2027 04:51:55.696,1 Jun 2027 05:01:38.905,583.209
2,1 Jun 2027 06:25:21.413,1 Jun 2027 06:38:09.402,767.989
3,1 Jun 2027 08:02:22.104,1 Jun 2027 08:13:34.192,672.087
4,1 Jun 2027 18:05:41.786,1 Jun 2027 18:14:37.299,535.513
5,1 Jun 2027 19:40:24.818,1 Jun 2027 19:53:14.856,770.038
6,1 Jun 2027 21:16:34.225,1 Jun 2027 21:27:53.565,679.340
7,1 Jun 2027 22:54:21.005,1 Jun 2027 22:58:26.301,245.296
8,2 Jun 2027 05:03:26.301,2 Jun 2027 05:13:48.321,622.019
9,2 Jun 2027 06:37:18.462,2 Jun 2027 06:50:10.973,772.512
10,2 Jun 2027 08:14:50.805,2 Jun 2027 08:25:23.464,632.659
11,2 Jun 2027 18:17:23.752,2 Jun 2027 18:27:18.216,594.464
12,2 Jun 2027 19:52:24.660,2 Jun 2027 20:05:17.802,773.142
13,2 Jun 2027 21:28:41.381,2 Jun 2027 21:39:30.651,649.270
14,2 Jun 2027 23:07:36.276,2 Jun 2027 23:08:36.841,60.564
15,3 Jun 2027 03:45:24.440,3 Jun 2027 03:47:27.717,123.276
16,3 Jun 2027 05:15:00.599,3 Jun 2027 05:25:56.399,655.800
17,3 Jun 2027 06:49:18.754,3 Jun 2027 07:02:11.618,772.864
18,3 Jun 2027 08:27:25.734,3 Jun 2027 08:37:09.211,583.476
19,3 Jun 2027 18:29:10.309,3 Jun 2027 18:39:51.767,641.458
20,3 Jun 2027 20:04:25.496,3 Jun 2027 20:17:17.425,771.929
21,3 Jun 2027 21:40:49.709,3 Jun 2027 21:51:04.211,614.502
22,4 Jun 2027 03:55:55.238,4 Jun 2027 04:00:23.176,267.938
23,4 Jun 2027 05:26:38.380,4 Jun 2027 05:38:03.336,684.956
24,4 Jun 2027 07:01:22.392,4 Jun 2027 07:14:11.245,768.853
25,4 Jun 2027 08:40:08.407,4 Jun 2027 08:48:49.991,521.584
26,4 Jun 2027 18:41:00.194,4 Jun 2027 18:52:19.318,679.124
27,4 Jun 2027 20:16:27.251,4 Jun 2027 20:29:13.808,766.557
28,4 Jun 2027 21:52:59.433,4 Jun 2027 22:02:34.034,574.602
29,5 Jun 2027 04:06:54.321,5 Jun 2027 04:12:52.564,358.242
30,5 Jun 2027 05:38:19.502,5 Jun 2027 05:50:09.271,709.769
31,5 Jun 2027 07:13:29.491,5 Jun 2027 07:26:09.764,760.273
32,5 Jun 2027 08:53:01.669,5 Jun 2027 09:00:23.095,441.426
33,5 Jun 2027 18:52:52.628,5 Jun 2027 19:04:41.748,709.120
34,5 Jun 2027 20:28:29.877,5 Jun 2027 20:41:07.014,757.137
35,5 Jun 2027 22:05:10.888,5 Jun 2027 22:13:59.772,528.884
36,6 Jun 2027 04:18:04.238,6 Jun 2027 04:25:13.384,429.145
37,6 Jun 2027 05:50:03.874,6 Jun 2027 06:02:14.284,730.410
38,6 Jun 2027 07:25:40.240,6 Jun 2027 07:38:07.016,746.776
39,6 Jun 2027 09:06:12.228,6 Jun 2027 09:11:41.948,329.721
40,6 Jun 2027 17:32:07.528,6 Jun 2027 17:35:15.002,187.474
41,6 Jun 2027 19:04:47.085,6 Jun 2027 19:16:59.627,732.542
42,6 Jun 2027 20:40:33.358,6 Jun 2027 20:52:57.051,743.693
43,6 Jun 2027 22:17:24.636,6 Jun 2027 22:25:20.882,476.246
44,7 Jun 2027 04:29:21.098,7 Jun 2027 04:37:29.560,488.462
45,7 Jun 2027 06:01:51.439,7 Jun 2027 06:14:18.426,746.987
46,7 Jun 2027 07:37:54.871,7 Jun 2027 07:50:02.798,727.927
47,7 Jun 2027 09:20:15.362,7 Jun 2027 09:22:11.433,116.070
48,7 Jun 2027 17:42:58.067,7 Jun 2027 17:48:56.363,358.296
49,7 Jun 2027 19:16:43.211,7 Jun 2027 19:29:13.385,750.175
50,7 Jun 2027 20:52:37.683,7 Jun 2027 21:04:43.920,726.236
51,7 Jun 2027 22:29:41.645,7 Jun 2027 22:36:36.405,414.760
52,8 Jun 2027 04:40:43.280,8 Jun 2027 04:49:42.748,539.468
53,8 Jun 2027 06:13:42.169,8 Jun 2027 06:26:21.714,759.545
54,8 Jun 2027 07:50:13.710,8 Jun 2027 08:01:56.847,703.137
55,8 Jun 2027 17:54:21.075,8 Jun 2027 18:02:02.087,461.012
56,8 Jun 2027 19:28:40.758,8 Jun 2027 19:41:23.315,762.557
57,8 Jun 2027 21:04:42.891,8 Jun 2027 21:16:27.586,704.695
58,8 Jun 2027 22:42:03.845,8 Jun 2027 22:47:44.432,340.587
59,9 Jun 2027 04:52:09.953,9 Jun 2027 05:01:53.784,583.831
60,9 Jun 2027 06:25:36.065,9 Jun 2027 06:38:24.153,768.087
61,9 Jun 2027 08:02:37.204,9 Jun 2027 08:13:48.766,671.562
62,9 Jun 2027 18:05:56.224,9 Jun 2027 18:14:52.661,536.438
63,9 Jun 2027 19:40:39.529,9 Jun 2027 19:53:29.640,770.112
64,9 Jun 2027 21:16:49.033,9 Jun 2027 21:28:07.986,678.954
65,9 Jun 2027 22:54:36.277,9 Jun 2027 22:58:39.982,243.705
66,10 Jun 2027 05:03:40.614,10 Jun 2027 05:14:03.175,622.562
67,10 Jun 2027 06:37:33.160,10 Jun 2027 06:50:25.709,772.549
68,10 Jun 2027 08:15:05.988,10 Jun 2027 08:25:37.993,632.006
69,10 Jun 2027 18:17:38.262,10 Jun 2027 18:27:33.459,595.197
70,10 Jun 2027 19:52:39.384,10 Jun 2027 20:05:32.538,773.153
71,10 Jun 2027 21:28:56.201,10 Jun 2027 21:39:45.019,648.818
72,10 Jun 2027 23:07:54.081,10 Jun 2027 23:08:47.951,53.870
73,11 Jun 2027 03:45:37.182,11 Jun 2027 03:47:43.914,126.733
74,11 Jun 2027 05:15:14.964,11 Jun 2027 05:26:11.235,656.271
75,11 Jun 2027 06:49:33.500,11 Jun 2027 07:02:26.335,772.836
76,11 Jun 2027 08:27:41.017,11 Jun 2027 08:37:23.674,582.656
77,11 Jun 2027 18:29:24.871,11 Jun 2027 18:40:06.917,642.046
78,11 Jun 2027 20:04:40.232,11 Jun 2027 20:17:32.114,771.882
79,11 Jun 2027 21:41:04.543,11 Jun 2027 21:51:18.527,613.984
80,12 Jun 2027 03:56:08.915,12 Jun 2027 04:00:38.465,269.550
81,12 Jun 2027 05:26:52.794,12 Jun 2027 05:38:18.154,685.360
82,12 Jun 2027 07:01:37.187,12 Jun 2027 07:14:25.945,768.758
83,12 Jun 2027 08:40:23.821,12 Jun 2027 08:49:04.362,520.540
84,12 Jun 2027 18:41:14.796,12 Jun 2027 18:52:34.389,679.593
85,12 Jun 2027 20:16:41.998,12 Jun 2027 20:29:28.450,766.452
86,12 Jun 2027 21:53:14.286,12 Jun 2027 22:02:48.296,574.011
87,13 Jun 2027 04:07:08.221,13 Jun 2027 04:13:07.661,359.440
88,13 Jun 2027 05:38:33.965,13 Jun 2027 05:50:24.073,710.109
89,13 Jun 2027 07:13:44.338,13 Jun 2027 07:26:24.445,760.107
90,13 Jun 2027 08:53:17.276,13 Jun 2027 09:00:37.314,440.039
91,13 Jun 2027 18:53:07.260,13 Jun 2027 19:04:56.750,709.490
92,13 Jun 2027 20:28:44.634,13 Jun 2027 20:41:21.610,756.976
93,13 Jun 2027 22:05:25.765,13 Jun 2027 22:14:13.975,528.210
