dataset/facility_timing/facility_Facility-RioGallegos/RioGallegos-To-KinoSat_111904.csv

Acces,Start Time (UTCG),Stop Time (UTCG),Duration (sec)
1,1 Jun 2027 00:46:28.812,1 Jun 2027 00:59:13.030,764.218
2,1 Jun 2027 02:22:33.495,1 Jun 2027 02:34:14.234,700.739
3,1 Jun 2027 04:00:01.085,1 Jun 2027 04:05:23.419,322.334
4,1 Jun 2027 10:09:58.229,1 Jun 2027 10:19:41.189,582.960
5,1 Jun 2027 11:43:24.962,1 Jun 2027 11:56:13.216,768.253
6,1 Jun 2027 13:20:27.582,1 Jun 2027 13:31:39.040,671.458
7,1 Jun 2027 23:23:40.406,1 Jun 2027 23:32:47.604,547.198
8,2 Jun 2027 00:58:28.292,2 Jun 2027 01:11:19.391,771.099
9,2 Jun 2027 02:34:40.450,2 Jun 2027 02:45:54.342,673.892
10,2 Jun 2027 04:12:38.968,2 Jun 2027 04:16:13.791,214.823
11,2 Jun 2027 10:21:28.987,2 Jun 2027 10:31:51.320,622.333
12,2 Jun 2027 11:55:22.574,2 Jun 2027 12:08:15.319,772.745
13,2 Jun 2027 13:32:57.255,2 Jun 2027 13:43:28.685,631.430
14,2 Jun 2027 23:35:23.751,2 Jun 2027 23:45:27.955,604.204
15,3 Jun 2027 01:10:28.862,3 Jun 2027 01:23:22.269,773.407
16,3 Jun 2027 02:46:48.487,3 Jun 2027 02:57:30.968,642.481
17,3 Jun 2027 09:03:30.760,3 Jun 2027 09:05:25.573,114.813
18,3 Jun 2027 10:33:03.550,3 Jun 2027 10:44:00.059,656.508
19,3 Jun 2027 12:07:23.507,3 Jun 2027 12:20:16.466,772.959
20,3 Jun 2027 13:45:33.313,3 Jun 2027 13:55:14.705,581.393
21,3 Jun 2027 23:47:11.463,3 Jun 2027 23:58:01.122,649.659
22,4 Jun 2027 01:22:30.426,4 Jun 2027 01:35:21.772,771.346
23,4 Jun 2027 02:58:57.784,4 Jun 2027 03:09:03.940,606.156
24,4 Jun 2027 09:13:58.475,4 Jun 2027 09:18:24.820,266.345
25,4 Jun 2027 10:44:41.683,4 Jun 2027 10:56:07.625,685.942
26,4 Jun 2027 12:19:27.860,4 Jun 2027 12:32:16.580,768.720
27,4 Jun 2027 13:58:17.342,4 Jun 2027 14:06:55.601,518.259
28,4 Jun 2027 23:59:02.375,5 Jun 2027 00:10:28.393,686.018
29,5 Jun 2027 01:34:32.924,5 Jun 2027 01:47:17.982,765.058
30,5 Jun 2027 03:11:08.599,5 Jun 2027 03:20:32.989,564.390
31,5 Jun 2027 09:24:56.986,5 Jun 2027 09:30:55.546,358.560
32,5 Jun 2027 10:56:23.237,5 Jun 2027 11:08:14.149,710.912
33,5 Jun 2027 12:31:35.757,5 Jun 2027 12:44:15.554,759.797
34,5 Jun 2027 14:11:12.345,5 Jun 2027 14:18:28.505,436.160
35,6 Jun 2027 00:10:55.744,6 Jun 2027 00:22:50.574,714.830
36,6 Jun 2027 01:46:36.300,6 Jun 2027 01:59:10.942,754.641
37,6 Jun 2027 03:23:21.333,6 Jun 2027 03:31:57.719,516.386
38,6 Jun 2027 09:36:06.774,6 Jun 2027 09:43:17.320,430.546
39,6 Jun 2027 11:08:08.124,6 Jun 2027 11:20:19.725,731.601
40,6 Jun 2027 12:43:47.388,6 Jun 2027 12:56:13.225,745.837
41,6 Jun 2027 14:24:25.639,6 Jun 2027 14:29:46.239,320.600
42,6 Jun 2027 22:49:49.079,6 Jun 2027 22:53:48.160,239.082
43,7 Jun 2027 00:22:51.084,7 Jun 2027 00:35:08.222,737.138
44,7 Jun 2027 01:58:40.558,7 Jun 2027 02:11:00.666,740.109
45,7 Jun 2027 03:35:36.658,7 Jun 2027 03:43:17.472,460.815
46,7 Jun 2027 09:47:23.724,7 Jun 2027 09:55:34.288,490.564
47,7 Jun 2027 11:19:56.280,7 Jun 2027 11:32:24.404,748.124
48,7 Jun 2027 12:56:03.000,7 Jun 2027 13:08:09.384,726.384
49,7 Jun 2027 14:38:44.060,7 Jun 2027 14:40:02.140,78.080
50,7 Jun 2027 23:00:51.888,7 Jun 2027 23:07:17.955,386.067
51,8 Jun 2027 00:34:48.055,8 Jun 2027 00:47:21.745,753.691
52,8 Jun 2027 02:10:45.691,8 Jun 2027 02:22:47.138,721.446
53,8 Jun 2027 03:47:55.783,8 Jun 2027 03:54:31.040,395.257
54,8 Jun 2027 09:58:46.143,8 Jun 2027 10:07:48.180,542.037
55,8 Jun 2027 11:31:47.676,8 Jun 2027 11:44:28.204,760.529
56,8 Jun 2027 13:08:22.939,8 Jun 2027 13:20:03.750,700.812
57,8 Jun 2027 23:12:18.910,8 Jun 2027 23:20:20.336,481.426
58,9 Jun 2027 00:46:46.419,9 Jun 2027 00:59:31.424,765.005
59,9 Jun 2027 02:22:51.738,9 Jun 2027 02:34:30.324,698.585
60,9 Jun 2027 04:00:21.319,9 Jun 2027 04:05:35.862,314.543
61,9 Jun 2027 10:10:13.167,9 Jun 2027 10:19:59.862,586.695
62,9 Jun 2027 11:43:42.304,9 Jun 2027 11:56:31.133,768.828
63,9 Jun 2027 13:20:47.660,9 Jun 2027 13:31:55.918,668.258
64,9 Jun 2027 23:23:56.450,9 Jun 2027 23:33:09.155,552.705
65,10 Jun 2027 00:58:45.998,10 Jun 2027 01:11:37.469,771.470
66,10 Jun 2027 02:34:58.778,10 Jun 2027 02:46:10.134,671.355
67,10 Jun 2027 04:13:01.146,10 Jun 2027 04:16:24.078,202.932
68,10 Jun 2027 10:21:44.280,10 Jun 2027 10:32:09.856,625.576
69,10 Jun 2027 11:55:40.211,10 Jun 2027 12:08:33.146,772.936
70,10 Jun 2027 13:33:17.853,10 Jun 2027 13:43:45.277,627.424
71,10 Jun 2027 23:35:40.237,10 Jun 2027 23:45:48.804,608.567
72,11 Jun 2027 01:10:46.652,11 Jun 2027 01:23:40.048,773.396
73,11 Jun 2027 02:47:06.915,11 Jun 2027 02:57:46.447,639.532
74,11 Jun 2027 09:03:36.638,11 Jun 2027 09:05:52.096,135.458
75,11 Jun 2027 10:33:19.163,11 Jun 2027 10:44:18.480,659.317
76,11 Jun 2027 12:07:41.439,11 Jun 2027 12:20:34.206,772.766
77,11 Jun 2027 13:45:54.538,11 Jun 2027 13:55:30.912,576.374
78,11 Jun 2027 23:47:28.264,11 Jun 2027 23:58:21.416,653.152
79,12 Jun 2027 01:22:48.296,12 Jun 2027 01:35:39.260,770.964
80,12 Jun 2027 02:59:16.328,12 Jun 2027 03:09:19.092,602.764
81,12 Jun 2027 09:14:09.998,12 Jun 2027 09:18:45.889,275.891
82,12 Jun 2027 10:44:57.603,12 Jun 2027 10:56:25.940,688.337
83,12 Jun 2027 12:19:46.100,12 Jun 2027 12:32:34.222,768.122
84,12 Jun 2027 13:58:39.381,12 Jun 2027 14:07:11.244,511.863
85,12 Jun 2027 23:59:19.412,13 Jun 2027 00:10:48.213,688.801
86,13 Jun 2027 01:34:50.869,13 Jun 2027 01:47:35.182,764.314
87,13 Jun 2027 03:11:27.286,13 Jun 2027 03:20:47.783,560.497
88,13 Jun 2027 09:25:09.845,13 Jun 2027 09:31:15.478,365.633
89,13 Jun 2027 10:56:39.455,13 Jun 2027 11:08:32.373,712.918
90,13 Jun 2027 12:31:54.315,13 Jun 2027 12:44:33.080,758.765
91,13 Jun 2027 14:11:35.601,13 Jun 2027 14:18:43.199,427.598
