dataset/facility_timing/facility_Facility-RioGallegos/RioGallegos-To-KinoSat_110908.csv

Acces,Start Time (UTCG),Stop Time (UTCG),Duration (sec)
1,1 Jun 2027 05:23:41.868,1 Jun 2027 05:31:14.833,452.965
2,1 Jun 2027 06:55:53.673,1 Jun 2027 07:08:10.961,737.288
3,1 Jun 2027 08:31:40.508,1 Jun 2027 08:44:00.672,740.164
4,1 Jun 2027 10:12:43.327,1 Jun 2027 10:17:13.536,270.209
5,1 Jun 2027 18:37:26.975,1 Jun 2027 18:41:58.415,271.441
6,1 Jun 2027 20:10:40.308,1 Jun 2027 20:23:00.607,740.299
7,1 Jun 2027 21:46:30.076,1 Jun 2027 21:58:47.248,737.172
8,1 Jun 2027 23:23:26.298,1 Jun 2027 23:30:58.835,452.537
9,2 Jun 2027 05:35:00.895,2 Jun 2027 05:43:29.813,508.917
10,2 Jun 2027 07:07:42.503,2 Jun 2027 07:20:14.834,752.330
11,2 Jun 2027 08:43:56.787,2 Jun 2027 08:55:55.868,719.081
12,2 Jun 2027 18:48:36.009,2 Jun 2027 18:55:20.135,404.125
13,2 Jun 2027 20:22:37.080,2 Jun 2027 20:35:12.856,755.776
14,2 Jun 2027 21:58:34.815,2 Jun 2027 22:10:32.867,718.052
15,2 Jun 2027 23:35:45.176,2 Jun 2027 23:42:11.619,386.443
16,3 Jun 2027 05:46:24.885,3 Jun 2027 05:55:42.172,557.287
17,3 Jun 2027 07:19:34.500,3 Jun 2027 07:32:17.851,763.351
18,3 Jun 2027 08:56:17.441,3 Jun 2027 09:07:49.191,691.750
19,3 Jun 2027 19:00:04.941,3 Jun 2027 19:08:18.832,493.891
20,3 Jun 2027 20:34:35.191,3 Jun 2027 20:47:21.372,766.181
21,3 Jun 2027 22:10:40.445,3 Jun 2027 22:22:15.256,694.811
22,3 Jun 2027 23:48:10.700,3 Jun 2027 23:53:15.486,304.786
23,4 Jun 2027 05:57:53.154,4 Jun 2027 06:07:52.600,599.447
24,4 Jun 2027 07:31:29.673,4 Jun 2027 07:44:20.004,770.331
25,4 Jun 2027 09:08:42.978,4 Jun 2027 09:19:40.187,657.209
26,4 Jun 2027 19:11:43.297,4 Jun 2027 19:21:05.151,561.854
27,4 Jun 2027 20:46:34.465,4 Jun 2027 20:59:26.349,771.884
28,4 Jun 2027 22:22:47.054,4 Jun 2027 22:33:54.334,667.280
29,5 Jun 2027 00:00:51.599,5 Jun 2027 00:04:01.722,190.123
30,5 Jun 2027 06:09:25.291,5 Jun 2027 06:20:01.509,636.218
31,5 Jun 2027 07:43:28.074,5 Jun 2027 07:56:21.253,773.179
32,5 Jun 2027 09:21:14.137,5 Jun 2027 09:31:28.198,614.061
33,5 Jun 2027 19:23:27.424,5 Jun 2027 19:33:42.848,615.424
34,5 Jun 2027 20:58:34.781,5 Jun 2027 21:11:27.944,773.163
35,5 Jun 2027 22:34:54.737,5 Jun 2027 22:45:29.977,635.240
36,6 Jun 2027 04:50:51.697,6 Jun 2027 04:54:06.046,194.349
37,6 Jun 2027 06:21:01.041,6 Jun 2027 06:32:09.170,668.130
38,6 Jun 2027 07:55:29.757,6 Jun 2027 08:08:21.548,771.791
39,6 Jun 2027 09:33:52.057,6 Jun 2027 09:43:12.187,560.130
40,6 Jun 2027 19:35:15.538,6 Jun 2027 19:46:13.833,658.295
41,6 Jun 2027 21:10:36.060,6 Jun 2027 21:23:26.249,770.189
42,6 Jun 2027 22:47:03.682,6 Jun 2027 22:57:02.019,598.337
43,7 Jun 2027 05:01:38.736,7 Jun 2027 05:06:46.210,307.473
44,7 Jun 2027 06:32:40.212,7 Jun 2027 06:44:15.748,695.535
45,7 Jun 2027 08:07:34.836,7 Jun 2027 08:20:20.784,765.948
46,7 Jun 2027 09:46:38.668,7 Jun 2027 09:54:50.329,491.661
47,7 Jun 2027 19:47:06.616,7 Jun 2027 19:58:39.224,692.608
48,7 Jun 2027 21:22:38.240,7 Jun 2027 21:35:21.333,763.093
49,7 Jun 2027 22:59:14.153,7 Jun 2027 23:08:30.173,556.020
50,8 Jun 2027 05:12:42.919,8 Jun 2027 05:19:11.476,388.557
51,8 Jun 2027 06:44:22.689,8 Jun 2027 06:56:21.353,718.665
52,8 Jun 2027 08:19:43.460,8 Jun 2027 08:32:18.856,755.396
53,8 Jun 2027 09:59:37.827,8 Jun 2027 10:06:18.885,401.058
54,8 Jun 2027 19:58:59.995,8 Jun 2027 20:10:59.746,719.751
55,8 Jun 2027 21:34:41.274,8 Jun 2027 21:47:13.242,751.968
56,8 Jun 2027 23:11:26.567,8 Jun 2027 23:19:54.036,507.470
57,9 Jun 2027 05:23:55.911,9 Jun 2027 05:31:30.219,454.309
58,9 Jun 2027 06:56:08.399,9 Jun 2027 07:08:26.063,737.664
59,9 Jun 2027 08:31:55.821,9 Jun 2027 08:44:15.580,739.760
60,9 Jun 2027 10:13:00.606,9 Jun 2027 10:17:26.937,266.330
61,9 Jun 2027 18:37:40.545,9 Jun 2027 18:42:15.560,275.015
62,9 Jun 2027 20:10:55.239,9 Jun 2027 20:23:15.905,740.666
63,9 Jun 2027 21:46:45.168,9 Jun 2027 21:59:01.979,736.812
64,9 Jun 2027 23:23:41.621,9 Jun 2027 23:31:12.919,451.299
65,10 Jun 2027 05:35:15.056,10 Jun 2027 05:43:45.128,510.072
66,10 Jun 2027 07:07:57.297,10 Jun 2027 07:20:29.913,752.616
67,10 Jun 2027 08:44:12.188,10 Jun 2027 08:56:10.735,718.547
68,10 Jun 2027 18:48:50.242,10 Jun 2027 18:55:36.538,406.296
69,10 Jun 2027 20:22:52.035,10 Jun 2027 20:35:28.075,756.041
70,10 Jun 2027 21:58:49.918,10 Jun 2027 22:10:47.531,717.613
71,10 Jun 2027 23:36:00.596,10 Jun 2027 23:42:25.562,384.966
72,11 Jun 2027 05:46:39.146,11 Jun 2027 05:55:57.437,558.291
73,11 Jun 2027 07:19:49.362,11 Jun 2027 07:32:32.909,763.547
74,11 Jun 2027 08:56:32.941,11 Jun 2027 09:08:04.010,691.069
75,11 Jun 2027 19:00:19.431,11 Jun 2027 19:08:34.914,495.483
76,11 Jun 2027 20:34:50.169,11 Jun 2027 20:47:36.513,766.345
77,11 Jun 2027 22:10:55.564,11 Jun 2027 22:22:29.851,694.286
78,11 Jun 2027 23:48:26.299,11 Jun 2027 23:53:29.200,302.900
79,12 Jun 2027 05:58:07.503,12 Jun 2027 06:08:07.826,600.323
80,12 Jun 2027 07:31:44.603,12 Jun 2027 07:44:35.041,770.437
81,12 Jun 2027 09:08:58.591,12 Jun 2027 09:19:54.946,656.355
82,12 Jun 2027 19:11:57.932,12 Jun 2027 19:21:21.023,563.091
83,12 Jun 2027 20:46:49.464,12 Jun 2027 20:59:41.416,771.953
84,12 Jun 2027 22:23:02.189,12 Jun 2027 22:34:08.858,666.669
85,13 Jun 2027 00:01:07.738,13 Jun 2027 00:04:14.847,187.109
86,13 Jun 2027 06:09:39.722,13 Jun 2027 06:20:16.702,636.980
87,13 Jun 2027 07:43:43.074,13 Jun 2027 07:56:36.268,773.194
88,13 Jun 2027 09:21:29.883,13 Jun 2027 09:31:42.878,612.995
89,13 Jun 2027 19:23:42.154,13 Jun 2027 19:33:58.563,616.409
90,13 Jun 2027 20:58:49.799,13 Jun 2027 21:11:42.941,773.142
91,13 Jun 2027 22:35:09.895,13 Jun 2027 22:45:44.428,634.534
