dataset/facility_timing/facility_Facility-RioGallegos/RioGallegos-To-KinoSat_110206.csv

Acces,Start Time (UTCG),Stop Time (UTCG),Duration (sec)
1,1 Jun 2027 01:25:31.683,1 Jun 2027 01:33:41.133,489.449
2,1 Jun 2027 02:58:02.605,1 Jun 2027 03:10:29.875,747.271
3,1 Jun 2027 04:34:06.624,1 Jun 2027 04:46:14.131,727.506
4,1 Jun 2027 06:16:31.558,1 Jun 2027 06:18:18.895,107.337
5,1 Jun 2027 14:39:08.147,1 Jun 2027 14:45:09.700,361.552
6,1 Jun 2027 16:12:54.496,1 Jun 2027 16:25:25.070,750.574
7,1 Jun 2027 17:48:49.234,1 Jun 2027 18:00:54.946,725.713
8,1 Jun 2027 19:25:53.687,1 Jun 2027 19:32:46.531,412.844
9,2 Jun 2027 01:36:53.960,2 Jun 2027 01:45:54.303,540.344
10,2 Jun 2027 03:09:53.411,2 Jun 2027 03:22:33.168,759.757
11,2 Jun 2027 04:46:25.580,2 Jun 2027 04:58:08.159,702.578
12,2 Jun 2027 14:50:31.611,2 Jun 2027 14:58:14.937,463.327
13,2 Jun 2027 16:24:52.097,2 Jun 2027 16:37:34.926,762.829
14,2 Jun 2027 18:00:54.491,2 Jun 2027 18:12:38.541,704.051
15,2 Jun 2027 19:38:16.137,2 Jun 2027 19:43:54.280,338.142
16,3 Jun 2027 01:48:20.717,3 Jun 2027 01:58:05.330,584.613
17,3 Jun 2027 03:21:47.387,3 Jun 2027 03:34:35.612,768.225
18,3 Jun 2027 04:58:49.198,3 Jun 2027 05:10:00.054,670.856
19,3 Jun 2027 15:02:07.003,3 Jun 2027 15:11:05.239,538.236
20,3 Jun 2027 16:36:50.918,3 Jun 2027 16:49:41.179,770.261
21,3 Jun 2027 18:13:00.688,3 Jun 2027 18:24:18.861,678.172
22,3 Jun 2027 19:50:49.109,3 Jun 2027 19:54:49.255,240.146
23,4 Jun 2027 01:59:51.460,4 Jun 2027 02:10:14.718,623.258
24,4 Jun 2027 03:33:44.567,4 Jun 2027 03:46:37.172,772.605
25,4 Jun 2027 05:11:18.127,4 Jun 2027 05:21:49.241,631.114
26,4 Jun 2027 15:13:49.203,4 Jun 2027 15:23:45.848,596.645
27,4 Jun 2027 16:48:50.823,4 Jun 2027 17:01:44.006,773.183
28,4 Jun 2027 18:25:07.915,4 Jun 2027 18:35:55.804,647.889
29,4 Jun 2027 20:04:15.227,4 Jun 2027 20:04:48.878,33.652
30,5 Jun 2027 00:41:46.337,5 Jun 2027 00:43:56.771,130.434
31,5 Jun 2027 02:11:25.890,5 Jun 2027 02:22:22.778,656.888
32,5 Jun 2027 03:45:44.994,5 Jun 2027 03:58:37.799,772.805
33,5 Jun 2027 05:23:53.329,5 Jun 2027 05:33:34.859,581.529
34,5 Jun 2027 15:25:35.933,5 Jun 2027 15:36:19.159,643.226
35,5 Jun 2027 17:00:51.718,5 Jun 2027 17:13:43.511,771.793
36,5 Jun 2027 18:37:16.326,5 Jun 2027 18:47:29.214,612.888
37,6 Jun 2027 00:52:19.037,6 Jun 2027 00:56:50.422,271.386
38,6 Jun 2027 02:23:03.800,6 Jun 2027 02:34:29.700,685.899
39,6 Jun 2027 03:57:48.774,6 Jun 2027 04:10:37.409,768.635
40,6 Jun 2027 05:36:36.350,6 Jun 2027 05:45:15.444,519.094
41,6 Jun 2027 15:37:25.954,6 Jun 2027 15:48:46.509,680.555
42,6 Jun 2027 17:12:53.532,6 Jun 2027 17:25:39.776,766.243
43,6 Jun 2027 18:49:26.147,6 Jun 2027 18:58:58.870,572.723
44,7 Jun 2027 01:03:18.587,7 Jun 2027 01:09:19.444,360.856
45,7 Jun 2027 02:34:45.051,7 Jun 2027 02:46:35.623,710.572
46,7 Jun 2027 04:09:56.023,7 Jun 2027 04:22:35.907,759.884
47,7 Jun 2027 05:49:30.111,7 Jun 2027 05:56:48.211,438.100
48,7 Jun 2027 15:49:18.500,7 Jun 2027 16:01:08.763,710.263
49,7 Jun 2027 17:24:56.217,7 Jun 2027 17:37:32.861,756.644
50,7 Jun 2027 19:01:37.724,7 Jun 2027 19:10:24.416,526.692
51,8 Jun 2027 01:14:28.778,8 Jun 2027 01:21:40.100,431.322
52,8 Jun 2027 02:46:29.551,8 Jun 2027 02:58:40.627,731.075
53,8 Jun 2027 04:22:06.930,8 Jun 2027 04:34:33.130,746.200
54,8 Jun 2027 06:02:41.584,8 Jun 2027 06:08:06.319,324.735
55,8 Jun 2027 14:28:28.848,8 Jun 2027 14:31:47.342,198.495
56,8 Jun 2027 16:01:13.052,8 Jun 2027 16:13:26.484,733.431
57,8 Jun 2027 17:36:59.759,8 Jun 2027 17:49:22.777,743.018
58,8 Jun 2027 19:13:51.631,8 Jun 2027 19:21:45.297,473.665
59,9 Jun 2027 01:25:45.840,9 Jun 2027 01:33:56.184,490.344
60,9 Jun 2027 02:58:17.246,9 Jun 2027 03:10:44.760,747.514
61,9 Jun 2027 04:34:21.733,9 Jun 2027 04:46:28.876,727.143
62,9 Jun 2027 06:16:50.699,9 Jun 2027 06:18:30.000,99.302
63,9 Jun 2027 14:39:22.160,9 Jun 2027 14:45:25.843,363.683
64,9 Jun 2027 16:13:09.263,9 Jun 2027 16:25:40.096,750.832
65,9 Jun 2027 17:49:04.146,9 Jun 2027 18:01:09.519,725.373
66,9 Jun 2027 19:26:08.867,9 Jun 2027 19:33:00.520,411.653
67,10 Jun 2027 01:37:08.194,10 Jun 2027 01:46:09.315,541.122
68,10 Jun 2027 03:10:08.107,10 Jun 2027 03:22:48.043,759.936
69,10 Jun 2027 04:46:40.760,10 Jun 2027 04:58:22.876,702.116
70,10 Jun 2027 14:50:45.919,10 Jun 2027 14:58:30.736,464.817
71,10 Jun 2027 16:25:06.884,10 Jun 2027 16:37:49.888,763.004
72,10 Jun 2027 18:01:09.419,10 Jun 2027 18:12:53.054,703.635
73,10 Jun 2027 19:38:31.446,10 Jun 2027 19:44:08.100,336.655
74,11 Jun 2027 01:48:35.019,11 Jun 2027 01:58:20.319,585.300
75,11 Jun 2027 03:22:02.142,11 Jun 2027 03:34:50.468,768.325
76,11 Jun 2027 04:59:04.467,11 Jun 2027 05:10:14.724,670.257
77,11 Jun 2027 15:02:21.460,11 Jun 2027 15:11:20.837,539.377
78,11 Jun 2027 16:37:05.727,11 Jun 2027 16:49:56.081,770.354
79,11 Jun 2027 18:13:15.636,11 Jun 2027 18:24:33.316,677.681
80,11 Jun 2027 19:51:04.705,11 Jun 2027 19:55:02.748,238.043
81,12 Jun 2027 02:00:05.825,12 Jun 2027 02:10:29.681,623.856
82,12 Jun 2027 03:33:59.372,12 Jun 2027 03:46:52.016,772.645
83,12 Jun 2027 05:11:33.491,12 Jun 2027 05:22:03.865,630.374
84,12 Jun 2027 15:14:03.757,12 Jun 2027 15:24:01.304,597.547
85,12 Jun 2027 16:49:05.654,12 Jun 2027 17:01:58.850,773.196
86,12 Jun 2027 18:25:22.881,12 Jun 2027 18:36:10.200,647.319
87,12 Jun 2027 20:04:40.747,12 Jun 2027 20:04:52.405,11.658
88,13 Jun 2027 00:41:59.114,13 Jun 2027 00:44:13.048,133.934
89,13 Jun 2027 02:11:40.316,13 Jun 2027 02:22:37.723,657.408
90,13 Jun 2027 03:45:59.855,13 Jun 2027 03:58:52.628,772.773
91,13 Jun 2027 05:24:08.810,13 Jun 2027 05:33:49.413,580.603
92,13 Jun 2027 15:25:50.554,13 Jun 2027 15:36:34.502,643.948
93,13 Jun 2027 17:01:06.567,13 Jun 2027 17:13:58.300,771.732
94,13 Jun 2027 18:37:31.315,13 Jun 2027 18:47:43.553,612.238
