dataset/facility_timing/facility_Facility-RioGallegos/RioGallegos-To-KinoSat_111307.csv

Acces,Start Time (UTCG),Stop Time (UTCG),Duration (sec)
1,1 Jun 2027 00:40:57.008,1 Jun 2027 00:50:28.909,571.900
2,1 Jun 2027 06:54:51.540,1 Jun 2027 07:00:47.052,355.513
3,1 Jun 2027 08:26:15.815,1 Jun 2027 08:38:05.246,709.431
4,1 Jun 2027 10:01:25.926,1 Jun 2027 10:14:06.397,760.472
5,1 Jun 2027 11:40:58.107,1 Jun 2027 11:48:20.661,442.554
6,1 Jun 2027 21:40:48.272,1 Jun 2027 21:52:38.895,710.623
7,1 Jun 2027 23:16:26.580,1 Jun 2027 23:29:03.114,756.534
8,2 Jun 2027 00:53:08.920,2 Jun 2027 01:01:54.393,525.473
9,2 Jun 2027 07:06:01.101,2 Jun 2027 07:13:08.498,427.397
10,2 Jun 2027 08:38:00.287,2 Jun 2027 08:50:10.529,730.243
11,2 Jun 2027 10:13:36.910,2 Jun 2027 10:26:03.875,746.965
12,2 Jun 2027 11:54:08.932,2 Jun 2027 11:59:39.816,330.883
13,2 Jun 2027 20:19:56.662,2 Jun 2027 20:23:19.112,202.449
14,2 Jun 2027 21:52:43.039,2 Jun 2027 22:04:56.832,733.793
15,2 Jun 2027 23:28:30.357,2 Jun 2027 23:40:53.137,742.780
16,3 Jun 2027 01:05:23.214,3 Jun 2027 01:13:15.135,471.922
17,3 Jun 2027 07:17:17.780,3 Jun 2027 07:25:25.144,487.364
18,3 Jun 2027 08:49:47.985,3 Jun 2027 09:02:14.930,746.945
19,3 Jun 2027 10:25:51.808,3 Jun 2027 10:37:59.874,728.066
20,3 Jun 2027 12:08:11.907,3 Jun 2027 12:10:10.054,118.148
21,3 Jun 2027 20:30:51.031,3 Jun 2027 20:36:57.059,366.028
22,3 Jun 2027 22:04:39.468,3 Jun 2027 22:17:10.630,751.162
23,3 Jun 2027 23:40:34.988,3 Jun 2027 23:52:39.955,724.967
24,4 Jun 2027 01:17:40.934,4 Jun 2027 01:24:30.100,409.166
25,4 Jun 2027 07:28:39.887,4 Jun 2027 07:37:38.723,538.836
26,4 Jun 2027 09:01:38.880,4 Jun 2027 09:14:18.465,759.586
27,4 Jun 2027 10:38:10.950,4 Jun 2027 10:49:54.125,703.175
28,4 Jun 2027 20:42:15.237,4 Jun 2027 20:50:01.982,466.746
29,4 Jun 2027 22:16:37.316,4 Jun 2027 22:29:20.593,763.277
30,4 Jun 2027 23:52:40.516,5 Jun 2027 00:04:23.544,703.028
31,5 Jun 2027 01:30:04.197,5 Jun 2027 01:35:37.210,333.012
32,5 Jun 2027 07:40:06.553,5 Jun 2027 07:49:50.099,583.546
33,5 Jun 2027 09:13:32.971,5 Jun 2027 09:26:21.141,768.170
34,5 Jun 2027 10:50:34.782,5 Jun 2027 11:01:46.236,671.454
35,5 Jun 2027 20:53:51.120,5 Jun 2027 21:02:52.198,541.078
36,5 Jun 2027 22:28:36.385,5 Jun 2027 22:41:26.929,770.543
37,6 Jun 2027 00:04:46.997,6 Jun 2027 00:16:03.822,676.826
38,6 Jun 2027 01:42:38.754,6 Jun 2027 01:46:30.745,231.991
39,6 Jun 2027 07:51:37.264,6 Jun 2027 08:01:59.799,622.536
40,6 Jun 2027 09:25:30.292,6 Jun 2027 09:38:22.925,772.633
41,6 Jun 2027 11:03:03.952,6 Jun 2027 11:13:35.631,631.679
42,6 Jun 2027 21:05:33.721,6 Jun 2027 21:15:32.795,599.074
43,6 Jun 2027 22:40:36.541,6 Jun 2027 22:53:29.816,773.275
44,7 Jun 2027 00:16:54.530,7 Jun 2027 00:27:40.685,646.155
45,7 Jun 2027 06:33:35.711,7 Jun 2027 06:35:38.103,122.392
46,7 Jun 2027 08:03:11.709,7 Jun 2027 08:14:08.142,656.433
47,7 Jun 2027 09:37:30.886,7 Jun 2027 09:50:23.771,772.885
48,7 Jun 2027 11:15:39.427,7 Jun 2027 11:25:21.446,582.019
49,7 Jun 2027 21:17:20.803,7 Jun 2027 21:28:06.122,645.320
50,7 Jun 2027 22:52:37.690,7 Jun 2027 23:05:29.360,771.670
51,8 Jun 2027 00:29:03.271,8 Jun 2027 00:39:13.974,610.703
52,8 Jun 2027 06:44:05.973,8 Jun 2027 06:48:34.416,268.443
53,8 Jun 2027 08:14:49.673,8 Jun 2027 08:26:15.329,685.656
54,8 Jun 2027 09:49:34.860,8 Jun 2027 10:02:23.589,768.729
55,8 Jun 2027 11:28:22.760,8 Jun 2027 11:37:02.209,519.450
56,8 Jun 2027 21:29:11.145,8 Jun 2027 21:40:33.500,682.355
57,8 Jun 2027 23:04:39.761,8 Jun 2027 23:17:25.640,765.879
58,9 Jun 2027 00:41:13.458,9 Jun 2027 00:50:43.441,569.983
59,9 Jun 2027 06:55:04.978,9 Jun 2027 07:01:04.224,359.246
60,9 Jun 2027 08:26:31.017,9 Jun 2027 08:38:21.503,710.486
61,9 Jun 2027 10:01:42.330,9 Jun 2027 10:14:22.285,759.955
62,9 Jun 2027 11:41:16.888,9 Jun 2027 11:48:35.124,438.236
63,9 Jun 2027 21:41:03.994,9 Jun 2027 21:52:55.780,711.786
64,9 Jun 2027 23:16:42.709,9 Jun 2027 23:29:18.716,756.007
65,10 Jun 2027 00:53:25.455,10 Jun 2027 01:02:08.730,523.275
66,10 Jun 2027 07:06:14.935,10 Jun 2027 07:13:25.375,430.440
67,10 Jun 2027 08:38:15.633,10 Jun 2027 08:50:26.741,731.108
68,10 Jun 2027 10:13:53.487,10 Jun 2027 10:26:19.696,746.210
69,10 Jun 2027 11:54:28.850,10 Jun 2027 11:59:53.279,324.429
70,10 Jun 2027 20:20:08.213,10 Jun 2027 20:23:41.088,212.875
71,10 Jun 2027 21:52:58.839,10 Jun 2027 22:05:13.522,734.684
72,10 Jun 2027 23:28:46.522,10 Jun 2027 23:41:08.596,742.074
73,11 Jun 2027 01:05:39.872,11 Jun 2027 01:13:29.243,469.371
74,11 Jun 2027 07:17:31.897,11 Jun 2027 07:25:41.843,489.946
75,11 Jun 2027 08:50:03.478,11 Jun 2027 09:02:31.098,747.621
76,11 Jun 2027 10:26:08.571,11 Jun 2027 10:38:15.618,727.048
77,11 Jun 2027 12:08:39.526,11 Jun 2027 12:10:15.965,96.439
78,11 Jun 2027 20:31:05.058,11 Jun 2027 20:37:16.406,371.348
79,11 Jun 2027 22:04:55.333,11 Jun 2027 22:17:27.140,751.808
80,11 Jun 2027 23:40:51.188,11 Jun 2027 23:52:55.268,724.080
81,12 Jun 2027 01:17:57.771,12 Jun 2027 01:24:43.922,406.151
82,12 Jun 2027 07:28:54.231,12 Jun 2027 07:37:55.298,541.067
83,12 Jun 2027 09:01:54.518,12 Jun 2027 09:14:34.595,760.076
84,12 Jun 2027 10:38:27.914,12 Jun 2027 10:50:09.780,701.866
85,12 Jun 2027 20:42:29.976,12 Jun 2027 20:50:20.475,470.499
86,12 Jun 2027 22:16:53.232,12 Jun 2027 22:29:36.935,763.703
87,12 Jun 2027 23:52:56.754,13 Jun 2027 00:04:38.710,701.957
88,13 Jun 2027 01:30:21.355,13 Jun 2027 01:35:50.602,329.247
89,13 Jun 2027 07:40:21.096,13 Jun 2027 07:50:06.583,585.488
90,13 Jun 2027 09:13:48.756,13 Jun 2027 09:26:37.226,768.470
91,13 Jun 2027 10:50:51.976,13 Jun 2027 11:02:01.773,669.798
92,13 Jun 2027 20:54:06.229,13 Jun 2027 21:03:10.181,543.953
93,13 Jun 2027 22:28:52.351,13 Jun 2027 22:41:43.111,770.760
