dataset/facility_timing/facility_Facility-RioGallegos/RioGallegos-To-KinoSat_111708.csv

Acces,Start Time (UTCG),Stop Time (UTCG),Duration (sec)
1,1 Jun 2027 00:15:42.979,1 Jun 2027 00:28:36.108,773.129
2,1 Jun 2027 01:51:59.967,1 Jun 2027 02:02:52.981,653.015
3,1 Jun 2027 03:30:45.675,1 Jun 2027 03:32:12.160,86.485
4,1 Jun 2027 09:38:24.985,1 Jun 2027 09:49:12.186,647.202
5,1 Jun 2027 11:12:37.190,1 Jun 2027 11:25:30.506,773.316
6,1 Jun 2027 12:50:36.169,1 Jun 2027 13:00:33.250,597.080
7,1 Jun 2027 22:52:29.515,1 Jun 2027 23:03:05.797,636.282
8,2 Jun 2027 00:27:44.141,2 Jun 2027 00:40:36.577,772.436
9,2 Jun 2027 02:04:08.717,2 Jun 2027 02:14:27.112,618.396
10,2 Jun 2027 08:19:33.940,2 Jun 2027 08:23:27.868,233.928
11,2 Jun 2027 09:50:02.063,2 Jun 2027 10:01:19.955,677.892
12,2 Jun 2027 11:24:40.433,2 Jun 2027 11:37:30.839,770.406
13,2 Jun 2027 13:03:17.488,2 Jun 2027 13:12:15.775,538.287
14,2 Jun 2027 23:04:19.427,2 Jun 2027 23:15:34.693,675.266
15,3 Jun 2027 00:39:46.248,3 Jun 2027 00:52:33.745,767.497
16,3 Jun 2027 02:16:18.876,3 Jun 2027 02:25:57.441,578.564
17,3 Jun 2027 08:30:27.595,3 Jun 2027 08:36:02.663,335.068
18,3 Jun 2027 10:01:42.587,3 Jun 2027 10:13:26.657,704.069
19,3 Jun 2027 11:36:47.172,3 Jun 2027 11:49:30.060,762.889
20,3 Jun 2027 13:16:08.638,3 Jun 2027 13:23:51.405,462.767
21,3 Jun 2027 23:16:11.982,3 Jun 2027 23:27:58.295,706.313
22,4 Jun 2027 00:51:49.244,4 Jun 2027 01:04:27.664,758.420
23,4 Jun 2027 02:28:30.795,4 Jun 2027 02:37:23.625,532.831
24,4 Jun 2027 08:41:34.842,4 Jun 2027 08:48:26.175,411.332
25,4 Jun 2027 10:13:26.450,4 Jun 2027 10:25:32.394,725.944
26,4 Jun 2027 11:48:57.569,4 Jun 2027 12:01:28.046,750.477
27,4 Jun 2027 13:29:14.999,4 Jun 2027 13:35:14.889,359.890
28,4 Jun 2027 21:55:37.694,4 Jun 2027 21:58:17.308,159.613
29,4 Jun 2027 23:28:06.645,4 Jun 2027 23:40:17.226,730.580
30,5 Jun 2027 01:03:53.117,5 Jun 2027 01:16:18.360,745.244
31,5 Jun 2027 02:40:45.023,5 Jun 2027 02:48:45.108,480.085
32,5 Jun 2027 08:52:49.977,5 Jun 2027 09:00:44.129,474.152
33,5 Jun 2027 10:25:13.579,5 Jun 2027 10:37:37.228,743.649
34,5 Jun 2027 12:01:11.856,5 Jun 2027 12:13:24.591,732.735
35,5 Jun 2027 13:42:56.985,5 Jun 2027 13:46:05.975,188.990
36,5 Jun 2027 22:06:20.849,5 Jun 2027 22:12:07.573,346.723
37,5 Jun 2027 23:40:03.034,5 Jun 2027 23:52:31.926,748.892
38,6 Jun 2027 01:15:57.852,6 Jun 2027 01:28:05.828,727.976
39,6 Jun 2027 02:53:02.539,6 Jun 2027 03:00:00.925,418.386
40,6 Jun 2027 09:04:10.923,6 Jun 2027 09:12:58.655,527.732
41,6 Jun 2027 10:37:03.940,6 Jun 2027 10:49:41.188,757.248
42,6 Jun 2027 12:13:30.329,6 Jun 2027 12:25:19.443,709.114
43,6 Jun 2027 22:17:42.492,6 Jun 2027 22:25:16.109,453.616
44,6 Jun 2027 23:52:00.879,7 Jun 2027 00:04:42.714,761.835
45,7 Jun 2027 01:28:03.489,7 Jun 2027 01:39:50.035,706.546
46,7 Jun 2027 03:05:25.290,7 Jun 2027 03:11:09.168,343.878
47,7 Jun 2027 09:15:36.643,7 Jun 2027 09:25:10.784,574.141
48,7 Jun 2027 10:48:57.529,7 Jun 2027 11:01:44.277,766.748
49,7 Jun 2027 12:25:53.425,7 Jun 2027 12:37:12.237,678.813
50,7 Jun 2027 22:29:17.195,7 Jun 2027 22:38:08.498,531.303
51,8 Jun 2027 00:03:59.984,8 Jun 2027 00:16:49.819,769.835
52,8 Jun 2027 01:40:10.082,8 Jun 2027 01:51:30.914,680.832
53,8 Jun 2027 03:17:58.310,8 Jun 2027 03:22:04.832,246.522
54,8 Jun 2027 09:27:06.557,8 Jun 2027 09:37:21.109,614.553
55,8 Jun 2027 11:00:54.357,8 Jun 2027 11:13:46.472,772.114
56,8 Jun 2027 12:38:21.740,8 Jun 2027 12:49:02.441,640.701
57,8 Jun 2027 22:40:59.147,8 Jun 2027 22:50:50.696,591.549
58,9 Jun 2027 00:16:00.203,9 Jun 2027 00:28:53.426,773.223
59,9 Jun 2027 01:52:17.721,9 Jun 2027 02:03:08.361,650.640
60,9 Jun 2027 03:31:15.994,9 Jun 2027 03:32:13.582,57.588
61,9 Jun 2027 08:09:43.257,9 Jun 2027 08:10:24.087,40.830
62,9 Jun 2027 09:38:40.299,9 Jun 2027 09:49:29.999,649.699
63,9 Jun 2027 11:12:54.480,9 Jun 2027 11:25:47.732,773.253
64,9 Jun 2027 12:50:56.168,9 Jun 2027 13:00:49.251,593.084
65,9 Jun 2027 22:52:45.850,9 Jun 2027 23:03:25.312,639.462
66,10 Jun 2027 00:28:01.434,10 Jun 2027 00:40:53.647,772.214
67,10 Jun 2027 02:04:26.563,10 Jun 2027 02:14:42.216,615.653
68,10 Jun 2027 08:19:45.267,10 Jun 2027 08:23:48.448,243.181
69,10 Jun 2027 09:50:17.642,10 Jun 2027 10:01:37.677,680.035
70,10 Jun 2027 11:24:57.982,10 Jun 2027 11:37:47.981,769.999
71,10 Jun 2027 13:03:38.121,10 Jun 2027 13:12:31.355,533.235
72,10 Jun 2027 23:04:35.978,10 Jun 2027 23:15:53.787,677.809
73,11 Jun 2027 00:40:03.605,11 Jun 2027 00:52:50.571,766.966
74,11 Jun 2027 02:16:36.836,11 Jun 2027 02:26:12.251,575.416
75,11 Jun 2027 08:30:40.394,11 Jun 2027 08:36:21.940,341.547
76,11 Jun 2027 10:01:58.422,11 Jun 2027 10:13:44.296,705.874
77,11 Jun 2027 11:37:04.991,11 Jun 2027 11:49:47.111,762.119
78,11 Jun 2027 13:16:30.171,11 Jun 2027 13:24:06.304,456.133
79,11 Jun 2027 23:16:28.701,11 Jun 2027 23:28:17.022,708.321
80,12 Jun 2027 00:52:06.662,12 Jun 2027 01:04:44.249,757.587
81,12 Jun 2027 02:28:48.893,12 Jun 2027 02:37:38.111,529.218
82,12 Jun 2027 08:41:48.369,12 Jun 2027 08:48:44.896,416.527
83,12 Jun 2027 10:13:42.532,12 Jun 2027 10:25:49.963,727.431
84,12 Jun 2027 11:49:15.668,12 Jun 2027 12:01:44.992,749.324
85,12 Jun 2027 13:29:38.108,12 Jun 2027 13:35:28.444,350.336
86,12 Jun 2027 21:55:45.468,12 Jun 2027 21:58:46.503,181.035
87,12 Jun 2027 23:28:23.500,12 Jun 2027 23:40:35.620,732.120
88,13 Jun 2027 01:04:10.592,13 Jun 2027 01:16:34.706,744.113
89,13 Jun 2027 02:41:03.318,13 Jun 2027 02:48:59.219,475.901
90,13 Jun 2027 08:53:03.999,13 Jun 2027 09:01:02.527,478.528
91,13 Jun 2027 10:25:29.905,13 Jun 2027 10:37:54.722,744.817
92,13 Jun 2027 12:01:30.253,13 Jun 2027 12:13:41.416,731.162
93,13 Jun 2027 13:43:25.922,13 Jun 2027 13:46:13.945,168.023
94,13 Jun 2027 22:06:34.498,13 Jun 2027 22:12:30.638,356.140
95,13 Jun 2027 23:40:20.001,13 Jun 2027 23:52:50.023,750.021
