dataset/facility_timing/facility_Facility-RioGallegos/RioGallegos-To-KinoSat_111303.csv

Acces,Start Time (UTCG),Stop Time (UTCG),Duration (sec)
1,1 Jun 2027 01:20:02.290,1 Jun 2027 01:26:38.750,396.460
2,1 Jun 2027 07:30:51.125,1 Jun 2027 07:39:58.524,547.400
3,1 Jun 2027 09:03:55.175,1 Jun 2027 09:16:36.625,761.449
4,1 Jun 2027 10:40:32.522,1 Jun 2027 10:52:10.481,697.958
5,1 Jun 2027 20:44:27.778,1 Jun 2027 20:52:29.613,481.835
6,1 Jun 2027 22:18:54.659,1 Jun 2027 22:31:39.616,764.957
7,1 Jun 2027 23:54:59.234,2 Jun 2027 00:06:37.809,698.575
8,2 Jun 2027 01:32:26.986,2 Jun 2027 01:37:44.007,317.022
9,2 Jun 2027 07:42:18.554,2 Jun 2027 07:52:09.571,591.017
10,2 Jun 2027 09:15:49.849,2 Jun 2027 09:28:39.142,769.293
11,2 Jun 2027 10:52:57.268,2 Jun 2027 11:04:02.147,664.879
12,2 Jun 2027 20:56:05.133,2 Jun 2027 21:05:17.822,552.689
13,2 Jun 2027 22:30:53.941,2 Jun 2027 22:43:45.312,771.372
14,3 Jun 2027 00:07:05.899,3 Jun 2027 00:18:17.475,671.575
15,3 Jun 2027 01:45:05.182,3 Jun 2027 01:48:33.491,208.310
16,3 Jun 2027 07:53:49.961,3 Jun 2027 08:04:19.007,629.046
17,3 Jun 2027 09:27:47.761,3 Jun 2027 09:40:40.758,772.998
18,3 Jun 2027 11:05:27.498,3 Jun 2027 11:15:50.969,623.472
19,3 Jun 2027 21:07:48.675,3 Jun 2027 21:17:56.957,608.282
20,3 Jun 2027 22:42:54.284,3 Jun 2027 22:55:47.585,773.301
21,4 Jun 2027 00:19:13.639,4 Jun 2027 00:29:53.698,640.059
22,4 Jun 2027 06:35:31.877,4 Jun 2027 06:38:10.910,159.034
23,4 Jun 2027 08:05:25.062,4 Jun 2027 08:16:27.131,662.069
24,4 Jun 2027 09:39:48.960,4 Jun 2027 09:52:41.426,772.466
25,4 Jun 2027 11:18:04.260,4 Jun 2027 11:27:36.001,571.742
26,4 Jun 2027 21:19:36.428,4 Jun 2027 21:30:29.121,652.693
27,4 Jun 2027 22:54:55.606,4 Jun 2027 23:07:46.531,770.925
28,5 Jun 2027 00:31:22.624,5 Jun 2027 00:41:26.315,603.691
29,5 Jun 2027 06:46:11.340,5 Jun 2027 06:50:58.421,287.081
30,5 Jun 2027 08:17:03.644,5 Jun 2027 08:28:34.127,690.483
31,5 Jun 2027 09:51:53.560,5 Jun 2027 10:04:41.053,767.492
32,5 Jun 2027 11:30:49.273,5 Jun 2027 11:39:15.609,506.335
33,5 Jun 2027 21:31:27.274,5 Jun 2027 21:42:55.523,688.249
34,5 Jun 2027 23:06:57.842,5 Jun 2027 23:19:42.225,764.383
35,6 Jun 2027 00:43:33.112,6 Jun 2027 00:52:55.056,561.944
36,6 Jun 2027 06:57:12.863,6 Jun 2027 07:03:26.127,373.263
37,6 Jun 2027 08:28:45.586,6 Jun 2027 08:40:40.122,714.536
38,6 Jun 2027 10:04:01.689,6 Jun 2027 10:16:39.522,757.833
39,6 Jun 2027 11:43:45.899,6 Jun 2027 11:50:46.578,420.680
40,6 Jun 2027 21:43:20.517,6 Jun 2027 21:55:16.941,716.425
41,6 Jun 2027 23:19:00.949,6 Jun 2027 23:31:34.720,753.771
42,7 Jun 2027 00:55:45.497,7 Jun 2027 01:04:19.524,514.026
43,7 Jun 2027 07:08:24.278,7 Jun 2027 07:15:46.242,441.964
44,7 Jun 2027 08:40:30.795,7 Jun 2027 08:52:45.202,734.407
45,7 Jun 2027 10:16:13.535,7 Jun 2027 10:28:36.687,743.152
46,7 Jun 2027 11:57:02.819,7 Jun 2027 12:02:00.355,297.535
47,7 Jun 2027 20:22:09.930,7 Jun 2027 20:26:20.670,250.740
48,7 Jun 2027 21:55:15.691,7 Jun 2027 22:07:33.905,738.214
49,7 Jun 2027 23:31:04.918,7 Jun 2027 23:43:24.018,739.100
50,8 Jun 2027 01:08:00.452,8 Jun 2027 01:15:39.072,458.620
51,8 Jun 2027 07:19:42.302,8 Jun 2027 07:28:02.074,499.772
52,8 Jun 2027 08:52:19.223,8 Jun 2027 09:04:49.404,750.181
53,8 Jun 2027 10:28:29.366,8 Jun 2027 10:40:32.313,722.947
54,8 Jun 2027 20:33:15.013,8 Jun 2027 20:39:47.166,392.153
55,8 Jun 2027 22:07:12.457,8 Jun 2027 22:19:46.813,754.355
56,8 Jun 2027 23:43:09.751,8 Jun 2027 23:55:10.105,720.354
57,9 Jun 2027 01:20:19.170,9 Jun 2027 01:26:52.507,393.337
58,9 Jun 2027 07:31:05.508,9 Jun 2027 07:40:15.088,549.580
59,9 Jun 2027 09:04:10.847,9 Jun 2027 09:16:52.746,761.899
60,9 Jun 2027 10:40:49.528,9 Jun 2027 10:52:26.117,696.589
61,9 Jun 2027 20:44:42.600,9 Jun 2027 20:52:48.000,485.400
62,9 Jun 2027 22:19:10.596,9 Jun 2027 22:31:55.932,765.337
63,9 Jun 2027 23:55:15.482,10 Jun 2027 00:06:52.951,697.469
64,10 Jun 2027 01:32:44.234,10 Jun 2027 01:37:57.293,313.059
65,10 Jun 2027 07:42:33.132,10 Jun 2027 07:52:26.043,592.911
66,10 Jun 2027 09:16:05.664,10 Jun 2027 09:28:55.219,769.555
67,10 Jun 2027 10:53:14.510,10 Jun 2027 11:04:17.664,663.154
68,10 Jun 2027 20:56:20.291,10 Jun 2027 21:05:35.738,555.447
69,10 Jun 2027 22:31:09.921,10 Jun 2027 22:44:01.470,771.549
70,11 Jun 2027 00:07:22.190,11 Jun 2027 00:18:32.465,670.275
71,11 Jun 2027 01:45:23.432,11 Jun 2027 01:48:45.670,202.238
72,11 Jun 2027 07:54:04.715,11 Jun 2027 08:04:35.408,630.693
73,11 Jun 2027 09:28:03.724,11 Jun 2027 09:40:56.788,773.064
74,11 Jun 2027 11:05:45.012,11 Jun 2027 11:16:06.332,621.319
75,11 Jun 2027 21:08:04.050,11 Jun 2027 21:18:14.523,610.473
76,11 Jun 2027 22:43:10.306,11 Jun 2027 22:56:03.590,773.284
77,12 Jun 2027 00:19:29.976,12 Jun 2027 00:30:08.530,638.554
78,12 Jun 2027 06:35:42.963,12 Jun 2027 06:38:30.245,167.283
79,12 Jun 2027 08:05:39.981,12 Jun 2027 08:16:43.473,663.492
80,12 Jun 2027 09:40:05.075,12 Jun 2027 09:52:57.408,772.333
81,12 Jun 2027 11:18:22.104,12 Jun 2027 11:27:51.152,569.049
82,12 Jun 2027 21:19:51.957,12 Jun 2027 21:30:46.406,654.449
83,12 Jun 2027 22:55:11.667,12 Jun 2027 23:08:02.387,770.720
84,13 Jun 2027 00:31:39.017,13 Jun 2027 00:41:40.981,601.964
85,13 Jun 2027 06:46:24.276,13 Jun 2027 06:51:16.007,291.731
86,13 Jun 2027 08:17:18.719,13 Jun 2027 08:28:50.417,691.697
87,13 Jun 2027 09:52:09.833,13 Jun 2027 10:04:56.981,767.148
88,13 Jun 2027 11:31:07.564,13 Jun 2027 11:39:30.444,502.880
89,13 Jun 2027 21:31:42.920,13 Jun 2027 21:43:12.569,689.649
90,13 Jun 2027 23:07:13.939,13 Jun 2027 23:19:57.935,763.996
