dataset/facility_timing/facility_Facility-RioGallegos/RioGallegos-To-KinoSat_110609.csv

Acces,Start Time (UTCG),Stop Time (UTCG),Duration (sec)
1,1 Jun 2027 03:50:38.398,1 Jun 2027 03:58:19.415,461.017
2,1 Jun 2027 05:22:54.240,1 Jun 2027 05:35:13.713,739.473
3,1 Jun 2027 06:58:44.462,1 Jun 2027 07:11:02.194,737.733
4,1 Jun 2027 08:39:59.296,1 Jun 2027 08:44:05.590,246.294
5,1 Jun 2027 17:04:21.825,1 Jun 2027 17:09:11.914,290.089
6,1 Jun 2027 18:37:42.091,1 Jun 2027 18:50:04.372,742.281
7,1 Jun 2027 20:13:32.632,1 Jun 2027 20:25:47.869,735.237
8,1 Jun 2027 21:50:29.992,1 Jun 2027 21:57:55.998,446.006
9,2 Jun 2027 04:01:58.148,2 Jun 2027 04:10:33.891,515.743
10,2 Jun 2027 05:34:43.435,2 Jun 2027 05:47:17.404,753.970
11,2 Jun 2027 07:11:01.198,2 Jun 2027 07:22:57.110,715.912
12,2 Jun 2027 17:15:34.205,2 Jun 2027 17:22:29.762,415.557
13,2 Jun 2027 18:49:38.962,2 Jun 2027 19:02:16.117,757.155
14,2 Jun 2027 20:25:37.394,2 Jun 2027 20:37:33.092,715.698
15,2 Jun 2027 22:02:49.291,2 Jun 2027 22:09:08.029,378.738
16,3 Jun 2027 04:13:22.730,3 Jun 2027 04:22:45.870,563.139
17,3 Jun 2027 05:46:35.790,3 Jun 2027 05:59:20.244,764.455
18,3 Jun 2027 07:23:22.357,3 Jun 2027 07:34:50.110,687.753
19,3 Jun 2027 17:27:04.435,3 Jun 2027 17:35:26.667,502.232
20,3 Jun 2027 19:01:37.148,3 Jun 2027 19:14:24.161,767.013
21,3 Jun 2027 20:37:43.058,3 Jun 2027 20:49:15.087,692.029
22,3 Jun 2027 22:15:15.671,3 Jun 2027 22:20:10.711,295.040
23,4 Jun 2027 04:24:51.507,4 Jun 2027 04:34:55.995,604.488
24,4 Jun 2027 05:58:31.315,4 Jun 2027 06:11:22.220,770.905
25,4 Jun 2027 07:35:48.466,4 Jun 2027 07:46:40.718,652.252
26,4 Jun 2027 17:38:43.504,4 Jun 2027 17:48:11.795,568.291
27,4 Jun 2027 19:13:36.480,4 Jun 2027 19:26:28.693,772.214
28,4 Jun 2027 20:49:49.702,4 Jun 2027 21:00:53.770,664.067
29,4 Jun 2027 22:27:59.375,4 Jun 2027 22:30:53.828,174.453
30,5 Jun 2027 04:36:24.099,5 Jun 2027 04:47:04.646,640.547
31,5 Jun 2027 06:10:30.067,5 Jun 2027 06:23:23.291,773.224
32,5 Jun 2027 07:48:20.302,5 Jun 2027 07:58:28.241,607.939
33,5 Jun 2027 17:50:28.081,5 Jun 2027 18:00:48.587,620.506
34,5 Jun 2027 19:25:36.841,5 Jun 2027 19:38:29.866,773.025
35,5 Jun 2027 21:01:57.432,5 Jun 2027 21:12:29.014,631.582
36,6 Jun 2027 03:17:42.528,6 Jun 2027 03:21:15.253,212.725
37,6 Jun 2027 04:48:00.265,6 Jun 2027 04:59:12.085,671.820
38,6 Jun 2027 06:22:32.102,6 Jun 2027 06:35:23.392,771.290
39,6 Jun 2027 08:00:59.069,6 Jun 2027 08:10:11.578,552.509
40,6 Jun 2027 18:02:16.506,6 Jun 2027 18:13:18.832,662.326
41,6 Jun 2027 19:37:38.154,6 Jun 2027 19:50:27.765,769.611
42,6 Jun 2027 21:14:06.442,6 Jun 2027 21:24:00.642,594.200
43,7 Jun 2027 03:28:32.994,7 Jun 2027 03:33:52.189,319.195
44,7 Jun 2027 04:59:39.823,7 Jun 2027 05:11:18.460,698.638
45,7 Jun 2027 06:34:37.542,7 Jun 2027 06:47:22.433,764.891
46,7 Jun 2027 08:13:46.840,7 Jun 2027 08:21:48.759,481.919
47,7 Jun 2027 18:14:07.795,7 Jun 2027 18:25:43.578,695.782
48,7 Jun 2027 19:49:40.362,7 Jun 2027 20:02:22.456,762.095
49,7 Jun 2027 21:26:17.005,7 Jun 2027 21:35:28.362,551.357
50,8 Jun 2027 03:39:38.607,8 Jun 2027 03:46:16.230,397.624
51,8 Jun 2027 05:11:22.667,8 Jun 2027 05:23:23.879,721.213
52,8 Jun 2027 06:46:46.540,8 Jun 2027 06:59:20.292,753.752
53,8 Jun 2027 08:26:47.885,8 Jun 2027 08:33:15.641,387.756
54,8 Jun 2027 18:26:01.332,8 Jun 2027 18:38:03.537,722.204
55,8 Jun 2027 20:01:43.421,8 Jun 2027 20:14:13.984,750.563
56,8 Jun 2027 21:38:29.561,8 Jun 2027 21:46:51.751,502.190
57,9 Jun 2027 03:50:52.492,9 Jun 2027 03:58:34.274,461.783
58,9 Jun 2027 05:23:08.729,9 Jun 2027 05:35:28.413,739.684
59,9 Jun 2027 06:58:59.293,9 Jun 2027 07:11:16.783,737.490
60,9 Jun 2027 08:40:15.402,9 Jun 2027 08:44:19.180,243.777
61,9 Jun 2027 17:04:35.684,9 Jun 2027 17:09:27.756,292.072
62,9 Jun 2027 18:37:56.692,9 Jun 2027 18:50:19.185,742.493
63,9 Jun 2027 20:13:47.332,9 Jun 2027 20:26:02.347,735.014
64,9 Jun 2027 21:50:44.836,9 Jun 2027 21:58:10.087,445.250
65,10 Jun 2027 04:02:12.308,10 Jun 2027 04:10:48.709,516.400
66,10 Jun 2027 05:34:57.958,10 Jun 2027 05:47:32.092,754.133
67,10 Jun 2027 07:11:16.083,10 Jun 2027 07:23:11.675,715.592
68,10 Jun 2027 17:15:48.409,10 Jun 2027 17:22:45.217,416.807
69,10 Jun 2027 18:49:53.578,10 Jun 2027 19:02:30.884,757.306
70,10 Jun 2027 20:25:52.103,10 Jun 2027 20:37:47.531,715.427
71,10 Jun 2027 22:03:04.195,10 Jun 2027 22:09:22.028,377.833
72,11 Jun 2027 04:13:36.946,11 Jun 2027 04:23:00.662,563.716
73,11 Jun 2027 05:46:50.356,11 Jun 2027 05:59:34.919,764.563
74,11 Jun 2027 07:23:37.301,11 Jun 2027 07:35:04.644,687.343
75,11 Jun 2027 17:27:18.782,11 Jun 2027 17:35:41.936,503.153
76,11 Jun 2027 19:01:51.778,11 Jun 2027 19:14:38.882,767.105
77,11 Jun 2027 20:37:57.773,11 Jun 2027 20:49:29.484,691.712
78,11 Jun 2027 22:15:30.691,11 Jun 2027 22:20:24.567,293.876
79,12 Jun 2027 04:25:05.774,12 Jun 2027 04:35:10.765,604.991
80,12 Jun 2027 05:58:45.921,12 Jun 2027 06:11:36.882,770.961
81,12 Jun 2027 07:36:03.478,12 Jun 2027 07:46:55.215,651.737
82,12 Jun 2027 17:38:57.935,12 Jun 2027 17:48:26.943,569.009
83,12 Jun 2027 19:13:51.122,12 Jun 2027 19:26:43.371,772.249
84,12 Jun 2027 20:50:04.429,12 Jun 2027 21:01:08.125,663.697
85,12 Jun 2027 22:28:14.777,12 Jun 2027 22:31:07.274,172.497
86,13 Jun 2027 04:36:38.413,13 Jun 2027 04:47:19.398,640.985
87,13 Jun 2027 06:10:44.714,13 Jun 2027 06:23:37.940,773.226
88,13 Jun 2027 07:48:35.394,13 Jun 2027 07:58:42.690,607.296
89,13 Jun 2027 17:50:42.567,13 Jun 2027 18:01:03.644,621.078
90,13 Jun 2027 19:25:51.494,13 Jun 2027 19:38:44.502,773.008
91,13 Jun 2027 21:02:12.171,13 Jun 2027 21:12:43.327,631.156
