dataset/area_timing/orbit_20/Russia-To-KinoSat_112008.csv

Acces,Start Time (UTCG),Stop Time (UTCG),Duration (sec)
1,1 Jun 2027 00:52:01.364,1 Jun 2027 00:57:27.514,326.150
2,1 Jun 2027 02:28:29.984,1 Jun 2027 02:34:45.377,375.393
3,1 Jun 2027 04:03:58.695,1 Jun 2027 04:04:20.556,21.861
4,1 Jun 2027 04:04:23.784,1 Jun 2027 04:10:58.938,395.155
5,1 Jun 2027 05:43:16.364,1 Jun 2027 05:48:33.086,316.722
6,1 Jun 2027 05:49:30.340,1 Jun 2027 05:51:05.434,95.094
7,1 Jun 2027 07:09:36.438,1 Jun 2027 07:09:45.551,9.113
8,1 Jun 2027 07:20:21.473,1 Jun 2027 07:23:53.262,211.789
9,1 Jun 2027 08:44:21.188,1 Jun 2027 08:47:04.043,162.855
10,1 Jun 2027 10:20:06.232,1 Jun 2027 10:24:19.788,253.556
11,1 Jun 2027 11:54:57.321,1 Jun 2027 12:02:17.972,440.652
12,1 Jun 2027 13:31:33.037,1 Jun 2027 13:37:56.849,383.812
13,1 Jun 2027 15:09:50.771,1 Jun 2027 15:13:45.492,234.721
14,1 Jun 2027 16:43:11.012,1 Jun 2027 16:43:22.008,10.996
15,1 Jun 2027 16:45:10.586,1 Jun 2027 16:49:21.167,250.581
16,1 Jun 2027 16:49:41.023,1 Jun 2027 16:50:39.722,58.698
17,1 Jun 2027 21:51:33.943,1 Jun 2027 21:53:49.029,135.086
18,1 Jun 2027 23:27:47.942,1 Jun 2027 23:31:12.133,204.191
19,2 Jun 2027 01:04:27.340,2 Jun 2027 01:10:34.538,367.198
20,2 Jun 2027 02:40:38.343,2 Jun 2027 02:47:22.146,403.803
21,2 Jun 2027 04:16:39.291,2 Jun 2027 04:23:02.572,383.281
22,2 Jun 2027 05:55:37.335,2 Jun 2027 06:03:01.331,443.996
23,2 Jun 2027 07:20:52.958,2 Jun 2027 07:22:06.920,73.962
24,2 Jun 2027 07:32:21.929,2 Jun 2027 07:33:48.392,86.463
25,2 Jun 2027 08:54:59.691,2 Jun 2027 08:55:58.747,59.055
26,2 Jun 2027 08:56:35.507,2 Jun 2027 08:59:38.638,183.131
27,2 Jun 2027 10:30:18.946,2 Jun 2027 10:31:18.541,59.594
28,2 Jun 2027 10:31:51.626,2 Jun 2027 10:36:35.564,283.938
29,2 Jun 2027 12:06:50.432,2 Jun 2027 12:14:19.182,448.750
30,2 Jun 2027 13:43:54.479,2 Jun 2027 13:49:43.819,349.339
31,2 Jun 2027 13:49:44.241,2 Jun 2027 13:50:12.072,27.831
32,2 Jun 2027 15:21:48.817,2 Jun 2027 15:25:47.748,238.932
33,2 Jun 2027 16:55:01.922,2 Jun 2027 17:01:20.481,378.559
34,2 Jun 2027 17:01:42.869,2 Jun 2027 17:02:55.520,72.650
35,2 Jun 2027 22:03:32.595,2 Jun 2027 22:06:11.220,158.626
36,2 Jun 2027 23:39:55.482,2 Jun 2027 23:43:18.353,202.871
37,2 Jun 2027 23:44:57.023,2 Jun 2027 23:46:37.049,100.026
38,3 Jun 2027 01:16:45.843,3 Jun 2027 01:22:44.288,358.445
39,3 Jun 2027 02:52:40.314,3 Jun 2027 02:59:19.375,399.060
40,3 Jun 2027 04:28:55.252,3 Jun 2027 04:30:19.095,83.843
41,3 Jun 2027 04:30:22.192,3 Jun 2027 04:34:52.015,269.823
42,3 Jun 2027 06:07:53.505,3 Jun 2027 06:14:56.504,422.999
43,3 Jun 2027 07:32:07.633,3 Jun 2027 07:34:16.369,128.736
44,3 Jun 2027 07:44:19.854,3 Jun 2027 07:45:15.666,55.811
45,3 Jun 2027 09:06:35.786,3 Jun 2027 09:07:42.496,66.709
46,3 Jun 2027 09:08:31.545,3 Jun 2027 09:11:52.727,201.182
47,3 Jun 2027 10:41:28.748,3 Jun 2027 10:43:32.662,123.914
48,3 Jun 2027 10:43:39.126,3 Jun 2027 10:48:49.050,309.925
49,3 Jun 2027 10:49:34.169,3 Jun 2027 10:49:58.693,24.523
50,3 Jun 2027 12:19:03.138,3 Jun 2027 12:26:23.715,440.577
51,3 Jun 2027 13:55:45.937,3 Jun 2027 14:01:00.378,314.441
52,3 Jun 2027 14:01:02.814,3 Jun 2027 14:02:01.559,58.745
53,3 Jun 2027 14:02:05.470,3 Jun 2027 14:02:23.106,17.635
54,3 Jun 2027 15:33:49.035,3 Jun 2027 15:37:58.859,249.824
55,3 Jun 2027 17:07:30.575,3 Jun 2027 17:14:50.215,439.640
56,3 Jun 2027 22:15:36.440,3 Jun 2027 22:18:30.146,173.705
57,3 Jun 2027 23:52:04.082,3 Jun 2027 23:55:44.592,220.510
58,3 Jun 2027 23:56:48.930,3 Jun 2027 23:59:53.808,184.879
59,4 Jun 2027 01:28:36.902,4 Jun 2027 01:34:58.938,382.036
60,4 Jun 2027 03:04:09.422,4 Jun 2027 03:11:48.063,458.641
61,4 Jun 2027 04:41:14.555,4 Jun 2027 04:41:27.825,13.271
62,4 Jun 2027 04:41:41.753,4 Jun 2027 04:47:10.368,328.615
63,4 Jun 2027 06:20:00.052,4 Jun 2027 06:26:48.994,408.942
64,4 Jun 2027 07:44:13.653,4 Jun 2027 07:46:18.399,124.746
65,4 Jun 2027 07:56:43.466,4 Jun 2027 07:56:47.288,3.822
66,4 Jun 2027 09:18:04.774,4 Jun 2027 09:19:28.294,83.520
67,4 Jun 2027 09:20:05.660,4 Jun 2027 09:24:05.565,239.905
68,4 Jun 2027 10:52:59.069,4 Jun 2027 11:01:08.620,489.551
69,4 Jun 2027 11:01:28.721,4 Jun 2027 11:02:26.819,58.098
70,4 Jun 2027 12:30:57.518,4 Jun 2027 12:38:24.248,446.730
71,4 Jun 2027 14:07:52.871,4 Jun 2027 14:13:15.996,323.125
72,4 Jun 2027 14:13:34.841,4 Jun 2027 14:14:26.089,51.248
73,4 Jun 2027 15:45:35.492,4 Jun 2027 15:49:57.986,262.494
74,4 Jun 2027 17:21:35.216,4 Jun 2027 17:25:11.007,215.791
75,4 Jun 2027 22:27:42.275,4 Jun 2027 22:32:29.802,287.528
76,5 Jun 2027 00:03:58.718,5 Jun 2027 00:08:42.133,283.415
77,5 Jun 2027 00:08:51.999,5 Jun 2027 00:10:42.036,110.037
78,5 Jun 2027 00:11:27.168,5 Jun 2027 00:12:08.920,41.752
79,5 Jun 2027 01:40:36.699,5 Jun 2027 01:47:11.722,395.023
80,5 Jun 2027 03:16:08.081,5 Jun 2027 03:23:54.480,466.399
81,5 Jun 2027 04:53:52.358,5 Jun 2027 04:54:01.099,8.741
82,5 Jun 2027 04:54:13.925,5 Jun 2027 04:54:22.715,8.790
83,5 Jun 2027 04:54:23.913,5 Jun 2027 04:55:15.554,51.641
84,5 Jun 2027 04:55:20.537,5 Jun 2027 04:55:59.053,38.516
85,5 Jun 2027 04:55:59.551,5 Jun 2027 04:59:28.805,209.254
86,5 Jun 2027 06:32:21.269,5 Jun 2027 06:37:18.799,297.529
87,5 Jun 2027 07:56:09.639,5 Jun 2027 07:58:25.603,135.964
88,5 Jun 2027 09:32:09.570,5 Jun 2027 09:36:02.120,232.549
89,5 Jun 2027 11:05:53.458,5 Jun 2027 11:13:18.051,444.593
90,5 Jun 2027 11:13:19.969,5 Jun 2027 11:14:28.694,68.725
91,5 Jun 2027 12:43:19.261,5 Jun 2027 12:50:24.373,425.111
92,5 Jun 2027 14:20:22.833,5 Jun 2027 14:24:52.158,269.325
93,5 Jun 2027 14:25:00.462,5 Jun 2027 14:26:13.542,73.080
94,5 Jun 2027 15:57:08.230,5 Jun 2027 16:01:55.777,287.548
95,5 Jun 2027 17:32:24.575,5 Jun 2027 17:32:30.903,6.328
96,5 Jun 2027 17:34:05.969,5 Jun 2027 17:36:55.779,169.809
97,5 Jun 2027 22:39:58.437,5 Jun 2027 22:42:33.918,155.481
98,5 Jun 2027 22:43:05.044,5 Jun 2027 22:44:48.155,103.111
99,6 Jun 2027 00:15:57.903,6 Jun 2027 00:22:40.245,402.342
100,6 Jun 2027 01:52:40.790,6 Jun 2027 01:59:03.098,382.308
101,6 Jun 2027 03:28:12.496,6 Jun 2027 03:35:42.616,450.120
102,6 Jun 2027 05:06:19.491,6 Jun 2027 05:06:47.675,28.184
103,6 Jun 2027 05:06:51.674,6 Jun 2027 05:12:31.468,339.794
104,6 Jun 2027 06:44:20.201,6 Jun 2027 06:49:13.485,293.284
105,6 Jun 2027 08:08:01.325,6 Jun 2027 08:10:36.956,155.631
106,6 Jun 2027 09:44:24.454,6 Jun 2027 09:47:57.361,212.907
107,6 Jun 2027 11:16:37.192,6 Jun 2027 11:16:48.585,11.393
108,6 Jun 2027 11:18:30.547,6 Jun 2027 11:25:22.911,412.364
109,6 Jun 2027 11:25:26.210,6 Jun 2027 11:26:27.769,61.558
110,6 Jun 2027 12:55:31.917,6 Jun 2027 13:02:15.307,403.390
111,6 Jun 2027 14:32:29.726,6 Jun 2027 14:36:52.950,263.224
112,6 Jun 2027 14:36:53.456,6 Jun 2027 14:37:28.114,34.658
113,6 Jun 2027 16:09:14.788,6 Jun 2027 16:13:56.861,282.072
114,6 Jun 2027 17:47:28.659,6 Jun 2027 17:48:24.940,56.282
115,6 Jun 2027 22:52:06.230,6 Jun 2027 22:54:23.814,137.584
116,7 Jun 2027 00:28:02.192,7 Jun 2027 00:34:33.584,391.391
117,7 Jun 2027 02:04:43.323,7 Jun 2027 02:11:13.936,390.613
118,7 Jun 2027 03:40:15.721,7 Jun 2027 03:47:48.740,453.019
119,7 Jun 2027 05:18:25.605,7 Jun 2027 05:19:29.168,63.563
120,7 Jun 2027 05:19:36.449,7 Jun 2027 05:24:42.992,306.543
121,7 Jun 2027 06:57:34.083,7 Jun 2027 07:01:07.592,213.509
122,7 Jun 2027 08:20:06.261,7 Jun 2027 08:23:06.305,180.044
123,7 Jun 2027 09:56:35.262,7 Jun 2027 10:00:03.722,208.459
124,7 Jun 2027 11:31:41.838,7 Jun 2027 11:38:27.618,405.780
125,7 Jun 2027 13:08:03.862,7 Jun 2027 13:14:21.829,377.967
126,7 Jun 2027 14:45:31.102,7 Jun 2027 14:49:57.786,266.684
127,7 Jun 2027 16:21:39.321,7 Jun 2027 16:25:51.529,252.208
128,7 Jun 2027 23:04:13.294,7 Jun 2027 23:07:16.548,183.254
129,8 Jun 2027 00:40:07.900,8 Jun 2027 00:45:52.365,344.466
130,8 Jun 2027 02:16:49.336,8 Jun 2027 02:22:59.248,369.912
131,8 Jun 2027 03:52:13.896,8 Jun 2027 03:59:17.980,424.084
132,8 Jun 2027 05:30:29.986,8 Jun 2027 05:31:11.356,41.369
133,8 Jun 2027 05:31:33.866,8 Jun 2027 05:36:37.403,303.537
134,8 Jun 2027 07:08:43.126,8 Jun 2027 07:09:19.635,36.509
135,8 Jun 2027 07:09:37.503,8 Jun 2027 07:12:14.921,157.418
136,8 Jun 2027 08:32:02.290,8 Jun 2027 08:35:18.138,195.848
137,8 Jun 2027 10:08:39.690,8 Jun 2027 10:12:06.287,206.597
138,8 Jun 2027 11:43:50.277,8 Jun 2027 11:50:26.712,396.435
139,8 Jun 2027 13:19:47.491,8 Jun 2027 13:25:54.973,367.482
140,8 Jun 2027 13:26:03.466,8 Jun 2027 13:26:13.202,9.736
141,8 Jun 2027 14:57:38.039,8 Jun 2027 15:02:10.101,272.062
142,8 Jun 2027 16:33:37.226,8 Jun 2027 16:37:51.558,254.332
143,8 Jun 2027 16:37:55.693,8 Jun 2027 16:38:39.410,43.717
144,8 Jun 2027 21:40:24.734,8 Jun 2027 21:41:40.588,75.855
145,8 Jun 2027 23:16:09.026,8 Jun 2027 23:19:18.394,189.368
146,9 Jun 2027 00:52:40.190,9 Jun 2027 00:57:46.573,306.383
147,9 Jun 2027 02:28:48.183,9 Jun 2027 02:35:37.256,409.073
148,9 Jun 2027 04:04:17.294,9 Jun 2027 04:11:18.147,420.854
149,9 Jun 2027 05:43:34.694,9 Jun 2027 05:48:51.811,317.117
150,9 Jun 2027 05:49:45.346,9 Jun 2027 05:51:22.228,96.882
151,9 Jun 2027 07:09:50.688,9 Jun 2027 07:10:07.436,16.748
152,9 Jun 2027 07:20:39.015,9 Jun 2027 07:24:08.009,208.994
153,9 Jun 2027 08:44:37.767,9 Jun 2027 08:47:22.429,164.661
154,9 Jun 2027 10:20:24.287,9 Jun 2027 10:24:37.899,253.612
155,9 Jun 2027 11:55:06.922,9 Jun 2027 12:02:36.526,449.603
156,9 Jun 2027 13:31:52.508,9 Jun 2027 13:38:14.999,382.492
157,9 Jun 2027 15:10:09.201,9 Jun 2027 15:14:03.613,234.411
158,9 Jun 2027 16:43:27.310,9 Jun 2027 16:44:56.694,89.384
159,9 Jun 2027 16:45:25.268,9 Jun 2027 16:49:41.553,256.284
160,9 Jun 2027 16:50:00.848,9 Jun 2027 16:50:58.633,57.785
161,9 Jun 2027 21:51:51.249,9 Jun 2027 21:54:11.669,140.420
162,9 Jun 2027 23:28:06.074,9 Jun 2027 23:31:29.843,203.770
163,10 Jun 2027 01:04:48.655,10 Jun 2027 01:10:54.740,366.085
164,10 Jun 2027 02:40:57.331,10 Jun 2027 02:47:39.689,402.357
165,10 Jun 2027 04:16:57.572,10 Jun 2027 04:23:21.056,383.484
166,10 Jun 2027 05:55:56.638,10 Jun 2027 06:03:15.892,439.255
167,10 Jun 2027 07:21:06.076,10 Jun 2027 07:22:25.216,79.140
168,10 Jun 2027 07:32:40.207,10 Jun 2027 07:34:04.370,84.163
169,10 Jun 2027 08:55:15.857,10 Jun 2027 08:56:14.533,58.676
170,10 Jun 2027 08:56:53.034,10 Jun 2027 08:59:57.354,184.320
171,10 Jun 2027 10:30:24.713,10 Jun 2027 10:31:38.741,74.028
172,10 Jun 2027 10:32:07.586,10 Jun 2027 10:36:55.647,288.061
173,10 Jun 2027 12:07:12.309,10 Jun 2027 12:14:37.602,445.293
174,10 Jun 2027 13:44:13.354,10 Jun 2027 13:50:02.906,349.552
175,10 Jun 2027 13:50:04.468,10 Jun 2027 13:50:25.144,20.675
176,10 Jun 2027 15:22:06.793,10 Jun 2027 15:26:06.551,239.758
177,10 Jun 2027 16:55:24.220,10 Jun 2027 17:01:41.715,377.495
178,10 Jun 2027 17:01:58.909,10 Jun 2027 17:03:11.546,72.638
179,10 Jun 2027 22:03:50.809,10 Jun 2027 22:06:28.550,157.741
180,10 Jun 2027 23:40:14.414,10 Jun 2027 23:43:36.625,202.212
181,10 Jun 2027 23:45:14.756,10 Jun 2027 23:47:00.352,105.596
182,11 Jun 2027 01:17:04.116,11 Jun 2027 01:23:02.983,358.867
183,11 Jun 2027 02:52:57.596,11 Jun 2027 02:59:40.750,403.154
184,11 Jun 2027 04:29:13.913,11 Jun 2027 04:30:38.060,84.147
185,11 Jun 2027 04:30:38.442,11 Jun 2027 04:35:09.613,271.171
186,11 Jun 2027 06:08:14.195,11 Jun 2027 06:15:13.487,419.292
187,11 Jun 2027 07:32:24.364,11 Jun 2027 07:34:35.639,131.275
188,11 Jun 2027 07:44:37.646,11 Jun 2027 07:45:32.484,54.838
189,11 Jun 2027 09:06:51.553,11 Jun 2027 09:07:59.707,68.153
190,11 Jun 2027 09:08:48.300,11 Jun 2027 09:12:11.675,203.375
191,11 Jun 2027 10:41:44.552,11 Jun 2027 10:43:53.416,128.864
192,11 Jun 2027 10:43:55.763,11 Jun 2027 10:49:09.024,313.261
193,11 Jun 2027 10:49:50.709,11 Jun 2027 10:50:17.057,26.348
194,11 Jun 2027 12:19:19.671,11 Jun 2027 12:26:41.408,441.737
195,11 Jun 2027 13:56:02.917,11 Jun 2027 14:02:17.566,374.649
196,11 Jun 2027 14:02:21.815,11 Jun 2027 14:02:41.868,20.054
197,11 Jun 2027 15:34:06.708,11 Jun 2027 15:38:16.617,249.909
198,11 Jun 2027 17:07:50.757,11 Jun 2027 17:15:07.868,437.112
199,11 Jun 2027 22:15:55.016,11 Jun 2027 22:18:39.841,164.824
200,11 Jun 2027 23:52:21.325,11 Jun 2027 23:56:12.514,231.189
201,11 Jun 2027 23:57:06.981,12 Jun 2027 00:00:14.516,187.535
202,12 Jun 2027 01:28:54.332,12 Jun 2027 01:35:18.207,383.875
203,12 Jun 2027 03:04:26.504,12 Jun 2027 03:05:16.525,50.021
204,12 Jun 2027 03:05:21.396,12 Jun 2027 03:12:11.786,410.390
205,12 Jun 2027 04:41:33.128,12 Jun 2027 04:41:45.796,12.668
206,12 Jun 2027 04:42:00.515,12 Jun 2027 04:47:30.032,329.516
207,12 Jun 2027 06:20:20.986,12 Jun 2027 06:27:04.651,403.665
208,12 Jun 2027 07:44:30.462,12 Jun 2027 07:46:24.823,114.362
209,12 Jun 2027 09:18:20.568,12 Jun 2027 09:19:42.580,82.012
210,12 Jun 2027 09:20:24.000,12 Jun 2027 09:24:24.218,240.218
211,12 Jun 2027 10:53:15.032,12 Jun 2027 11:01:26.601,491.569
212,12 Jun 2027 11:01:46.889,12 Jun 2027 11:02:45.075,58.186
213,12 Jun 2027 12:31:15.774,12 Jun 2027 12:38:43.428,447.654
214,12 Jun 2027 14:08:10.172,12 Jun 2027 14:13:30.689,320.517
215,12 Jun 2027 14:13:51.106,12 Jun 2027 14:14:42.372,51.266
216,12 Jun 2027 15:45:44.403,12 Jun 2027 15:50:15.446,271.043
217,12 Jun 2027 17:21:57.204,12 Jun 2027 17:25:26.190,208.986
218,12 Jun 2027 22:28:21.622,12 Jun 2027 22:32:49.338,267.716
219,13 Jun 2027 00:04:15.428,13 Jun 2027 00:09:03.403,287.975
220,13 Jun 2027 00:09:09.943,13 Jun 2027 00:11:02.701,112.758
221,13 Jun 2027 00:11:44.269,13 Jun 2027 00:12:31.103,46.834
222,13 Jun 2027 01:40:55.396,13 Jun 2027 01:47:28.688,393.292
223,13 Jun 2027 03:16:25.886,13 Jun 2027 03:24:12.257,466.371
224,13 Jun 2027 04:54:11.040,13 Jun 2027 04:54:14.495,3.455
225,13 Jun 2027 04:54:32.515,13 Jun 2027 04:55:32.921,60.407
226,13 Jun 2027 04:55:37.853,13 Jun 2027 04:59:47.603,249.750
227,13 Jun 2027 06:32:57.643,13 Jun 2027 06:37:38.010,280.367
228,13 Jun 2027 07:56:26.970,13 Jun 2027 07:58:44.250,137.280
229,13 Jun 2027 09:32:39.229,13 Jun 2027 09:36:11.393,212.164
230,13 Jun 2027 11:06:12.354,13 Jun 2027 11:14:46.815,514.462
231,13 Jun 2027 12:43:38.298,13 Jun 2027 12:50:41.944,423.646
232,13 Jun 2027 14:20:39.884,13 Jun 2027 14:25:09.877,269.993
233,13 Jun 2027 14:25:17.290,13 Jun 2027 14:26:31.150,73.860
234,13 Jun 2027 15:57:30.413,13 Jun 2027 16:02:13.850,283.437
235,13 Jun 2027 17:34:42.653,13 Jun 2027 17:37:12.678,150.025
236,13 Jun 2027 22:40:15.052,13 Jun 2027 22:42:53.047,157.995
237,13 Jun 2027 22:43:28.080,13 Jun 2027 22:45:02.158,94.077
