dataset/area_timing/orbit_04/Russia-To-KinoSat_110401.csv

Acces,Start Time (UTCG),Stop Time (UTCG),Duration (sec)
1,1 Jun 2027 01:18:30.035,1 Jun 2027 01:22:43.712,253.677
2,1 Jun 2027 02:54:02.551,1 Jun 2027 02:54:10.867,8.317
3,1 Jun 2027 02:55:12.773,1 Jun 2027 02:59:41.031,268.258
4,1 Jun 2027 04:29:57.825,1 Jun 2027 04:37:31.622,453.798
5,1 Jun 2027 06:06:58.699,1 Jun 2027 06:13:06.329,367.629
6,1 Jun 2027 07:44:59.170,1 Jun 2027 07:48:56.003,236.833
7,1 Jun 2027 09:18:13.069,1 Jun 2027 09:26:05.807,472.737
8,1 Jun 2027 14:26:44.323,1 Jun 2027 14:29:09.656,145.333
9,1 Jun 2027 16:02:59.574,1 Jun 2027 16:06:23.197,203.623
10,1 Jun 2027 17:39:42.279,1 Jun 2027 17:45:55.149,372.870
11,1 Jun 2027 19:15:50.581,1 Jun 2027 19:22:26.358,395.777
12,1 Jun 2027 20:51:50.769,1 Jun 2027 20:58:16.336,385.567
13,1 Jun 2027 22:30:51.087,1 Jun 2027 22:38:07.788,436.701
14,1 Jun 2027 23:55:50.865,1 Jun 2027 23:57:21.544,90.679
15,2 Jun 2027 00:07:33.288,2 Jun 2027 00:08:53.931,80.643
16,2 Jun 2027 01:29:46.473,2 Jun 2027 01:31:00.118,73.645
17,2 Jun 2027 01:31:47.986,2 Jun 2027 01:34:57.023,189.037
18,2 Jun 2027 03:04:54.318,2 Jun 2027 03:06:22.960,88.642
19,2 Jun 2027 03:06:55.870,2 Jun 2027 03:11:53.981,298.111
20,2 Jun 2027 03:12:50.126,2 Jun 2027 03:13:04.715,14.589
21,2 Jun 2027 04:42:06.711,2 Jun 2027 04:49:32.530,445.819
22,2 Jun 2027 06:19:03.888,2 Jun 2027 06:25:12.473,368.586
23,2 Jun 2027 07:56:56.928,2 Jun 2027 08:00:58.350,241.423
24,2 Jun 2027 09:30:31.297,2 Jun 2027 09:38:03.362,452.064
25,2 Jun 2027 14:38:44.117,2 Jun 2027 14:41:22.400,158.283
26,2 Jun 2027 16:15:07.710,2 Jun 2027 16:18:30.233,202.523
27,2 Jun 2027 16:20:05.421,2 Jun 2027 16:22:16.143,130.721
28,2 Jun 2027 17:51:57.534,2 Jun 2027 17:57:54.874,357.340
29,2 Jun 2027 19:27:50.716,2 Jun 2027 19:34:36.757,406.041
30,2 Jun 2027 21:04:06.310,2 Jun 2027 21:10:04.615,358.305
31,2 Jun 2027 22:43:09.855,2 Jun 2027 22:50:07.638,417.783
32,3 Jun 2027 00:07:18.557,3 Jun 2027 00:09:33.707,135.150
33,3 Jun 2027 00:19:30.405,3 Jun 2027 00:20:10.059,39.654
34,3 Jun 2027 01:41:31.691,3 Jun 2027 01:42:52.598,80.907
35,3 Jun 2027 01:43:34.924,3 Jun 2027 01:47:08.464,213.540
36,3 Jun 2027 03:16:23.899,3 Jun 2027 03:24:14.714,470.815
37,3 Jun 2027 03:24:39.299,3 Jun 2027 03:25:33.162,53.862
38,3 Jun 2027 04:54:08.508,3 Jun 2027 05:01:34.278,445.770
39,3 Jun 2027 06:30:56.326,3 Jun 2027 06:36:49.749,353.424
40,3 Jun 2027 06:36:57.725,3 Jun 2027 06:37:38.827,41.102
41,3 Jun 2027 08:09:00.047,3 Jun 2027 08:13:07.656,247.609
42,3 Jun 2027 09:42:50.569,3 Jun 2027 09:49:31.316,400.747
43,3 Jun 2027 14:50:47.674,3 Jun 2027 14:53:36.078,168.405
44,3 Jun 2027 16:27:13.815,3 Jun 2027 16:31:10.256,236.441
45,3 Jun 2027 16:32:12.302,3 Jun 2027 16:35:12.562,180.260
46,3 Jun 2027 18:03:46.908,3 Jun 2027 18:10:13.159,386.251
47,3 Jun 2027 19:39:20.190,3 Jun 2027 19:47:06.900,466.711
48,3 Jun 2027 21:16:32.208,3 Jun 2027 21:16:38.428,6.220
49,3 Jun 2027 21:16:52.810,3 Jun 2027 21:17:20.503,27.693
50,3 Jun 2027 21:17:22.392,3 Jun 2027 21:22:23.958,301.566
51,3 Jun 2027 22:55:14.317,3 Jun 2027 23:01:56.695,402.377
52,4 Jun 2027 00:19:21.342,4 Jun 2027 00:21:31.307,129.965
53,4 Jun 2027 01:55:18.509,4 Jun 2027 01:59:12.758,234.249
54,4 Jun 2027 03:29:08.349,4 Jun 2027 03:36:27.991,439.642
55,4 Jun 2027 03:36:38.238,4 Jun 2027 03:37:37.894,59.656
56,4 Jun 2027 05:06:11.453,4 Jun 2027 05:13:31.616,440.163
57,4 Jun 2027 06:43:05.927,4 Jun 2027 06:48:08.887,302.960
58,4 Jun 2027 06:48:19.984,4 Jun 2027 06:49:26.529,66.545
59,4 Jun 2027 08:20:12.219,4 Jun 2027 08:25:05.577,293.359
60,4 Jun 2027 09:55:13.603,4 Jun 2027 09:55:56.950,43.347
61,4 Jun 2027 09:56:53.453,4 Jun 2027 10:00:13.349,199.896
62,4 Jun 2027 15:02:52.692,4 Jun 2027 15:05:10.772,138.080
63,4 Jun 2027 15:05:31.481,4 Jun 2027 15:08:04.051,152.569
64,4 Jun 2027 16:39:07.677,4 Jun 2027 16:43:59.056,291.379
65,4 Jun 2027 16:44:01.772,4 Jun 2027 16:45:59.993,118.221
66,4 Jun 2027 18:15:47.378,4 Jun 2027 18:22:21.987,394.608
67,4 Jun 2027 19:51:18.448,4 Jun 2027 19:58:59.450,461.002
68,4 Jun 2027 21:29:24.405,4 Jun 2027 21:30:24.656,60.250
69,4 Jun 2027 21:30:29.744,4 Jun 2027 21:35:36.845,307.101
70,4 Jun 2027 23:07:50.739,4 Jun 2027 23:12:32.981,282.242
71,5 Jun 2027 00:31:15.476,5 Jun 2027 00:33:40.196,144.720
72,5 Jun 2027 02:07:36.354,5 Jun 2027 02:11:04.353,207.999
73,5 Jun 2027 03:41:06.292,5 Jun 2027 03:49:37.139,510.847
74,5 Jun 2027 05:18:37.128,5 Jun 2027 05:25:22.127,404.999
75,5 Jun 2027 06:55:33.361,5 Jun 2027 06:59:56.732,263.371
76,5 Jun 2027 07:00:02.975,5 Jun 2027 07:01:20.226,77.251
77,5 Jun 2027 08:32:23.780,5 Jun 2027 08:36:56.315,272.536
78,5 Jun 2027 10:10:00.862,5 Jun 2027 10:11:43.660,102.798
79,5 Jun 2027 15:15:06.691,5 Jun 2027 15:17:39.500,152.809
80,5 Jun 2027 15:18:23.535,5 Jun 2027 15:19:45.144,81.609
81,5 Jun 2027 16:51:08.074,5 Jun 2027 16:57:46.103,398.029
82,5 Jun 2027 18:27:50.244,5 Jun 2027 18:34:13.723,383.479
83,5 Jun 2027 20:03:22.296,5 Jun 2027 20:10:55.732,453.437
84,5 Jun 2027 21:41:28.916,5 Jun 2027 21:41:55.847,26.932
85,5 Jun 2027 21:41:59.778,5 Jun 2027 21:47:38.423,338.644
86,5 Jun 2027 23:19:29.817,5 Jun 2027 23:24:17.702,287.885
87,6 Jun 2027 00:43:06.326,6 Jun 2027 00:45:49.113,162.786
88,6 Jun 2027 02:19:37.984,6 Jun 2027 02:23:11.666,213.683
89,6 Jun 2027 03:53:55.942,6 Jun 2027 04:00:31.286,395.344
90,6 Jun 2027 04:00:34.131,6 Jun 2027 04:01:32.375,58.245
91,6 Jun 2027 05:30:43.807,6 Jun 2027 05:37:26.777,402.971
92,6 Jun 2027 07:08:24.825,6 Jun 2027 07:12:52.398,267.574
93,6 Jun 2027 08:44:26.283,6 Jun 2027 08:49:14.098,287.815
94,6 Jun 2027 15:27:16.259,6 Jun 2027 15:29:33.119,136.860
95,6 Jun 2027 17:03:11.709,6 Jun 2027 17:09:33.435,381.726
96,6 Jun 2027 18:39:52.853,6 Jun 2027 18:46:21.884,389.031
97,6 Jun 2027 20:15:25.382,6 Jun 2027 20:22:50.466,445.084
98,6 Jun 2027 21:53:34.762,6 Jun 2027 21:54:36.565,61.804
99,6 Jun 2027 21:54:43.926,6 Jun 2027 21:59:49.276,305.350
100,6 Jun 2027 23:32:42.711,6 Jun 2027 23:36:09.636,206.925
101,7 Jun 2027 00:55:16.290,7 Jun 2027 00:58:22.398,186.109
102,7 Jun 2027 02:31:47.377,7 Jun 2027 02:35:21.407,214.030
103,7 Jun 2027 04:06:57.101,7 Jun 2027 04:13:34.034,396.933
104,7 Jun 2027 05:43:19.599,7 Jun 2027 05:49:32.652,373.053
105,7 Jun 2027 07:20:34.911,7 Jun 2027 07:25:12.819,277.908
106,7 Jun 2027 08:56:49.551,7 Jun 2027 09:01:32.917,283.366
107,7 Jun 2027 14:04:31.661,7 Jun 2027 14:04:44.221,12.560
108,7 Jun 2027 15:39:23.914,7 Jun 2027 15:42:29.362,185.448
109,7 Jun 2027 17:15:17.163,7 Jun 2027 17:20:55.500,338.336
110,7 Jun 2027 18:51:58.220,7 Jun 2027 18:58:06.744,368.525
111,7 Jun 2027 20:27:23.637,7 Jun 2027 20:34:23.888,420.251
112,7 Jun 2027 22:05:39.068,7 Jun 2027 22:06:20.495,41.427
113,7 Jun 2027 22:06:42.369,7 Jun 2027 22:11:43.509,301.140
114,7 Jun 2027 23:43:51.464,7 Jun 2027 23:44:27.915,36.451
115,7 Jun 2027 23:44:56.526,7 Jun 2027 23:47:23.338,146.811
116,8 Jun 2027 01:07:56.066,8 Jun 2027 01:10:28.263,152.197
117,8 Jun 2027 02:43:41.392,8 Jun 2027 02:47:38.255,236.863
118,8 Jun 2027 04:18:38.871,8 Jun 2027 04:25:41.293,422.423
119,8 Jun 2027 05:54:51.496,8 Jun 2027 06:01:19.142,387.646
120,8 Jun 2027 07:33:04.053,8 Jun 2027 07:37:03.115,239.062
121,8 Jun 2027 09:08:32.137,8 Jun 2027 09:12:55.973,263.836
122,8 Jun 2027 09:13:03.037,8 Jun 2027 09:14:00.154,57.117
123,8 Jun 2027 14:15:28.310,8 Jun 2027 14:16:52.630,84.320
124,8 Jun 2027 15:51:16.584,8 Jun 2027 15:54:24.837,188.252
125,8 Jun 2027 17:27:48.602,8 Jun 2027 17:32:57.039,308.436
126,8 Jun 2027 19:03:56.709,8 Jun 2027 19:10:44.350,407.640
127,8 Jun 2027 20:39:25.134,8 Jun 2027 20:46:32.924,427.790
128,8 Jun 2027 22:18:43.487,8 Jun 2027 22:24:22.832,339.345
129,8 Jun 2027 22:24:53.695,8 Jun 2027 22:26:29.028,95.333
130,8 Jun 2027 23:44:40.115,8 Jun 2027 23:45:23.745,43.630
131,8 Jun 2027 23:55:46.953,8 Jun 2027 23:57:30.960,104.007
132,8 Jun 2027 23:57:37.617,8 Jun 2027 23:59:12.244,94.627
133,9 Jun 2027 01:18:44.357,9 Jun 2027 01:22:58.598,254.241
134,9 Jun 2027 02:54:16.914,9 Jun 2027 02:54:27.300,10.386
135,9 Jun 2027 02:55:27.098,9 Jun 2027 02:59:55.962,268.863
136,9 Jun 2027 04:30:12.283,9 Jun 2027 04:37:46.174,453.892
137,9 Jun 2027 06:07:13.446,9 Jun 2027 06:13:21.148,367.702
138,9 Jun 2027 07:45:13.627,9 Jun 2027 07:49:10.610,236.983
139,9 Jun 2027 09:18:27.262,9 Jun 2027 09:24:37.656,370.393
140,9 Jun 2027 09:24:38.456,9 Jun 2027 09:26:20.368,101.912
141,9 Jun 2027 14:26:58.891,9 Jun 2027 14:29:24.414,145.523
142,9 Jun 2027 16:03:14.262,9 Jun 2027 16:06:37.965,203.704
143,9 Jun 2027 17:39:56.981,9 Jun 2027 17:46:10.043,373.062
144,9 Jun 2027 19:16:05.426,9 Jun 2027 19:22:41.075,395.649
145,9 Jun 2027 20:52:05.453,9 Jun 2027 20:58:31.043,385.590
146,9 Jun 2027 22:31:06.041,9 Jun 2027 22:38:22.151,436.111
147,9 Jun 2027 23:56:05.516,9 Jun 2027 23:57:36.247,90.731
148,10 Jun 2027 00:07:47.903,10 Jun 2027 00:09:08.614,80.711
149,10 Jun 2027 01:30:00.975,10 Jun 2027 01:31:14.554,73.579
150,10 Jun 2027 01:32:02.743,10 Jun 2027 01:35:11.899,189.156
151,10 Jun 2027 03:05:08.696,10 Jun 2027 03:06:37.477,88.781
152,10 Jun 2027 03:07:10.338,10 Jun 2027 03:12:08.827,298.489
153,10 Jun 2027 03:13:02.196,10 Jun 2027 03:13:19.516,17.320
154,10 Jun 2027 04:42:21.464,10 Jun 2027 04:49:47.188,445.724
155,10 Jun 2027 06:19:18.225,10 Jun 2027 06:25:27.119,368.893
156,10 Jun 2027 07:57:11.652,10 Jun 2027 08:01:12.888,241.235
157,10 Jun 2027 09:30:45.931,10 Jun 2027 09:38:17.991,452.060
158,10 Jun 2027 14:38:58.834,10 Jun 2027 14:41:37.137,158.304
159,10 Jun 2027 16:15:22.523,10 Jun 2027 16:18:45.035,202.511
160,10 Jun 2027 16:20:19.992,10 Jun 2027 16:22:31.477,131.484
161,10 Jun 2027 17:52:12.492,10 Jun 2027 17:58:09.254,356.763
162,10 Jun 2027 19:28:05.299,10 Jun 2027 19:34:52.315,407.015
163,10 Jun 2027 21:04:21.008,10 Jun 2027 21:10:19.492,358.484
164,10 Jun 2027 22:43:24.544,10 Jun 2027 22:50:24.444,419.900
165,11 Jun 2027 00:07:33.420,11 Jun 2027 00:09:48.553,135.132
166,11 Jun 2027 00:19:44.967,11 Jun 2027 00:20:24.623,39.656
167,11 Jun 2027 01:41:46.309,11 Jun 2027 01:43:07.340,81.031
168,11 Jun 2027 01:43:49.481,11 Jun 2027 01:47:23.219,213.738
169,11 Jun 2027 03:16:38.213,11 Jun 2027 03:24:29.425,471.213
170,11 Jun 2027 03:24:53.902,11 Jun 2027 03:25:48.070,54.169
171,11 Jun 2027 04:54:23.350,11 Jun 2027 05:01:48.913,445.563
172,11 Jun 2027 06:31:11.039,11 Jun 2027 06:37:04.283,353.244
173,11 Jun 2027 06:37:12.123,11 Jun 2027 06:37:53.510,41.387
174,11 Jun 2027 08:09:14.803,11 Jun 2027 08:13:22.401,247.598
175,11 Jun 2027 09:43:05.082,11 Jun 2027 09:49:45.758,400.676
176,11 Jun 2027 14:51:02.308,11 Jun 2027 14:53:51.205,168.897
177,11 Jun 2027 16:27:28.336,11 Jun 2027 16:31:26.425,238.089
178,11 Jun 2027 16:32:21.921,11 Jun 2027 16:35:27.412,185.491
179,11 Jun 2027 18:04:01.560,11 Jun 2027 18:10:27.869,386.309
180,11 Jun 2027 19:39:34.577,11 Jun 2027 19:47:21.715,467.138
181,11 Jun 2027 21:16:46.864,11 Jun 2027 21:16:53.083,6.219
182,11 Jun 2027 21:17:07.551,11 Jun 2027 21:17:35.178,27.627
183,11 Jun 2027 21:17:37.036,11 Jun 2027 21:22:38.554,301.517
184,11 Jun 2027 22:55:29.202,11 Jun 2027 23:02:11.299,402.097
185,12 Jun 2027 00:19:35.944,12 Jun 2027 00:21:48.834,132.890
186,12 Jun 2027 01:55:33.129,12 Jun 2027 01:59:27.492,234.363
187,12 Jun 2027 03:29:23.029,12 Jun 2027 03:36:42.641,439.613
188,12 Jun 2027 03:36:52.870,12 Jun 2027 03:37:52.492,59.623
189,12 Jun 2027 05:06:26.231,12 Jun 2027 05:13:46.133,439.902
190,12 Jun 2027 06:43:20.609,12 Jun 2027 06:48:23.443,302.834
191,12 Jun 2027 06:48:34.242,12 Jun 2027 06:49:40.978,66.736
192,12 Jun 2027 08:20:27.001,12 Jun 2027 08:25:20.187,293.186
193,12 Jun 2027 09:55:28.540,12 Jun 2027 09:56:11.692,43.151
194,12 Jun 2027 09:57:08.098,12 Jun 2027 10:00:27.788,199.690
195,12 Jun 2027 15:03:07.356,12 Jun 2027 15:05:17.382,130.026
196,12 Jun 2027 15:05:46.221,12 Jun 2027 15:08:19.575,153.354
197,12 Jun 2027 16:39:22.208,12 Jun 2027 16:44:14.285,292.078
198,12 Jun 2027 16:44:16.328,12 Jun 2027 16:46:14.639,118.311
199,12 Jun 2027 18:16:02.149,12 Jun 2027 18:22:36.784,394.635
200,12 Jun 2027 19:51:33.032,12 Jun 2027 19:59:12.371,459.339
201,12 Jun 2027 21:29:39.192,12 Jun 2027 21:30:39.148,59.956
202,12 Jun 2027 21:30:44.353,12 Jun 2027 21:35:51.728,307.375
203,12 Jun 2027 23:08:05.605,12 Jun 2027 23:12:47.496,281.891
204,13 Jun 2027 00:31:29.981,13 Jun 2027 00:33:54.973,144.993
205,13 Jun 2027 02:07:51.301,13 Jun 2027 02:11:19.043,207.741
206,13 Jun 2027 03:41:21.000,13 Jun 2027 03:49:51.761,510.761
207,13 Jun 2027 05:18:52.030,13 Jun 2027 05:25:36.736,404.706
208,13 Jun 2027 06:55:47.961,13 Jun 2027 07:00:11.375,263.414
209,13 Jun 2027 07:00:16.919,13 Jun 2027 07:01:34.761,77.842
210,13 Jun 2027 08:32:38.386,13 Jun 2027 08:37:10.996,272.610
211,13 Jun 2027 10:10:15.516,13 Jun 2027 10:11:58.661,103.146
212,13 Jun 2027 15:15:21.281,13 Jun 2027 15:17:54.521,153.240
213,13 Jun 2027 15:18:38.746,13 Jun 2027 15:19:58.935,80.188
214,13 Jun 2027 16:51:22.798,13 Jun 2027 16:58:00.531,397.733
215,13 Jun 2027 18:28:04.858,13 Jun 2027 18:34:28.306,383.448
216,13 Jun 2027 20:03:36.930,13 Jun 2027 20:11:10.346,453.416
217,13 Jun 2027 21:41:43.140,13 Jun 2027 21:42:10.323,27.183
218,13 Jun 2027 21:42:14.297,13 Jun 2027 21:47:53.068,338.771
219,13 Jun 2027 23:19:44.466,13 Jun 2027 23:24:32.067,287.600
