dataset/area_timing/orbit_04/Russia-To-KinoSat_110403.csv

Acces,Start Time (UTCG),Stop Time (UTCG),Duration (sec)
1,1 Jun 2027 00:59:49.012,1 Jun 2027 01:03:01.995,192.983
2,1 Jun 2027 02:36:24.973,1 Jun 2027 02:39:51.943,206.970
3,1 Jun 2027 04:11:35.238,1 Jun 2027 04:18:10.905,395.667
4,1 Jun 2027 05:47:55.073,1 Jun 2027 05:53:39.037,343.963
5,1 Jun 2027 05:53:46.590,1 Jun 2027 05:53:58.435,11.846
6,1 Jun 2027 07:25:21.588,1 Jun 2027 07:29:54.261,272.674
7,1 Jun 2027 09:01:25.239,1 Jun 2027 09:05:35.723,250.484
8,1 Jun 2027 09:05:40.741,1 Jun 2027 09:06:17.564,36.822
9,1 Jun 2027 14:08:33.656,1 Jun 2027 14:08:36.272,2.616
10,1 Jun 2027 15:44:02.604,1 Jun 2027 15:47:09.839,187.235
11,1 Jun 2027 17:19:54.237,1 Jun 2027 17:25:32.392,338.155
12,1 Jun 2027 18:56:29.239,1 Jun 2027 19:02:42.788,373.549
13,1 Jun 2027 20:31:59.901,1 Jun 2027 20:38:54.566,414.664
14,1 Jun 2027 22:10:17.729,1 Jun 2027 22:10:19.417,1.688
15,1 Jun 2027 22:11:17.902,1 Jun 2027 22:16:23.458,305.556
16,1 Jun 2027 22:17:47.210,1 Jun 2027 22:19:14.550,87.340
17,1 Jun 2027 23:37:40.320,1 Jun 2027 23:37:45.301,4.981
18,1 Jun 2027 23:48:26.274,1 Jun 2027 23:49:05.752,39.477
19,1 Jun 2027 23:49:25.784,1 Jun 2027 23:52:01.110,155.326
20,2 Jun 2027 01:12:23.200,2 Jun 2027 01:15:05.918,162.718
21,2 Jun 2027 02:48:11.269,2 Jun 2027 02:52:21.652,250.383
22,2 Jun 2027 04:23:04.517,2 Jun 2027 04:30:20.228,435.711
23,2 Jun 2027 05:59:34.806,2 Jun 2027 06:05:58.650,383.843
24,2 Jun 2027 07:37:52.696,2 Jun 2027 07:41:36.002,223.306
25,2 Jun 2027 09:13:18.249,2 Jun 2027 09:17:21.405,243.156
26,2 Jun 2027 09:17:41.792,2 Jun 2027 09:18:41.095,59.303
27,2 Jun 2027 14:19:48.398,2 Jun 2027 14:21:39.655,111.257
28,2 Jun 2027 15:55:50.161,2 Jun 2027 15:59:11.129,200.968
29,2 Jun 2027 17:32:24.786,2 Jun 2027 17:37:38.931,314.145
30,2 Jun 2027 19:08:34.889,2 Jun 2027 19:15:23.108,408.219
31,2 Jun 2027 20:44:29.176,2 Jun 2027 20:51:05.116,395.940
32,2 Jun 2027 22:23:21.404,2 Jun 2027 22:28:59.153,337.750
33,2 Jun 2027 22:29:23.314,2 Jun 2027 22:30:59.652,96.338
34,2 Jun 2027 23:48:58.936,2 Jun 2027 23:50:08.155,69.219
35,3 Jun 2027 00:00:22.185,3 Jun 2027 00:02:02.840,100.655
36,3 Jun 2027 00:03:01.786,3 Jun 2027 00:03:06.910,5.124
37,3 Jun 2027 01:22:57.560,3 Jun 2027 01:24:00.696,63.135
38,3 Jun 2027 01:24:14.256,3 Jun 2027 01:27:40.012,205.756
39,3 Jun 2027 02:58:28.356,3 Jun 2027 02:59:19.154,50.798
40,3 Jun 2027 02:59:56.845,3 Jun 2027 03:04:36.941,280.096
41,3 Jun 2027 04:34:48.430,3 Jun 2027 04:42:20.881,452.451
42,3 Jun 2027 06:11:54.561,3 Jun 2027 06:17:58.366,363.805
43,3 Jun 2027 07:49:50.029,3 Jun 2027 07:53:48.209,238.180
44,3 Jun 2027 09:22:55.496,3 Jun 2027 09:29:16.362,380.867
45,3 Jun 2027 09:29:57.643,3 Jun 2027 09:30:57.185,59.542
46,3 Jun 2027 14:31:33.725,3 Jun 2027 14:34:19.539,165.813
47,3 Jun 2027 16:07:52.785,3 Jun 2027 16:11:18.305,205.520
48,3 Jun 2027 17:44:33.045,3 Jun 2027 17:50:45.406,372.361
49,3 Jun 2027 19:20:39.640,3 Jun 2027 19:27:19.751,400.111
50,3 Jun 2027 20:56:44.348,3 Jun 2027 21:02:52.591,368.243
51,3 Jun 2027 22:35:50.420,3 Jun 2027 22:42:59.010,428.589
52,4 Jun 2027 00:00:41.001,4 Jun 2027 00:02:17.145,96.144
53,4 Jun 2027 00:12:24.703,4 Jun 2027 00:13:25.458,60.755
54,4 Jun 2027 01:34:39.515,4 Jun 2027 01:35:45.637,66.122
55,4 Jun 2027 01:36:33.092,4 Jun 2027 01:39:53.573,200.481
56,4 Jun 2027 03:09:36.263,4 Jun 2027 03:11:33.285,117.022
57,4 Jun 2027 03:11:41.347,4 Jun 2027 03:16:59.355,318.008
58,4 Jun 2027 03:17:34.838,4 Jun 2027 03:17:59.968,25.130
59,4 Jun 2027 04:47:05.932,4 Jun 2027 04:54:24.538,438.607
60,4 Jun 2027 06:23:50.609,4 Jun 2027 06:29:08.687,318.078
61,4 Jun 2027 06:29:09.850,4 Jun 2027 06:30:03.033,53.183
62,4 Jun 2027 06:30:06.856,4 Jun 2027 06:30:23.948,17.093
63,4 Jun 2027 08:01:49.326,4 Jun 2027 08:06:00.181,250.855
64,4 Jun 2027 09:35:26.854,4 Jun 2027 09:42:51.456,444.602
65,4 Jun 2027 14:43:33.898,4 Jun 2027 14:46:18.707,164.809
66,4 Jun 2027 16:20:04.530,4 Jun 2027 16:23:27.635,203.105
67,4 Jun 2027 16:24:49.045,4 Jun 2027 16:27:32.551,163.506
68,4 Jun 2027 17:56:46.618,4 Jun 2027 18:02:47.925,361.307
69,4 Jun 2027 19:32:17.657,4 Jun 2027 19:32:35.733,18.076
70,4 Jun 2027 19:32:44.931,4 Jun 2027 19:39:43.791,418.860
71,4 Jun 2027 21:09:02.998,4 Jun 2027 21:10:13.184,70.186
72,4 Jun 2027 21:10:15.216,4 Jun 2027 21:11:14.413,59.197
73,4 Jun 2027 21:11:15.669,4 Jun 2027 21:15:06.008,230.339
74,4 Jun 2027 22:47:51.815,4 Jun 2027 22:54:53.400,421.584
75,5 Jun 2027 00:12:14.335,5 Jun 2027 00:14:19.880,125.545
76,5 Jun 2027 00:24:26.479,5 Jun 2027 00:24:57.887,31.409
77,5 Jun 2027 01:46:11.369,5 Jun 2027 01:47:31.019,79.651
78,5 Jun 2027 01:48:19.320,5 Jun 2027 01:52:05.937,226.616
79,5 Jun 2027 03:21:05.198,5 Jun 2027 03:29:09.189,483.992
80,5 Jun 2027 03:29:29.282,5 Jun 2027 03:30:27.549,58.266
81,5 Jun 2027 04:58:59.732,5 Jun 2027 05:06:25.120,445.389
82,5 Jun 2027 06:35:43.911,5 Jun 2027 06:41:28.572,344.662
83,5 Jun 2027 06:41:30.024,5 Jun 2027 06:42:27.082,57.058
84,5 Jun 2027 08:13:37.440,5 Jun 2027 08:17:59.451,262.012
85,5 Jun 2027 09:49:35.332,5 Jun 2027 09:53:54.930,259.598
86,5 Jun 2027 14:55:40.388,5 Jun 2027 14:58:36.078,175.690
87,5 Jun 2027 14:59:06.867,5 Jun 2027 15:00:05.669,58.802
88,5 Jun 2027 16:32:03.566,5 Jun 2027 16:36:25.549,261.983
89,5 Jun 2027 16:36:57.412,5 Jun 2027 16:40:06.026,188.614
90,5 Jun 2027 18:08:38.178,5 Jun 2027 18:15:10.911,392.733
91,5 Jun 2027 19:44:09.458,5 Jun 2027 19:51:51.897,462.439
92,5 Jun 2027 21:21:47.493,5 Jun 2027 21:23:26.146,98.653
93,5 Jun 2027 21:23:51.402,5 Jun 2027 21:27:22.486,211.084
94,5 Jun 2027 23:00:14.006,5 Jun 2027 23:05:22.536,308.530
95,6 Jun 2027 00:24:09.839,6 Jun 2027 00:26:26.265,136.426
96,6 Jun 2027 02:00:09.889,6 Jun 2027 02:04:02.842,232.953
97,6 Jun 2027 03:33:58.207,6 Jun 2027 03:42:28.875,510.668
98,6 Jun 2027 05:11:08.397,6 Jun 2027 05:18:24.464,436.067
99,6 Jun 2027 06:48:22.619,6 Jun 2027 06:52:52.860,270.241
100,6 Jun 2027 06:53:03.135,6 Jun 2027 06:54:13.872,70.737
101,6 Jun 2027 08:25:03.300,6 Jun 2027 08:29:55.797,292.497
102,6 Jun 2027 10:00:15.965,6 Jun 2027 10:00:29.737,13.771
103,6 Jun 2027 10:02:01.554,6 Jun 2027 10:04:58.109,176.555
104,6 Jun 2027 15:07:45.067,6 Jun 2027 15:10:17.631,152.563
105,6 Jun 2027 15:10:38.971,6 Jun 2027 15:13:13.435,154.463
106,6 Jun 2027 16:43:57.011,6 Jun 2027 16:50:55.063,418.052
107,6 Jun 2027 18:20:41.539,6 Jun 2027 18:27:06.074,384.536
108,6 Jun 2027 19:56:08.963,6 Jun 2027 20:03:41.918,452.955
109,6 Jun 2027 21:34:25.127,6 Jun 2027 21:35:03.511,38.384
110,6 Jun 2027 21:35:11.296,6 Jun 2027 21:36:00.367,49.071
111,6 Jun 2027 21:36:02.599,6 Jun 2027 21:40:34.209,271.611
112,6 Jun 2027 23:12:42.413,6 Jun 2027 23:17:22.919,280.505
113,7 Jun 2027 00:36:02.086,7 Jun 2027 00:38:37.143,155.057
114,7 Jun 2027 02:12:23.143,7 Jun 2027 02:15:54.782,211.639
115,7 Jun 2027 03:46:25.068,7 Jun 2027 03:53:22.253,417.184
116,7 Jun 2027 03:53:26.141,7 Jun 2027 03:54:27.170,61.029
117,7 Jun 2027 05:23:32.871,7 Jun 2027 05:30:14.881,402.010
118,7 Jun 2027 07:00:30.769,7 Jun 2027 07:05:29.236,298.467
119,7 Jun 2027 08:37:18.024,7 Jun 2027 08:41:48.883,270.859
120,7 Jun 2027 10:15:28.465,7 Jun 2027 10:16:29.042,60.577
121,7 Jun 2027 15:20:03.779,7 Jun 2027 15:22:20.259,136.480
122,7 Jun 2027 15:23:35.252,7 Jun 2027 15:24:12.002,36.750
123,7 Jun 2027 16:56:01.495,7 Jun 2027 17:02:32.906,391.411
124,7 Jun 2027 18:32:42.975,7 Jun 2027 18:39:06.573,383.598
125,7 Jun 2027 20:08:16.213,7 Jun 2027 20:15:45.581,449.368
126,7 Jun 2027 21:46:17.775,7 Jun 2027 21:46:22.560,4.785
127,7 Jun 2027 21:46:47.313,7 Jun 2027 21:52:33.803,346.490
128,7 Jun 2027 23:24:58.670,7 Jun 2027 23:29:00.034,241.364
129,8 Jun 2027 00:48:03.146,8 Jun 2027 00:50:42.957,159.811
130,8 Jun 2027 02:24:29.307,8 Jun 2027 02:28:02.224,212.917
131,8 Jun 2027 03:59:37.879,8 Jun 2027 04:05:23.586,345.707
132,8 Jun 2027 04:05:23.730,8 Jun 2027 04:06:27.135,63.405
133,8 Jun 2027 05:35:58.395,8 Jun 2027 05:42:20.857,382.462
134,8 Jun 2027 07:13:32.438,8 Jun 2027 07:17:55.022,262.585
135,8 Jun 2027 08:49:35.805,8 Jun 2027 08:53:47.630,251.825
136,8 Jun 2027 15:32:07.288,8 Jun 2027 15:34:48.309,161.021
137,8 Jun 2027 17:08:04.311,8 Jun 2027 17:14:06.004,361.694
138,8 Jun 2027 18:44:46.780,8 Jun 2027 18:51:06.672,379.892
139,8 Jun 2027 20:20:17.349,8 Jun 2027 20:27:28.878,431.529
140,8 Jun 2027 21:58:26.214,8 Jun 2027 21:59:28.242,62.028
141,8 Jun 2027 21:59:34.687,8 Jun 2027 22:04:38.331,303.644
142,8 Jun 2027 23:36:44.792,8 Jun 2027 23:37:17.323,32.531
143,8 Jun 2027 23:37:32.876,8 Jun 2027 23:40:32.479,179.602
144,9 Jun 2027 01:00:03.438,9 Jun 2027 01:03:16.733,193.295
145,9 Jun 2027 02:36:39.604,9 Jun 2027 02:40:06.521,206.917
146,9 Jun 2027 04:11:49.842,9 Jun 2027 04:18:25.599,395.757
147,9 Jun 2027 05:48:08.473,9 Jun 2027 05:53:53.708,345.234
148,9 Jun 2027 05:54:01.511,9 Jun 2027 05:54:12.878,11.366
149,9 Jun 2027 07:25:36.433,9 Jun 2027 07:30:08.999,272.566
150,9 Jun 2027 09:01:39.903,9 Jun 2027 09:05:50.353,250.450
151,9 Jun 2027 09:05:55.283,9 Jun 2027 09:06:32.695,37.412
152,9 Jun 2027 14:08:47.638,9 Jun 2027 14:08:51.166,3.528
153,9 Jun 2027 15:44:17.281,9 Jun 2027 15:47:24.826,187.545
154,9 Jun 2027 17:20:08.861,9 Jun 2027 17:25:46.918,338.057
155,9 Jun 2027 18:56:43.914,9 Jun 2027 19:02:57.437,373.523
156,9 Jun 2027 20:32:14.661,9 Jun 2027 20:39:08.809,414.148
157,9 Jun 2027 22:10:33.023,9 Jun 2027 22:10:33.384,0.361
158,9 Jun 2027 22:11:32.549,9 Jun 2027 22:16:38.167,305.617
159,9 Jun 2027 22:17:57.100,9 Jun 2027 22:19:29.011,91.911
160,9 Jun 2027 23:37:54.511,9 Jun 2027 23:38:00.624,6.113
161,9 Jun 2027 23:48:40.848,9 Jun 2027 23:49:20.428,39.580
162,9 Jun 2027 23:49:40.210,9 Jun 2027 23:52:15.820,155.609
163,10 Jun 2027 01:12:38.040,10 Jun 2027 01:15:20.594,162.554
164,10 Jun 2027 02:48:25.076,10 Jun 2027 02:52:36.334,251.258
165,10 Jun 2027 04:23:18.857,10 Jun 2027 04:30:35.002,436.145
166,10 Jun 2027 05:59:49.316,10 Jun 2027 06:06:13.331,384.015
167,10 Jun 2027 07:38:07.467,10 Jun 2027 07:41:50.450,222.983
168,10 Jun 2027 09:13:32.694,10 Jun 2027 09:17:36.380,243.686
169,10 Jun 2027 09:17:56.565,10 Jun 2027 09:18:55.851,59.286
170,10 Jun 2027 14:20:02.666,10 Jun 2027 14:21:54.440,111.774
171,10 Jun 2027 15:56:04.772,10 Jun 2027 15:59:25.952,201.180
172,10 Jun 2027 17:32:39.486,10 Jun 2027 17:37:53.910,314.424
173,10 Jun 2027 19:08:49.572,10 Jun 2027 19:15:38.054,408.482
174,10 Jun 2027 20:44:51.507,10 Jun 2027 20:51:19.758,388.251
175,10 Jun 2027 22:23:36.119,10 Jun 2027 22:29:14.489,338.370
176,10 Jun 2027 22:29:37.917,10 Jun 2027 22:31:14.088,96.171
177,10 Jun 2027 23:49:12.988,10 Jun 2027 23:50:22.904,69.916
178,11 Jun 2027 00:00:36.756,11 Jun 2027 00:02:17.443,100.687
179,11 Jun 2027 00:03:16.548,11 Jun 2027 00:03:21.143,4.595
180,11 Jun 2027 01:23:12.373,11 Jun 2027 01:24:15.115,62.742
181,11 Jun 2027 01:24:28.880,11 Jun 2027 01:27:54.759,205.880
182,11 Jun 2027 02:58:42.959,11 Jun 2027 02:59:33.748,50.789
183,11 Jun 2027 03:00:11.322,11 Jun 2027 03:04:51.769,280.447
184,11 Jun 2027 04:35:03.157,11 Jun 2027 04:42:35.559,452.402
185,11 Jun 2027 06:12:09.189,11 Jun 2027 06:18:12.976,363.788
186,11 Jun 2027 07:50:04.725,11 Jun 2027 07:54:02.862,238.137
187,11 Jun 2027 09:23:10.482,11 Jun 2027 09:29:31.227,380.745
188,11 Jun 2027 09:30:12.321,11 Jun 2027 09:31:11.811,59.490
189,11 Jun 2027 14:31:48.364,11 Jun 2027 14:34:34.215,165.851
190,11 Jun 2027 16:08:07.512,11 Jun 2027 16:11:32.545,205.032
191,11 Jun 2027 17:44:47.575,11 Jun 2027 17:50:59.910,372.335
192,11 Jun 2027 19:20:54.225,11 Jun 2027 19:27:34.223,399.998
193,11 Jun 2027 20:56:59.053,11 Jun 2027 21:03:06.958,367.904
194,11 Jun 2027 22:36:05.072,11 Jun 2027 22:43:13.700,428.628
195,12 Jun 2027 00:00:55.759,12 Jun 2027 00:02:31.898,96.139
196,12 Jun 2027 00:12:39.378,12 Jun 2027 00:13:39.747,60.369
197,12 Jun 2027 01:34:53.982,12 Jun 2027 01:36:00.166,66.184
198,12 Jun 2027 01:36:47.518,12 Jun 2027 01:40:08.366,200.847
199,12 Jun 2027 03:09:50.420,12 Jun 2027 03:11:48.095,117.674
200,12 Jun 2027 03:11:55.837,12 Jun 2027 03:17:04.769,308.932
201,12 Jun 2027 03:17:49.195,12 Jun 2027 03:18:14.651,25.457
202,12 Jun 2027 04:47:20.427,12 Jun 2027 04:54:39.128,438.702
203,12 Jun 2027 06:24:05.192,12 Jun 2027 06:29:22.623,317.431
204,12 Jun 2027 06:29:24.660,12 Jun 2027 06:30:17.503,52.843
205,12 Jun 2027 06:30:21.324,12 Jun 2027 06:30:38.694,17.370
206,12 Jun 2027 08:02:03.970,12 Jun 2027 08:06:14.790,250.821
207,12 Jun 2027 09:35:41.484,12 Jun 2027 09:43:06.048,444.564
208,12 Jun 2027 14:43:48.508,12 Jun 2027 14:46:33.732,165.224
209,12 Jun 2027 16:20:19.257,12 Jun 2027 16:23:42.675,203.419
210,12 Jun 2027 16:25:03.071,12 Jun 2027 16:27:47.487,164.416
211,12 Jun 2027 17:57:01.226,12 Jun 2027 18:03:02.726,361.500
212,12 Jun 2027 19:32:32.209,12 Jun 2027 19:32:50.439,18.230
213,12 Jun 2027 19:32:59.616,12 Jun 2027 19:39:59.186,419.569
214,12 Jun 2027 21:09:17.771,12 Jun 2027 21:10:27.698,69.927
215,12 Jun 2027 21:10:30.074,12 Jun 2027 21:15:20.782,290.708
216,12 Jun 2027 22:48:06.592,12 Jun 2027 22:55:07.804,421.212
217,13 Jun 2027 00:12:29.010,13 Jun 2027 00:14:34.424,125.414
218,13 Jun 2027 00:24:41.181,13 Jun 2027 00:25:12.535,31.355
219,13 Jun 2027 01:46:25.891,13 Jun 2027 01:47:45.532,79.641
220,13 Jun 2027 01:48:33.721,13 Jun 2027 01:52:20.720,226.999
221,13 Jun 2027 03:21:19.628,13 Jun 2027 03:29:23.846,484.218
222,13 Jun 2027 03:29:43.948,13 Jun 2027 03:30:42.195,58.247
223,13 Jun 2027 04:59:14.417,13 Jun 2027 05:06:39.927,445.511
224,13 Jun 2027 06:35:58.841,13 Jun 2027 06:41:42.452,343.611
225,13 Jun 2027 06:41:45.616,13 Jun 2027 06:42:41.581,55.965
226,13 Jun 2027 08:13:51.997,13 Jun 2027 08:18:14.035,262.038
227,13 Jun 2027 09:49:50.003,13 Jun 2027 09:54:09.450,259.447
228,13 Jun 2027 14:55:55.207,13 Jun 2027 14:58:50.781,175.573
229,13 Jun 2027 14:59:21.392,13 Jun 2027 15:00:20.223,58.831
230,13 Jun 2027 16:32:18.202,13 Jun 2027 16:36:40.827,262.626
231,13 Jun 2027 16:37:11.342,13 Jun 2027 16:38:50.331,98.989
232,13 Jun 2027 18:08:52.769,13 Jun 2027 18:15:25.469,392.701
233,13 Jun 2027 19:44:24.158,13 Jun 2027 19:52:06.606,462.447
234,13 Jun 2027 21:22:02.222,13 Jun 2027 21:23:40.711,98.490
235,13 Jun 2027 21:24:07.047,13 Jun 2027 21:27:37.285,210.238
236,13 Jun 2027 23:00:28.923,13 Jun 2027 23:05:38.385,309.462
