dataset/area_timing/orbit_04/Russia-To-KinoSat_110410.csv

Acces,Start Time (UTCG),Stop Time (UTCG),Duration (sec)
1,1 Jun 2027 00:05:06.422,1 Jun 2027 00:06:34.096,87.673
2,1 Jun 2027 01:27:38.434,1 Jun 2027 01:28:39.915,61.482
3,1 Jun 2027 01:29:20.771,1 Jun 2027 01:32:27.913,187.143
4,1 Jun 2027 03:02:42.110,1 Jun 2027 03:04:01.364,79.255
5,1 Jun 2027 03:04:32.880,1 Jun 2027 03:09:26.902,294.022
6,1 Jun 2027 04:39:41.056,1 Jun 2027 04:47:05.640,444.584
7,1 Jun 2027 06:16:39.082,1 Jun 2027 06:22:33.013,353.931
8,1 Jun 2027 07:54:35.063,1 Jun 2027 07:58:33.752,238.690
9,1 Jun 2027 09:27:54.903,1 Jun 2027 09:35:40.019,465.116
10,1 Jun 2027 14:36:18.080,1 Jun 2027 14:38:56.533,158.453
11,1 Jun 2027 16:12:39.923,1 Jun 2027 16:16:03.776,203.853
12,1 Jun 2027 16:17:42.134,1 Jun 2027 16:19:26.124,103.990
13,1 Jun 2027 17:49:12.855,1 Jun 2027 17:55:30.098,377.243
14,1 Jun 2027 19:25:28.470,1 Jun 2027 19:32:05.611,397.141
15,1 Jun 2027 21:01:31.677,1 Jun 2027 21:07:36.828,365.151
16,1 Jun 2027 22:40:38.185,1 Jun 2027 22:47:40.867,422.682
17,2 Jun 2027 00:04:48.703,2 Jun 2027 00:07:05.729,137.026
18,2 Jun 2027 00:17:05.238,2 Jun 2027 00:18:01.428,56.189
19,2 Jun 2027 01:39:03.500,2 Jun 2027 01:40:27.776,84.275
20,2 Jun 2027 01:41:11.226,2 Jun 2027 01:44:41.216,209.990
21,2 Jun 2027 03:14:05.620,2 Jun 2027 03:21:46.776,461.155
22,2 Jun 2027 03:22:14.397,2 Jun 2027 03:22:46.430,32.033
23,2 Jun 2027 04:51:42.903,2 Jun 2027 04:59:09.076,446.173
24,2 Jun 2027 06:28:28.931,2 Jun 2027 06:34:26.236,357.305
25,2 Jun 2027 06:34:40.902,2 Jun 2027 06:35:11.457,30.555
26,2 Jun 2027 08:06:34.011,2 Jun 2027 08:10:42.659,248.648
27,2 Jun 2027 09:40:21.880,2 Jun 2027 09:47:08.471,406.591
28,2 Jun 2027 14:48:20.916,2 Jun 2027 14:51:15.037,174.120
29,2 Jun 2027 16:24:50.006,2 Jun 2027 16:28:37.600,227.594
30,2 Jun 2027 16:29:33.606,2 Jun 2027 16:32:40.768,187.161
31,2 Jun 2027 18:01:22.903,2 Jun 2027 18:07:43.908,381.005
32,2 Jun 2027 19:36:55.403,2 Jun 2027 19:37:40.474,45.070
33,2 Jun 2027 19:37:46.127,2 Jun 2027 19:44:37.007,410.880
34,2 Jun 2027 21:13:58.873,2 Jun 2027 21:14:16.502,17.629
35,2 Jun 2027 21:14:24.604,2 Jun 2027 21:14:54.036,29.432
36,2 Jun 2027 21:14:58.769,2 Jun 2027 21:15:53.061,54.292
37,2 Jun 2027 21:15:53.477,2 Jun 2027 21:19:55.690,242.213
38,2 Jun 2027 22:52:43.093,2 Jun 2027 22:59:32.700,409.607
39,3 Jun 2027 00:16:56.381,3 Jun 2027 00:18:51.111,114.730
40,3 Jun 2027 00:29:26.374,3 Jun 2027 00:29:32.274,5.900
41,3 Jun 2027 01:50:45.860,3 Jun 2027 01:56:45.385,359.525
42,3 Jun 2027 03:25:37.949,3 Jun 2027 03:33:54.149,496.200
43,3 Jun 2027 03:34:11.708,3 Jun 2027 03:35:12.517,60.809
44,3 Jun 2027 05:03:43.602,3 Jun 2027 05:11:10.331,446.729
45,3 Jun 2027 06:40:37.940,3 Jun 2027 06:45:44.708,306.768
46,3 Jun 2027 06:45:56.103,3 Jun 2027 06:47:04.213,68.109
47,3 Jun 2027 08:17:46.840,3 Jun 2027 08:22:40.932,294.093
48,3 Jun 2027 09:52:36.915,3 Jun 2027 09:53:33.854,56.940
49,3 Jun 2027 09:54:28.791,3 Jun 2027 09:57:50.440,201.650
50,3 Jun 2027 15:00:26.394,3 Jun 2027 15:05:14.784,288.390
51,3 Jun 2027 16:36:46.936,3 Jun 2027 16:41:27.400,280.464
52,3 Jun 2027 16:41:36.867,3 Jun 2027 16:43:27.069,110.202
53,3 Jun 2027 16:44:11.507,3 Jun 2027 16:44:58.046,46.539
54,3 Jun 2027 18:13:21.034,3 Jun 2027 18:19:55.591,394.557
55,3 Jun 2027 19:48:53.175,3 Jun 2027 19:56:39.480,466.305
56,3 Jun 2027 21:26:34.732,3 Jun 2027 21:26:46.694,11.962
57,3 Jun 2027 21:26:57.876,3 Jun 2027 21:27:59.629,61.753
58,3 Jun 2027 21:28:05.314,3 Jun 2027 21:32:13.381,248.067
59,3 Jun 2027 23:05:05.098,3 Jun 2027 23:10:03.794,298.695
60,4 Jun 2027 00:28:52.237,4 Jun 2027 00:31:12.697,140.460
61,4 Jun 2027 02:05:05.106,4 Jun 2027 02:08:38.086,212.981
62,4 Jun 2027 03:38:38.333,4 Jun 2027 03:47:11.870,513.537
63,4 Jun 2027 05:16:09.379,4 Jun 2027 05:22:55.744,406.364
64,4 Jun 2027 06:53:05.620,4 Jun 2027 06:57:35.385,269.765
65,4 Jun 2027 06:57:40.489,4 Jun 2027 06:58:57.021,76.532
66,4 Jun 2027 08:29:59.620,4 Jun 2027 08:34:35.222,275.602
67,4 Jun 2027 10:07:09.791,4 Jun 2027 10:09:37.221,147.430
68,4 Jun 2027 15:12:43.577,4 Jun 2027 15:15:17.025,153.448
69,4 Jun 2027 15:15:48.659,4 Jun 2027 15:17:31.488,102.828
70,4 Jun 2027 16:48:41.481,4 Jun 2027 16:55:21.872,400.391
71,4 Jun 2027 18:25:24.293,4 Jun 2027 18:31:46.823,382.531
72,4 Jun 2027 20:00:54.201,4 Jun 2027 20:08:27.357,453.156
73,4 Jun 2027 21:39:06.863,4 Jun 2027 21:45:15.142,368.279
74,4 Jun 2027 23:17:05.073,4 Jun 2027 23:21:57.233,292.159
75,5 Jun 2027 00:40:43.154,5 Jun 2027 00:43:22.170,159.016
76,5 Jun 2027 02:17:10.063,5 Jun 2027 02:20:45.916,215.853
77,5 Jun 2027 03:49:18.858,5 Jun 2027 03:49:29.405,10.548
78,5 Jun 2027 03:51:17.109,5 Jun 2027 03:58:05.127,408.018
79,5 Jun 2027 03:58:08.110,5 Jun 2027 03:59:06.157,58.047
80,5 Jun 2027 05:28:16.007,5 Jun 2027 05:35:00.303,404.296
81,5 Jun 2027 07:05:38.692,5 Jun 2027 07:09:41.261,242.569
82,5 Jun 2027 07:09:43.772,5 Jun 2027 07:10:22.643,38.871
83,5 Jun 2027 08:42:01.582,5 Jun 2027 08:47:06.687,305.105
84,5 Jun 2027 10:20:18.178,5 Jun 2027 10:20:58.117,39.939
85,5 Jun 2027 15:24:49.233,5 Jun 2027 15:27:07.129,137.896
86,5 Jun 2027 17:00:45.758,5 Jun 2027 17:07:16.986,391.228
87,5 Jun 2027 18:37:27.557,5 Jun 2027 18:43:57.625,390.068
88,5 Jun 2027 20:13:00.602,5 Jun 2027 20:20:32.108,451.505
89,5 Jun 2027 21:51:12.806,5 Jun 2027 21:52:14.001,61.196
90,5 Jun 2027 21:52:20.446,5 Jun 2027 21:57:26.397,305.951
91,5 Jun 2027 23:29:38.934,5 Jun 2027 23:33:51.095,252.161
92,6 Jun 2027 00:52:51.347,6 Jun 2027 00:55:54.846,183.500
93,6 Jun 2027 02:29:19.777,6 Jun 2027 02:32:57.948,218.171
94,6 Jun 2027 04:04:31.029,6 Jun 2027 04:11:08.315,397.286
95,6 Jun 2027 05:40:49.583,6 Jun 2027 05:47:06.220,376.637
96,6 Jun 2027 07:18:12.465,6 Jun 2027 07:22:45.248,272.783
97,6 Jun 2027 08:54:22.910,6 Jun 2027 08:58:58.974,276.064
98,6 Jun 2027 15:36:55.738,6 Jun 2027 15:39:59.123,183.385
99,6 Jun 2027 17:12:50.297,6 Jun 2027 17:18:35.818,345.521
100,6 Jun 2027 18:49:32.051,6 Jun 2027 18:55:42.423,370.372
101,6 Jun 2027 20:24:58.363,6 Jun 2027 20:32:01.336,422.973
102,6 Jun 2027 22:03:11.928,6 Jun 2027 22:03:56.052,44.124
103,6 Jun 2027 22:04:17.852,6 Jun 2027 22:09:20.383,302.531
104,6 Jun 2027 23:41:24.852,6 Jun 2027 23:42:03.001,38.150
105,6 Jun 2027 23:42:32.414,6 Jun 2027 23:44:58.670,146.256
106,7 Jun 2027 01:04:52.010,7 Jun 2027 01:08:02.139,190.129
107,7 Jun 2027 02:41:18.978,7 Jun 2027 02:44:49.766,210.789
108,7 Jun 2027 04:16:32.240,7 Jun 2027 04:23:14.371,402.131
109,7 Jun 2027 05:52:28.082,7 Jun 2027 05:58:48.038,379.955
110,7 Jun 2027 07:30:26.422,7 Jun 2027 07:34:51.252,264.830
111,7 Jun 2027 09:06:18.006,7 Jun 2027 09:10:31.695,253.689
112,7 Jun 2027 09:10:37.682,7 Jun 2027 09:11:29.846,52.163
113,7 Jun 2027 14:13:11.899,7 Jun 2027 14:14:21.204,69.304
114,7 Jun 2027 15:48:54.570,7 Jun 2027 15:52:01.116,186.546
115,7 Jun 2027 17:25:01.610,7 Jun 2027 17:30:28.988,327.378
116,7 Jun 2027 19:01:30.411,7 Jun 2027 19:08:19.805,409.394
117,7 Jun 2027 20:36:58.819,7 Jun 2027 20:44:01.062,422.243
118,7 Jun 2027 22:16:16.997,7 Jun 2027 22:21:38.688,321.691
119,7 Jun 2027 22:22:28.109,7 Jun 2027 22:24:04.792,96.683
120,7 Jun 2027 23:42:22.971,7 Jun 2027 23:42:54.035,31.064
121,7 Jun 2027 23:53:22.365,7 Jun 2027 23:56:51.737,209.372
122,8 Jun 2027 01:17:18.047,8 Jun 2027 01:20:16.032,177.985
123,8 Jun 2027 02:53:03.877,8 Jun 2027 02:57:26.036,262.159
124,8 Jun 2027 04:27:47.854,8 Jun 2027 04:35:20.882,453.027
125,8 Jun 2027 06:04:37.614,8 Jun 2027 06:10:50.598,372.984
126,8 Jun 2027 07:42:48.984,8 Jun 2027 07:46:45.792,236.808
127,8 Jun 2027 09:16:06.849,8 Jun 2027 09:22:30.022,383.173
128,8 Jun 2027 09:22:46.949,8 Jun 2027 09:23:52.477,65.529
129,8 Jun 2027 14:24:34.703,8 Jun 2027 14:26:50.098,135.395
130,8 Jun 2027 16:00:48.397,8 Jun 2027 16:04:12.740,204.343
131,8 Jun 2027 17:37:26.832,8 Jun 2027 17:43:35.953,369.121
132,8 Jun 2027 19:13:38.141,8 Jun 2027 19:20:22.592,404.451
133,8 Jun 2027 20:49:39.432,8 Jun 2027 20:56:03.654,384.222
134,8 Jun 2027 22:28:37.444,8 Jun 2027 22:35:58.162,440.718
135,8 Jun 2027 23:53:42.202,8 Jun 2027 23:55:08.790,86.588
136,9 Jun 2027 00:05:21.187,9 Jun 2027 00:06:48.659,87.472
137,9 Jun 2027 01:27:39.379,9 Jun 2027 01:28:54.419,75.040
138,9 Jun 2027 01:29:35.337,9 Jun 2027 01:32:42.860,187.523
139,9 Jun 2027 03:02:55.966,9 Jun 2027 03:04:15.881,79.915
140,9 Jun 2027 03:04:47.313,9 Jun 2027 03:09:41.616,294.303
141,9 Jun 2027 04:39:55.595,9 Jun 2027 04:47:20.607,445.012
142,9 Jun 2027 06:16:53.586,9 Jun 2027 06:22:47.902,354.316
143,9 Jun 2027 07:54:49.910,9 Jun 2027 07:58:48.414,238.503
144,9 Jun 2027 09:28:09.920,9 Jun 2027 09:35:53.260,463.341
145,9 Jun 2027 14:36:32.722,9 Jun 2027 14:39:11.108,158.385
146,9 Jun 2027 16:12:54.747,9 Jun 2027 16:16:18.463,203.716
147,9 Jun 2027 16:17:56.806,9 Jun 2027 16:19:41.477,104.670
148,9 Jun 2027 17:49:27.569,9 Jun 2027 17:55:44.740,377.171
149,9 Jun 2027 19:25:43.134,9 Jun 2027 19:32:21.594,398.460
150,9 Jun 2027 21:01:46.505,9 Jun 2027 21:03:20.455,93.951
151,9 Jun 2027 21:03:22.191,9 Jun 2027 21:07:51.382,269.191
152,9 Jun 2027 22:40:52.913,9 Jun 2027 22:47:55.435,422.522
153,10 Jun 2027 00:05:03.469,10 Jun 2027 00:07:20.507,137.038
154,10 Jun 2027 00:17:19.915,10 Jun 2027 00:18:15.877,55.962
155,10 Jun 2027 01:39:18.175,10 Jun 2027 01:40:42.236,84.060
156,10 Jun 2027 01:41:25.692,10 Jun 2027 01:44:55.972,210.280
157,10 Jun 2027 03:14:19.463,10 Jun 2027 03:22:01.602,462.139
158,10 Jun 2027 03:22:28.987,10 Jun 2027 03:23:01.132,32.145
159,10 Jun 2027 04:51:57.465,10 Jun 2027 04:59:23.697,446.232
160,10 Jun 2027 06:28:43.696,10 Jun 2027 06:34:40.749,357.053
161,10 Jun 2027 06:34:59.608,10 Jun 2027 06:35:26.418,26.809
162,10 Jun 2027 08:06:48.747,10 Jun 2027 08:10:57.244,248.496
163,10 Jun 2027 09:40:37.155,10 Jun 2027 09:47:22.980,405.825
164,10 Jun 2027 14:48:35.652,10 Jun 2027 14:51:29.428,173.776
165,10 Jun 2027 16:25:04.465,10 Jun 2027 16:28:52.723,228.258
166,10 Jun 2027 16:29:48.151,10 Jun 2027 16:32:55.663,187.511
167,10 Jun 2027 18:01:37.409,10 Jun 2027 18:07:58.857,381.447
168,10 Jun 2027 19:37:10.027,10 Jun 2027 19:37:55.480,45.453
169,10 Jun 2027 19:38:01.376,10 Jun 2027 19:44:52.179,410.803
170,10 Jun 2027 21:14:13.564,10 Jun 2027 21:14:30.987,17.423
171,10 Jun 2027 21:14:39.387,10 Jun 2027 21:15:08.656,29.269
172,10 Jun 2027 21:15:13.369,10 Jun 2027 21:16:07.746,54.376
173,10 Jun 2027 21:16:07.896,10 Jun 2027 21:20:10.559,242.663
174,10 Jun 2027 22:52:58.075,10 Jun 2027 22:59:46.710,408.635
175,11 Jun 2027 00:17:11.010,11 Jun 2027 00:19:05.809,114.799
176,11 Jun 2027 00:29:41.289,11 Jun 2027 00:29:46.949,5.660
177,11 Jun 2027 01:51:00.404,11 Jun 2027 01:57:00.087,359.682
178,11 Jun 2027 03:25:52.461,11 Jun 2027 03:34:08.854,496.393
179,11 Jun 2027 03:34:26.304,11 Jun 2027 03:35:27.161,60.856
180,11 Jun 2027 05:03:58.239,11 Jun 2027 05:11:24.859,446.620
181,11 Jun 2027 06:40:52.872,11 Jun 2027 06:45:59.257,306.385
182,11 Jun 2027 06:46:10.747,11 Jun 2027 06:47:18.646,67.899
183,11 Jun 2027 08:18:01.476,11 Jun 2027 08:22:55.517,294.041
184,11 Jun 2027 09:52:52.125,11 Jun 2027 09:53:59.786,67.660
185,11 Jun 2027 09:54:43.390,11 Jun 2027 09:58:04.939,201.549
186,11 Jun 2027 15:00:41.092,11 Jun 2027 15:05:29.544,288.451
187,11 Jun 2027 16:37:01.481,11 Jun 2027 16:41:42.342,280.860
188,11 Jun 2027 16:41:51.649,11 Jun 2027 16:43:42.174,110.526
189,11 Jun 2027 16:44:26.123,11 Jun 2027 16:45:12.658,46.535
190,11 Jun 2027 18:13:35.692,11 Jun 2027 18:20:10.058,394.367
191,11 Jun 2027 19:49:07.809,11 Jun 2027 19:56:54.107,466.298
192,11 Jun 2027 21:26:49.543,11 Jun 2027 21:27:01.141,11.598
193,11 Jun 2027 21:27:12.643,11 Jun 2027 21:28:14.408,61.765
194,11 Jun 2027 21:28:19.902,11 Jun 2027 21:33:14.887,294.986
195,11 Jun 2027 23:05:19.800,11 Jun 2027 23:10:18.646,298.846
196,12 Jun 2027 00:29:06.865,12 Jun 2027 00:31:27.541,140.676
197,12 Jun 2027 02:05:19.865,12 Jun 2027 02:08:52.837,212.971
198,12 Jun 2027 03:38:53.002,12 Jun 2027 03:47:26.494,513.491
199,12 Jun 2027 05:16:24.531,12 Jun 2027 05:23:10.451,405.920
200,12 Jun 2027 06:53:20.652,12 Jun 2027 06:57:50.041,269.390
201,12 Jun 2027 06:57:54.991,12 Jun 2027 06:59:11.622,76.631
202,12 Jun 2027 08:30:14.499,12 Jun 2027 08:34:49.613,275.114
203,12 Jun 2027 10:07:24.600,12 Jun 2027 10:09:51.678,147.078
204,12 Jun 2027 15:12:57.990,12 Jun 2027 15:15:32.433,154.443
205,12 Jun 2027 15:16:03.954,12 Jun 2027 15:17:45.682,101.729
206,12 Jun 2027 16:48:56.168,12 Jun 2027 16:55:36.806,400.638
207,12 Jun 2027 18:25:38.951,12 Jun 2027 18:32:01.338,382.387
208,12 Jun 2027 20:01:08.922,12 Jun 2027 20:08:42.385,453.463
209,12 Jun 2027 21:39:21.319,12 Jun 2027 21:45:29.471,368.153
210,12 Jun 2027 23:17:19.513,12 Jun 2027 23:22:11.748,292.235
211,13 Jun 2027 00:40:57.789,13 Jun 2027 00:43:37.057,159.268
212,13 Jun 2027 02:17:24.756,13 Jun 2027 02:21:00.623,215.868
213,13 Jun 2027 03:49:33.097,13 Jun 2027 03:49:43.998,10.901
214,13 Jun 2027 03:51:31.654,13 Jun 2027 03:58:19.773,408.119
215,13 Jun 2027 03:58:22.777,13 Jun 2027 03:59:20.791,58.015
216,13 Jun 2027 05:28:30.425,13 Jun 2027 05:35:14.982,404.557
217,13 Jun 2027 07:05:54.855,13 Jun 2027 07:09:56.061,241.206
218,13 Jun 2027 07:09:58.690,13 Jun 2027 07:10:37.463,38.772
219,13 Jun 2027 08:42:16.767,13 Jun 2027 08:47:07.937,291.170
220,13 Jun 2027 10:20:34.525,13 Jun 2027 10:21:06.035,31.510
221,13 Jun 2027 15:25:03.979,13 Jun 2027 15:27:21.959,137.981
222,13 Jun 2027 17:01:00.414,13 Jun 2027 17:07:31.431,391.017
223,13 Jun 2027 18:37:42.150,13 Jun 2027 18:44:12.286,390.136
224,13 Jun 2027 20:13:15.134,13 Jun 2027 20:20:46.323,451.189
225,13 Jun 2027 21:51:27.232,13 Jun 2027 21:52:28.519,61.287
226,13 Jun 2027 21:52:35.018,13 Jun 2027 21:57:40.865,305.847
227,13 Jun 2027 23:29:52.343,13 Jun 2027 23:34:05.611,253.269
