dataset/area_timing/orbit_02/Russia-To-KinoSat_110201.csv

Acces,Start Time (UTCG),Stop Time (UTCG),Duration (sec)
1,1 Jun 2027 01:28:50.115,1 Jun 2027 01:32:59.157,249.041
2,1 Jun 2027 03:03:43.318,1 Jun 2027 03:10:57.518,434.199
3,1 Jun 2027 04:40:12.244,1 Jun 2027 04:46:36.159,383.915
4,1 Jun 2027 06:18:30.020,1 Jun 2027 06:22:24.368,234.348
5,1 Jun 2027 07:53:56.948,1 Jun 2027 07:57:58.118,241.171
6,1 Jun 2027 07:58:19.070,1 Jun 2027 07:59:18.244,59.174
7,1 Jun 2027 13:00:26.716,1 Jun 2027 13:02:16.984,110.267
8,1 Jun 2027 14:36:27.864,1 Jun 2027 14:39:48.421,200.557
9,1 Jun 2027 16:13:02.322,1 Jun 2027 16:18:16.223,313.902
10,1 Jun 2027 17:49:12.494,1 Jun 2027 17:56:00.241,407.747
11,1 Jun 2027 19:25:06.789,1 Jun 2027 19:31:48.439,401.650
12,1 Jun 2027 21:03:59.002,1 Jun 2027 21:09:29.941,330.939
13,1 Jun 2027 21:10:01.050,1 Jun 2027 21:11:37.345,96.295
14,1 Jun 2027 22:29:38.308,1 Jun 2027 22:30:45.490,67.182
15,1 Jun 2027 22:40:59.914,1 Jun 2027 22:42:40.556,100.642
16,1 Jun 2027 22:43:39.357,1 Jun 2027 22:44:01.850,22.493
17,2 Jun 2027 00:03:34.813,2 Jun 2027 00:04:38.843,64.030
18,2 Jun 2027 00:04:52.190,2 Jun 2027 00:08:17.346,205.155
19,2 Jun 2027 01:39:06.449,2 Jun 2027 01:39:57.203,50.755
20,2 Jun 2027 01:40:35.360,2 Jun 2027 01:45:14.150,278.789
21,2 Jun 2027 03:15:25.712,2 Jun 2027 03:22:58.355,452.644
22,2 Jun 2027 04:52:32.563,2 Jun 2027 04:58:51.568,379.005
23,2 Jun 2027 06:30:27.847,2 Jun 2027 06:34:25.837,237.990
24,2 Jun 2027 08:03:32.905,2 Jun 2027 08:09:53.423,380.519
25,2 Jun 2027 08:10:35.359,2 Jun 2027 08:11:34.760,59.401
26,2 Jun 2027 13:12:11.406,2 Jun 2027 13:14:57.022,165.616
27,2 Jun 2027 14:48:30.376,2 Jun 2027 14:51:56.369,205.993
28,2 Jun 2027 16:25:10.829,2 Jun 2027 16:31:23.337,372.508
29,2 Jun 2027 18:01:17.373,2 Jun 2027 18:07:57.502,400.129
30,2 Jun 2027 19:37:21.992,2 Jun 2027 19:43:30.775,368.782
31,2 Jun 2027 21:16:28.131,2 Jun 2027 21:23:36.615,428.484
32,2 Jun 2027 22:41:18.565,2 Jun 2027 22:42:54.164,95.598
33,2 Jun 2027 22:53:02.387,2 Jun 2027 22:54:03.568,61.180
34,3 Jun 2027 00:15:17.607,3 Jun 2027 00:16:23.498,65.890
35,3 Jun 2027 00:17:12.403,3 Jun 2027 00:20:30.768,198.365
36,3 Jun 2027 01:50:15.231,3 Jun 2027 01:52:10.560,115.329
37,3 Jun 2027 01:52:19.360,3 Jun 2027 01:57:36.728,317.368
38,3 Jun 2027 01:58:12.765,3 Jun 2027 01:58:37.526,24.761
39,3 Jun 2027 03:27:43.988,3 Jun 2027 03:35:02.344,438.355
40,3 Jun 2027 05:04:28.591,3 Jun 2027 05:11:01.410,392.819
41,3 Jun 2027 06:42:27.090,3 Jun 2027 06:46:37.999,250.909
42,3 Jun 2027 08:16:04.955,3 Jun 2027 08:23:29.271,444.316
43,3 Jun 2027 13:24:11.670,3 Jun 2027 13:26:56.117,164.447
44,3 Jun 2027 15:00:42.134,3 Jun 2027 15:04:04.765,202.630
45,3 Jun 2027 15:05:26.999,3 Jun 2027 15:08:09.742,162.743
46,3 Jun 2027 16:37:24.367,3 Jun 2027 16:43:24.950,360.584
47,3 Jun 2027 18:12:55.425,3 Jun 2027 18:13:13.377,17.952
48,3 Jun 2027 18:13:22.602,3 Jun 2027 18:20:20.762,418.160
49,3 Jun 2027 19:49:40.626,3 Jun 2027 19:50:51.017,70.391
50,3 Jun 2027 19:50:52.721,3 Jun 2027 19:51:52.160,59.438
51,3 Jun 2027 19:51:54.564,3 Jun 2027 19:55:43.364,228.800
52,3 Jun 2027 21:28:29.372,3 Jun 2027 21:35:31.525,422.153
53,3 Jun 2027 22:52:51.924,3 Jun 2027 22:54:57.891,125.967
54,3 Jun 2027 23:05:04.141,3 Jun 2027 23:05:35.591,31.450
55,4 Jun 2027 00:26:49.922,4 Jun 2027 00:28:09.534,79.613
56,4 Jun 2027 00:28:58.265,4 Jun 2027 00:32:43.217,224.951
57,4 Jun 2027 02:01:43.379,4 Jun 2027 02:09:46.773,483.394
58,4 Jun 2027 02:10:06.984,4 Jun 2027 02:11:05.250,58.266
59,4 Jun 2027 03:39:37.220,4 Jun 2027 03:47:02.312,445.092
60,4 Jun 2027 05:16:21.238,4 Jun 2027 05:22:12.051,350.814
61,4 Jun 2027 05:22:17.845,4 Jun 2027 05:23:05.158,47.313
62,4 Jun 2027 06:54:27.153,4 Jun 2027 06:58:37.174,250.022
63,4 Jun 2027 08:30:12.154,4 Jun 2027 08:34:34.456,262.302
64,4 Jun 2027 13:36:17.941,4 Jun 2027 13:39:13.603,175.663
65,4 Jun 2027 13:39:44.739,4 Jun 2027 13:40:43.418,58.679
66,4 Jun 2027 15:12:41.291,4 Jun 2027 15:17:02.197,260.906
67,4 Jun 2027 15:17:39.934,4 Jun 2027 15:20:44.098,184.164
68,4 Jun 2027 16:49:15.928,4 Jun 2027 16:55:48.780,392.851
69,4 Jun 2027 18:24:47.154,4 Jun 2027 18:32:30.148,462.994
70,4 Jun 2027 20:02:25.153,4 Jun 2027 20:04:03.997,98.844
71,4 Jun 2027 20:04:28.509,4 Jun 2027 20:08:00.098,211.589
72,4 Jun 2027 21:40:51.396,4 Jun 2027 21:46:00.449,309.053
73,4 Jun 2027 23:04:47.628,4 Jun 2027 23:07:04.197,136.569
74,5 Jun 2027 00:40:48.335,5 Jun 2027 00:44:40.920,232.585
75,5 Jun 2027 02:14:36.100,5 Jun 2027 02:21:55.053,438.952
76,5 Jun 2027 02:21:58.017,5 Jun 2027 02:23:06.506,68.490
77,5 Jun 2027 03:51:45.069,5 Jun 2027 03:59:02.616,437.547
78,5 Jun 2027 05:28:59.627,5 Jun 2027 05:33:30.937,271.311
79,5 Jun 2027 05:33:40.767,5 Jun 2027 05:34:51.776,71.008
80,5 Jun 2027 07:05:41.177,5 Jun 2027 07:10:33.148,291.972
81,5 Jun 2027 08:40:53.291,5 Jun 2027 08:41:07.240,13.949
82,5 Jun 2027 08:42:28.641,5 Jun 2027 08:45:36.263,187.622
83,5 Jun 2027 13:48:22.773,5 Jun 2027 13:50:54.430,151.658
84,5 Jun 2027 13:51:15.682,5 Jun 2027 13:53:51.242,155.560
85,5 Jun 2027 15:24:34.754,5 Jun 2027 15:31:32.360,417.607
86,5 Jun 2027 17:01:19.324,5 Jun 2027 17:07:44.198,384.874
87,5 Jun 2027 18:36:46.688,5 Jun 2027 18:44:19.956,453.268
88,5 Jun 2027 20:15:02.719,5 Jun 2027 20:15:41.952,39.233
89,5 Jun 2027 20:15:49.375,5 Jun 2027 20:16:37.897,48.522
90,5 Jun 2027 20:16:40.263,5 Jun 2027 20:21:11.149,270.886
91,5 Jun 2027 21:53:20.382,5 Jun 2027 21:58:01.128,280.746
92,5 Jun 2027 23:16:40.474,5 Jun 2027 23:19:14.862,154.388
93,6 Jun 2027 00:53:01.239,6 Jun 2027 00:56:31.552,210.313
94,6 Jun 2027 02:27:01.236,6 Jun 2027 02:34:01.932,420.696
95,6 Jun 2027 02:34:04.156,6 Jun 2027 02:35:05.127,60.971
96,6 Jun 2027 04:04:10.287,6 Jun 2027 04:10:52.383,402.096
97,6 Jun 2027 05:41:09.128,6 Jun 2027 05:46:33.712,324.585
98,6 Jun 2027 07:17:55.983,6 Jun 2027 07:22:26.597,270.615
99,6 Jun 2027 08:56:06.436,6 Jun 2027 08:57:09.340,62.903
100,6 Jun 2027 14:00:41.546,6 Jun 2027 14:02:58.389,136.843
101,6 Jun 2027 14:04:11.548,6 Jun 2027 14:04:51.020,39.472
102,6 Jun 2027 15:36:39.230,6 Jun 2027 15:43:10.852,391.622
103,6 Jun 2027 17:13:20.753,6 Jun 2027 17:19:44.221,383.469
104,6 Jun 2027 18:48:53.945,6 Jun 2027 18:56:23.520,449.575
105,6 Jun 2027 20:26:55.498,6 Jun 2027 20:27:00.407,4.908
106,6 Jun 2027 20:27:25.132,6 Jun 2027 20:33:10.336,345.204
107,6 Jun 2027 22:05:36.436,6 Jun 2027 22:09:37.178,240.743
108,6 Jun 2027 23:28:36.729,6 Jun 2027 23:31:16.229,159.500
109,7 Jun 2027 01:05:07.125,7 Jun 2027 01:08:39.971,212.846
110,7 Jun 2027 02:40:15.991,7 Jun 2027 02:46:01.059,345.068
111,7 Jun 2027 02:46:01.700,7 Jun 2027 02:47:04.653,62.953
112,7 Jun 2027 04:16:36.330,7 Jun 2027 04:22:58.414,382.083
113,7 Jun 2027 05:54:10.360,7 Jun 2027 05:58:31.965,261.604
114,7 Jun 2027 07:30:13.565,7 Jun 2027 07:34:23.512,249.947
115,7 Jun 2027 14:12:45.018,7 Jun 2027 14:15:25.386,160.368
116,7 Jun 2027 15:48:42.066,7 Jun 2027 15:54:44.841,362.774
117,7 Jun 2027 17:25:24.535,7 Jun 2027 17:31:44.984,380.448
118,7 Jun 2027 19:00:55.125,7 Jun 2027 19:08:07.227,432.101
119,7 Jun 2027 20:39:03.973,7 Jun 2027 20:40:06.099,62.125
120,7 Jun 2027 20:40:12.535,7 Jun 2027 20:45:16.058,303.522
121,7 Jun 2027 22:17:22.541,7 Jun 2027 22:17:54.934,32.393
122,7 Jun 2027 22:18:11.077,7 Jun 2027 22:21:10.788,179.710
123,7 Jun 2027 23:40:41.795,7 Jun 2027 23:43:54.277,192.482
124,8 Jun 2027 01:17:17.464,8 Jun 2027 01:20:44.763,207.299
125,8 Jun 2027 02:52:27.722,8 Jun 2027 02:59:03.208,395.487
126,8 Jun 2027 04:28:48.240,8 Jun 2027 04:34:31.459,343.219
127,8 Jun 2027 04:34:34.157,8 Jun 2027 04:34:51.528,17.371
128,8 Jun 2027 06:06:13.792,8 Jun 2027 06:10:46.558,272.766
129,8 Jun 2027 07:42:17.678,8 Jun 2027 07:46:28.227,250.549
130,8 Jun 2027 07:46:33.409,8 Jun 2027 07:47:09.230,35.821
131,8 Jun 2027 12:49:26.167,8 Jun 2027 12:49:28.713,2.546
132,8 Jun 2027 14:24:55.067,8 Jun 2027 14:28:02.203,187.136
133,8 Jun 2027 16:00:46.685,8 Jun 2027 16:06:24.875,338.190
134,8 Jun 2027 17:37:21.710,8 Jun 2027 17:43:35.244,373.534
135,8 Jun 2027 19:12:52.481,8 Jun 2027 19:19:47.185,414.704
136,8 Jun 2027 20:51:10.417,8 Jun 2027 20:51:11.717,1.301
137,8 Jun 2027 20:52:10.367,8 Jun 2027 20:57:15.904,305.538
138,8 Jun 2027 20:58:39.750,8 Jun 2027 21:00:07.107,87.356
139,8 Jun 2027 22:18:33.727,8 Jun 2027 22:18:36.644,2.917
140,8 Jun 2027 22:29:18.736,8 Jun 2027 22:29:58.221,39.485
141,8 Jun 2027 22:30:18.270,8 Jun 2027 22:32:53.549,155.279
142,8 Jun 2027 23:53:15.399,8 Jun 2027 23:55:58.292,162.893
143,9 Jun 2027 01:29:04.364,9 Jun 2027 01:33:14.046,249.682
144,9 Jun 2027 03:03:57.450,9 Jun 2027 03:11:12.424,434.973
145,9 Jun 2027 04:40:27.472,9 Jun 2027 04:46:51.048,383.577
146,9 Jun 2027 06:18:45.019,9 Jun 2027 06:22:39.334,234.315
147,9 Jun 2027 07:54:11.168,9 Jun 2027 07:58:13.383,242.216
148,9 Jun 2027 07:58:34.074,9 Jun 2027 07:59:33.363,59.289
149,9 Jun 2027 13:00:40.829,9 Jun 2027 13:02:32.112,111.284
150,9 Jun 2027 14:36:42.630,9 Jun 2027 14:40:03.572,200.942
151,9 Jun 2027 16:13:17.290,9 Jun 2027 16:18:31.287,313.997
152,9 Jun 2027 17:49:27.389,9 Jun 2027 17:56:15.492,408.103
153,9 Jun 2027 19:25:29.277,9 Jun 2027 19:31:57.612,388.334
154,9 Jun 2027 21:04:13.906,9 Jun 2027 21:09:51.373,337.467
155,9 Jun 2027 21:10:15.825,9 Jun 2027 21:11:52.189,96.364
156,9 Jun 2027 22:29:52.369,9 Jun 2027 22:31:00.471,68.103
157,9 Jun 2027 22:41:14.670,9 Jun 2027 22:42:55.332,100.662
158,9 Jun 2027 22:43:54.268,9 Jun 2027 22:43:59.526,5.259
159,10 Jun 2027 00:03:49.858,10 Jun 2027 00:04:53.441,63.584
160,10 Jun 2027 00:05:24.606,10 Jun 2027 00:08:32.315,187.709
161,10 Jun 2027 01:39:21.044,10 Jun 2027 01:40:11.770,50.726
162,10 Jun 2027 01:40:49.718,10 Jun 2027 01:45:29.147,279.429
163,10 Jun 2027 03:15:40.853,10 Jun 2027 03:23:13.270,452.417
164,10 Jun 2027 04:52:47.196,10 Jun 2027 04:58:50.964,363.769
165,10 Jun 2027 04:58:53.205,10 Jun 2027 04:59:06.304,13.099
166,10 Jun 2027 06:30:42.577,10 Jun 2027 06:34:40.709,238.132
167,10 Jun 2027 08:03:47.812,10 Jun 2027 08:10:08.550,380.739
168,10 Jun 2027 08:10:50.161,10 Jun 2027 08:11:49.673,59.512
169,10 Jun 2027 13:12:26.225,10 Jun 2027 13:15:12.036,165.811
170,10 Jun 2027 14:48:45.317,10 Jun 2027 14:52:10.868,205.551
171,10 Jun 2027 16:25:25.509,10 Jun 2027 16:31:37.953,372.444
172,10 Jun 2027 18:01:32.111,10 Jun 2027 18:08:12.298,400.187
173,10 Jun 2027 19:37:36.909,10 Jun 2027 19:43:45.166,368.257
174,10 Jun 2027 21:16:42.931,10 Jun 2027 21:23:51.510,428.579
175,10 Jun 2027 22:41:33.450,10 Jun 2027 22:43:09.376,95.926
176,10 Jun 2027 22:53:17.221,10 Jun 2027 22:54:17.954,60.733
177,11 Jun 2027 00:15:32.237,11 Jun 2027 00:16:38.242,66.004
178,11 Jun 2027 00:17:26.147,11 Jun 2027 00:20:45.828,199.681
179,11 Jun 2027 01:50:29.323,11 Jun 2027 01:52:25.608,116.285
180,11 Jun 2027 01:52:34.069,11 Jun 2027 01:57:51.698,317.629
181,11 Jun 2027 01:58:27.505,11 Jun 2027 01:58:52.408,24.903
182,11 Jun 2027 03:27:58.626,11 Jun 2027 03:35:17.161,438.535
183,11 Jun 2027 05:04:43.234,11 Jun 2027 05:10:55.834,372.600
184,11 Jun 2027 05:10:59.723,11 Jun 2027 05:11:16.316,16.592
185,11 Jun 2027 06:42:41.859,11 Jun 2027 06:46:52.787,250.929
186,11 Jun 2027 08:16:19.507,11 Jun 2027 08:23:44.079,444.572
187,11 Jun 2027 13:24:26.410,11 Jun 2027 13:27:11.233,164.823
188,11 Jun 2027 15:00:57.086,11 Jun 2027 15:04:20.125,203.039
189,11 Jun 2027 15:05:41.612,11 Jun 2027 15:08:24.991,163.379
190,11 Jun 2027 16:37:39.136,11 Jun 2027 16:43:40.391,361.255
191,11 Jun 2027 18:13:10.102,11 Jun 2027 18:13:28.305,18.203
192,11 Jun 2027 18:13:37.485,11 Jun 2027 18:20:36.050,418.565
193,11 Jun 2027 19:49:55.638,11 Jun 2027 19:51:05.659,70.021
194,11 Jun 2027 19:51:07.836,11 Jun 2027 19:52:06.933,59.097
195,11 Jun 2027 19:52:08.090,11 Jun 2027 19:55:58.511,230.421
196,11 Jun 2027 21:28:44.389,11 Jun 2027 21:35:46.025,421.636
197,11 Jun 2027 22:53:06.826,11 Jun 2027 22:55:12.613,125.787
198,11 Jun 2027 23:05:19.035,11 Jun 2027 23:05:50.427,31.392
199,12 Jun 2027 00:27:04.217,12 Jun 2027 00:28:23.799,79.582
200,12 Jun 2027 00:29:12.456,12 Jun 2027 00:32:58.232,225.776
201,12 Jun 2027 02:01:57.933,12 Jun 2027 02:10:01.685,483.752
202,12 Jun 2027 02:10:21.829,12 Jun 2027 02:11:20.106,58.277
203,12 Jun 2027 03:39:52.157,12 Jun 2027 03:47:17.353,445.196
204,12 Jun 2027 05:16:36.248,12 Jun 2027 05:23:19.859,403.611
205,12 Jun 2027 06:54:29.748,12 Jun 2027 06:58:52.039,262.291
206,12 Jun 2027 08:30:27.504,12 Jun 2027 08:34:48.379,260.875
207,12 Jun 2027 13:36:33.002,12 Jun 2027 13:39:28.630,175.628
208,12 Jun 2027 13:39:59.436,12 Jun 2027 13:40:58.236,58.800
209,12 Jun 2027 15:12:56.115,12 Jun 2027 15:17:18.016,261.901
210,12 Jun 2027 15:17:50.041,12 Jun 2027 15:20:58.690,188.649
211,12 Jun 2027 16:49:30.697,12 Jun 2027 16:56:03.491,392.794
212,12 Jun 2027 18:25:02.065,12 Jun 2027 18:32:44.561,462.496
213,12 Jun 2027 20:02:40.101,12 Jun 2027 20:04:18.687,98.586
214,12 Jun 2027 20:04:44.865,12 Jun 2027 20:08:15.041,210.177
215,12 Jun 2027 21:41:06.640,12 Jun 2027 21:46:14.969,308.329
216,12 Jun 2027 23:05:02.443,12 Jun 2027 23:07:18.955,136.513
217,13 Jun 2027 00:41:02.708,13 Jun 2027 00:44:55.620,232.912
218,13 Jun 2027 02:14:50.980,13 Jun 2027 02:22:10.108,439.129
219,13 Jun 2027 02:22:12.775,13 Jun 2027 02:23:21.396,68.622
220,13 Jun 2027 03:52:00.398,13 Jun 2027 03:59:17.142,436.744
221,13 Jun 2027 05:29:14.880,13 Jun 2027 05:33:45.664,270.784
222,13 Jun 2027 05:33:55.656,13 Jun 2027 05:35:06.545,70.888
223,13 Jun 2027 07:05:55.867,13 Jun 2027 07:10:48.221,292.353
224,13 Jun 2027 08:41:08.355,13 Jun 2027 08:41:22.220,13.864
225,13 Jun 2027 08:42:53.811,13 Jun 2027 08:45:50.894,177.082
226,13 Jun 2027 13:48:37.661,13 Jun 2027 13:51:10.236,152.575
227,13 Jun 2027 13:51:31.562,13 Jun 2027 13:54:06.034,154.472
228,13 Jun 2027 15:24:49.577,13 Jun 2027 15:31:47.594,418.017
229,13 Jun 2027 17:01:34.094,13 Jun 2027 17:07:58.652,384.557
230,13 Jun 2027 18:37:01.596,13 Jun 2027 18:44:34.540,452.944
231,13 Jun 2027 20:15:17.816,13 Jun 2027 20:15:55.766,37.950
232,13 Jun 2027 20:16:03.759,13 Jun 2027 20:16:52.991,49.232
233,13 Jun 2027 20:16:55.204,13 Jun 2027 20:21:26.732,271.528
234,13 Jun 2027 21:53:34.948,13 Jun 2027 21:58:15.558,280.610
235,13 Jun 2027 23:16:54.954,13 Jun 2027 23:19:29.732,154.778
