dataset/facility_timing/facility_Facility-Irkutsk/Irkutsk-To-KinoSat_110501.csv

Acces,Start Time (UTCG),Stop Time (UTCG),Duration (sec)
1,1 Jun 2027 02:52:22.191,1 Jun 2027 02:54:19.321,117.130
2,1 Jun 2027 04:21:58.761,1 Jun 2027 04:32:41.139,642.378
3,1 Jun 2027 05:56:04.907,1 Jun 2027 06:08:58.300,773.393
4,1 Jun 2027 07:33:45.466,1 Jun 2027 07:44:09.949,624.483
5,1 Jun 2027 17:35:33.579,1 Jun 2027 17:45:42.030,608.451
6,1 Jun 2027 19:10:40.555,1 Jun 2027 19:23:34.021,773.467
7,1 Jun 2027 20:46:55.468,1 Jun 2027 20:57:48.718,653.250
8,1 Jun 2027 22:24:55.233,1 Jun 2027 22:27:53.444,178.211
9,2 Jun 2027 03:02:54.910,2 Jun 2027 03:07:12.403,257.493
10,2 Jun 2027 04:33:35.476,2 Jun 2027 04:44:47.979,672.503
11,2 Jun 2027 06:08:06.398,2 Jun 2027 06:20:58.654,772.256
12,2 Jun 2027 07:46:21.258,2 Jun 2027 07:55:55.731,574.473
13,2 Jun 2027 17:47:21.788,2 Jun 2027 17:58:13.619,651.831
14,2 Jun 2027 19:22:41.490,2 Jun 2027 19:35:33.425,771.934
15,2 Jun 2027 20:59:02.975,2 Jun 2027 21:09:23.270,620.295
16,3 Jun 2027 03:13:54.823,3 Jun 2027 03:19:40.369,345.546
17,3 Jun 2027 04:45:15.397,3 Jun 2027 04:56:53.912,698.515
18,3 Jun 2027 06:20:11.154,3 Jun 2027 06:32:58.060,766.905
19,3 Jun 2027 07:59:04.822,3 Jun 2027 08:07:36.542,511.721
20,3 Jun 2027 17:59:12.894,3 Jun 2027 18:10:39.675,686.782
21,3 Jun 2027 19:34:43.253,3 Jun 2027 19:47:29.708,766.455
22,3 Jun 2027 21:11:11.643,3 Jun 2027 21:20:54.364,582.721
23,4 Jun 2027 03:25:05.040,4 Jun 2027 03:32:00.184,415.144
24,4 Jun 2027 04:56:58.442,4 Jun 2027 05:08:59.006,720.564
25,4 Jun 2027 06:32:19.327,4 Jun 2027 06:44:56.401,757.073
26,4 Jun 2027 08:11:59.069,4 Jun 2027 08:19:09.584,430.515
27,4 Jun 2027 18:11:06.255,4 Jun 2027 18:23:00.920,714.665
28,4 Jun 2027 19:46:45.803,4 Jun 2027 19:59:22.919,757.116
29,4 Jun 2027 21:23:21.719,4 Jun 2027 21:32:21.771,540.053
30,5 Jun 2027 03:36:21.829,5 Jun 2027 03:44:15.617,473.788
31,5 Jun 2027 05:08:44.556,5 Jun 2027 05:21:03.321,738.766
32,5 Jun 2027 06:44:31.087,5 Jun 2027 06:56:53.529,742.442
33,5 Jun 2027 08:25:11.106,5 Jun 2027 08:30:27.886,316.779
34,5 Jun 2027 16:49:46.370,5 Jun 2027 16:54:11.228,264.858
35,5 Jun 2027 18:23:01.434,5 Jun 2027 18:35:17.860,736.426
36,5 Jun 2027 19:58:49.111,5 Jun 2027 20:11:13.091,743.981
37,5 Jun 2027 21:35:33.613,5 Jun 2027 21:43:45.091,491.478
38,6 Jun 2027 03:47:43.666,6 Jun 2027 03:56:28.245,524.579
39,6 Jun 2027 05:20:33.712,6 Jun 2027 05:33:06.882,753.169
40,6 Jun 2027 06:56:46.680,6 Jun 2027 07:08:49.230,722.550
41,6 Jun 2027 08:39:25.086,6 Jun 2027 08:40:47.455,82.369
42,6 Jun 2027 17:00:55.752,6 Jun 2027 17:07:33.232,397.480
43,6 Jun 2027 18:34:58.107,6 Jun 2027 18:47:30.870,752.763
44,6 Jun 2027 20:10:53.172,6 Jun 2027 20:23:00.217,727.045
45,6 Jun 2027 21:47:47.988,6 Jun 2027 21:55:03.679,435.691
46,7 Jun 2027 03:59:09.761,7 Jun 2027 04:08:38.874,569.112
47,7 Jun 2027 05:32:25.913,7 Jun 2027 05:45:09.681,763.768
48,7 Jun 2027 07:09:06.445,7 Jun 2027 07:20:43.236,696.791
49,7 Jun 2027 17:12:25.061,7 Jun 2027 17:20:32.213,487.152
50,7 Jun 2027 18:46:56.062,7 Jun 2027 18:59:40.206,764.144
51,7 Jun 2027 20:22:57.999,7 Jun 2027 20:34:44.291,706.292
52,7 Jun 2027 22:00:06.089,7 Jun 2027 22:06:16.334,370.245
53,8 Jun 2027 04:10:39.658,8 Jun 2027 04:20:47.975,608.317
54,8 Jun 2027 05:44:21.167,8 Jun 2027 05:57:11.706,770.539
55,8 Jun 2027 07:21:30.832,8 Jun 2027 07:32:35.157,664.325
56,8 Jun 2027 17:24:03.704,8 Jun 2027 17:33:18.900,555.196
57,8 Jun 2027 18:58:55.128,8 Jun 2027 19:11:46.086,770.958
58,8 Jun 2027 20:35:03.647,8 Jun 2027 20:46:25.261,681.613
59,8 Jun 2027 22:12:30.619,8 Jun 2027 22:17:20.394,289.774
60,9 Jun 2027 02:52:35.258,9 Jun 2027 02:54:35.070,119.812
61,9 Jun 2027 04:22:13.079,9 Jun 2027 04:32:55.848,642.770
62,9 Jun 2027 05:56:19.522,9 Jun 2027 06:09:12.927,773.406
63,9 Jun 2027 07:34:00.476,9 Jun 2027 07:44:24.417,623.941
64,9 Jun 2027 17:35:48.039,9 Jun 2027 17:45:57.062,609.023
65,9 Jun 2027 19:10:55.179,9 Jun 2027 19:23:48.650,773.472
66,9 Jun 2027 20:47:10.168,9 Jun 2027 20:58:03.052,652.884
67,9 Jun 2027 22:25:10.514,9 Jun 2027 22:28:06.983,176.468
68,10 Jun 2027 03:03:08.703,10 Jun 2027 03:07:27.449,258.746
69,10 Jun 2027 04:33:49.832,10 Jun 2027 04:45:02.675,672.843
70,10 Jun 2027 06:08:21.053,10 Jun 2027 06:21:13.269,772.217
71,10 Jun 2027 07:46:36.350,10 Jun 2027 07:56:10.147,573.796
72,10 Jun 2027 17:47:36.286,10 Jun 2027 17:58:28.578,652.292
73,10 Jun 2027 19:22:56.124,10 Jun 2027 19:35:48.019,771.895
74,10 Jun 2027 20:59:17.685,10 Jun 2027 21:09:37.563,619.878
75,11 Jun 2027 03:14:08.785,11 Jun 2027 03:19:55.270,346.485
76,11 Jun 2027 04:45:29.791,11 Jun 2027 04:57:08.597,698.806
77,11 Jun 2027 06:20:25.849,11 Jun 2027 06:33:12.662,766.813
78,11 Jun 2027 07:59:20.022,11 Jun 2027 08:07:50.883,510.862
79,11 Jun 2027 17:59:27.422,11 Jun 2027 18:10:54.573,687.151
80,11 Jun 2027 19:34:57.895,11 Jun 2027 19:47:44.262,766.366
81,11 Jun 2027 21:11:26.367,11 Jun 2027 21:21:08.616,582.249
82,12 Jun 2027 03:25:19.096,12 Jun 2027 03:32:15.016,415.921
83,12 Jun 2027 04:57:12.872,12 Jun 2027 05:09:13.681,720.809
84,12 Jun 2027 06:32:34.064,12 Jun 2027 06:45:10.989,756.925
85,12 Jun 2027 08:12:14.429,12 Jun 2027 08:19:23.800,429.371
86,12 Jun 2027 18:11:20.807,12 Jun 2027 18:23:15.763,714.956
87,12 Jun 2027 19:47:00.454,12 Jun 2027 19:59:37.436,756.982
88,12 Jun 2027 21:23:36.460,12 Jun 2027 21:32:35.978,539.519
89,13 Jun 2027 03:36:35.953,13 Jun 2027 03:44:30.408,474.456
90,13 Jun 2027 05:08:59.023,13 Jun 2027 05:21:17.987,738.964
91,13 Jun 2027 06:44:45.869,13 Jun 2027 06:57:08.101,742.232
92,13 Jun 2027 08:25:26.774,13 Jun 2027 08:30:41.829,315.055
93,13 Jun 2027 16:50:00.167,13 Jun 2027 16:54:27.064,266.897
94,13 Jun 2027 18:23:16.005,13 Jun 2027 18:35:32.654,736.649
95,13 Jun 2027 19:59:03.769,13 Jun 2027 20:11:27.573,743.803
96,13 Jun 2027 21:35:48.376,13 Jun 2027 21:43:59.247,490.871
