dataset/facility_timing/facility_Facility-Irkutsk/Irkutsk-To-KinoSat_111904.csv

Acces,Start Time (UTCG),Stop Time (UTCG),Duration (sec)
1,1 Jun 2027 00:00:01.000,1 Jun 2027 00:09:19.740,558.740
2,1 Jun 2027 01:34:20.769,1 Jun 2027 01:47:14.395,773.626
3,1 Jun 2027 03:10:36.989,1 Jun 2027 03:21:30.784,653.795
4,1 Jun 2027 04:48:41.811,1 Jun 2027 04:51:32.817,171.006
5,1 Jun 2027 09:26:52.104,1 Jun 2027 09:30:39.548,227.444
6,1 Jun 2027 10:57:19.812,1 Jun 2027 11:08:26.240,666.428
7,1 Jun 2027 12:31:46.706,1 Jun 2027 12:44:39.691,772.985
8,1 Jun 2027 14:09:55.964,1 Jun 2027 14:19:41.238,585.274
9,2 Jun 2027 00:11:01.538,2 Jun 2027 00:21:52.405,650.867
10,2 Jun 2027 01:46:22.240,2 Jun 2027 01:59:14.429,772.189
11,2 Jun 2027 03:22:45.184,2 Jun 2027 03:33:05.578,620.395
12,2 Jun 2027 09:37:47.161,2 Jun 2027 09:43:12.606,325.445
13,2 Jun 2027 11:08:59.356,2 Jun 2027 11:20:33.021,693.665
14,2 Jun 2027 12:43:51.417,2 Jun 2027 12:56:39.834,768.418
15,2 Jun 2027 14:22:38.848,2 Jun 2027 14:31:23.571,524.723
16,3 Jun 2027 00:22:53.074,3 Jun 2027 00:34:19.406,686.332
17,3 Jun 2027 01:58:24.564,3 Jun 2027 02:11:11.277,766.713
18,3 Jun 2027 03:34:54.582,3 Jun 2027 03:44:36.820,582.238
19,3 Jun 2027 09:48:55.029,3 Jun 2027 09:55:35.055,400.026
20,3 Jun 2027 11:20:42.122,3 Jun 2027 11:32:38.915,716.793
21,3 Jun 2027 12:55:59.587,3 Jun 2027 13:08:38.914,759.327
22,3 Jun 2027 14:35:31.884,3 Jun 2027 14:42:58.713,446.829
23,4 Jun 2027 00:34:46.905,4 Jun 2027 00:46:41.490,714.585
24,4 Jun 2027 02:10:27.685,4 Jun 2027 02:23:04.979,757.294
25,4 Jun 2027 03:47:05.471,4 Jun 2027 03:56:04.245,538.774
26,4 Jun 2027 10:00:10.363,4 Jun 2027 10:07:52.275,461.911
27,4 Jun 2027 11:32:28.046,4 Jun 2027 11:44:43.992,735.946
28,4 Jun 2027 13:08:11.380,4 Jun 2027 13:20:36.786,745.406
29,4 Jun 2027 14:48:41.090,4 Jun 2027 14:54:20.780,339.689
30,4 Jun 2027 23:13:25.762,4 Jun 2027 23:17:51.328,265.566
31,5 Jun 2027 00:46:42.581,5 Jun 2027 00:58:59.179,736.598
32,5 Jun 2027 02:22:31.595,5 Jun 2027 02:34:55.567,743.971
33,5 Jun 2027 03:59:18.277,5 Jun 2027 04:07:27.425,489.147
34,5 Jun 2027 10:11:31.204,5 Jun 2027 10:20:06.284,515.080
35,5 Jun 2027 11:44:17.093,5 Jun 2027 11:56:48.288,751.195
36,5 Jun 2027 13:20:27.048,5 Jun 2027 13:32:33.246,726.199
37,5 Jun 2027 15:02:33.280,5 Jun 2027 15:05:03.115,149.835
38,5 Jun 2027 23:24:35.570,5 Jun 2027 23:31:14.381,398.811
39,6 Jun 2027 00:58:39.783,6 Jun 2027 01:11:12.857,753.074
40,6 Jun 2027 02:34:36.279,6 Jun 2027 02:46:43.037,726.757
41,6 Jun 2027 04:11:33.730,6 Jun 2027 04:18:45.653,431.923
42,6 Jun 2027 10:22:56.589,6 Jun 2027 10:32:18.062,561.473
43,6 Jun 2027 11:56:09.257,6 Jun 2027 12:08:51.798,762.541
44,6 Jun 2027 13:32:46.913,6 Jun 2027 13:44:28.030,701.118
45,6 Jun 2027 23:36:05.414,6 Jun 2027 23:44:14.234,488.820
46,7 Jun 2027 01:10:38.287,7 Jun 2027 01:23:22.788,764.502
47,7 Jun 2027 02:46:41.757,7 Jun 2027 02:58:27.377,705.620
48,7 Jun 2027 04:23:53.210,7 Jun 2027 04:29:57.586,364.375
49,7 Jun 2027 10:34:25.975,7 Jun 2027 10:44:28.162,602.188
50,7 Jun 2027 12:08:04.542,7 Jun 2027 12:20:54.519,769.977
51,7 Jun 2027 13:45:11.407,7 Jun 2027 13:56:20.758,669.351
52,7 Jun 2027 23:47:44.630,7 Jun 2027 23:57:01.688,557.058
53,8 Jun 2027 01:22:37.920,8 Jun 2027 01:35:29.195,771.276
54,8 Jun 2027 02:58:48.086,8 Jun 2027 03:10:08.529,680.443
55,8 Jun 2027 04:36:19.837,8 Jun 2027 04:41:00.151,280.314
56,8 Jun 2027 09:16:51.872,8 Jun 2027 09:17:46.105,54.233
57,8 Jun 2027 10:45:59.038,8 Jun 2027 10:56:36.928,637.890
58,8 Jun 2027 12:20:02.993,8 Jun 2027 12:32:56.415,773.422
59,8 Jun 2027 13:57:41.158,8 Jun 2027 14:08:10.881,629.723
60,8 Jun 2027 23:59:29.558,9 Jun 2027 00:09:40.535,610.977
61,9 Jun 2027 01:34:38.555,9 Jun 2027 01:47:32.214,773.659
62,9 Jun 2027 03:10:55.332,9 Jun 2027 03:21:46.411,651.080
63,9 Jun 2027 04:49:05.013,9 Jun 2027 04:51:42.006,156.994
64,9 Jun 2027 09:27:03.144,9 Jun 2027 09:31:01.014,237.870
65,9 Jun 2027 10:57:35.559,9 Jun 2027 11:08:44.588,669.029
66,9 Jun 2027 12:32:04.672,9 Jun 2027 12:44:57.433,772.761
67,9 Jun 2027 14:10:17.112,9 Jun 2027 14:19:57.554,580.443
68,10 Jun 2027 00:11:18.405,10 Jun 2027 00:22:12.665,654.261
69,10 Jun 2027 01:46:40.104,10 Jun 2027 01:59:31.971,771.868
70,10 Jun 2027 03:23:03.619,10 Jun 2027 03:33:20.910,617.291
71,10 Jun 2027 09:37:59.815,10 Jun 2027 09:43:32.646,332.831
72,10 Jun 2027 11:09:15.392,10 Jun 2027 11:20:51.279,695.887
73,10 Jun 2027 12:44:09.685,10 Jun 2027 12:56:57.480,767.795
74,10 Jun 2027 14:23:00.762,10 Jun 2027 14:31:39.374,518.611
75,11 Jun 2027 00:23:10.159,11 Jun 2027 00:34:39.212,689.053
76,11 Jun 2027 01:58:42.489,11 Jun 2027 02:11:28.538,766.049
77,11 Jun 2027 03:35:13.134,11 Jun 2027 03:44:51.828,578.693
78,11 Jun 2027 09:49:08.485,11 Jun 2027 09:55:54.479,405.994
79,11 Jun 2027 11:20:58.439,11 Jun 2027 11:32:57.094,718.655
80,11 Jun 2027 12:56:18.163,11 Jun 2027 13:08:56.460,758.298
81,11 Jun 2027 14:35:54.903,11 Jun 2027 14:43:13.670,438.768
82,12 Jun 2027 00:35:04.158,12 Jun 2027 00:47:00.894,716.736
83,12 Jun 2027 02:10:45.683,12 Jun 2027 02:23:21.969,756.286
84,12 Jun 2027 03:47:24.163,12 Jun 2027 03:56:18.905,534.743
85,12 Jun 2027 10:00:24.370,12 Jun 2027 10:08:11.350,466.980
86,12 Jun 2027 11:32:44.640,12 Jun 2027 11:45:02.098,737.458
87,12 Jun 2027 13:08:30.293,12 Jun 2027 13:20:54.210,743.917
88,12 Jun 2027 14:49:06.137,12 Jun 2027 14:54:33.984,327.846
89,12 Jun 2027 23:13:37.615,12 Jun 2027 23:18:17.889,280.274
90,13 Jun 2027 00:46:59.980,13 Jun 2027 00:59:18.218,738.238
91,13 Jun 2027 02:22:49.653,13 Jun 2027 02:35:12.284,742.631
92,13 Jun 2027 03:59:37.157,13 Jun 2027 04:07:41.690,484.533
93,13 Jun 2027 10:11:45.645,13 Jun 2027 10:20:25.121,519.476
94,13 Jun 2027 11:44:33.961,13 Jun 2027 11:57:06.321,752.361
95,13 Jun 2027 13:20:46.312,13 Jun 2027 13:32:50.529,724.218
96,13 Jun 2027 15:03:08.798,13 Jun 2027 15:05:06.137,117.340
97,13 Jun 2027 23:24:50.122,13 Jun 2027 23:31:37.954,407.832
