dataset/facility_timing/facility_Facility-Irkutsk/Irkutsk-To-KinoSat_110606.csv

Acces,Start Time (UTCG),Stop Time (UTCG),Duration (sec)
1,1 Jun 2027 03:34:47.828,1 Jun 2027 03:38:33.833,226.005
2,1 Jun 2027 05:05:14.206,1 Jun 2027 05:16:18.481,664.274
3,1 Jun 2027 06:39:38.018,1 Jun 2027 06:52:31.023,773.005
4,1 Jun 2027 08:17:42.652,1 Jun 2027 08:27:32.635,589.983
5,1 Jun 2027 18:18:57.196,1 Jun 2027 18:29:37.553,640.357
6,1 Jun 2027 19:54:13.513,1 Jun 2027 20:07:06.300,772.787
7,1 Jun 2027 21:30:33.105,1 Jun 2027 21:41:03.277,630.172
8,2 Jun 2027 03:45:43.138,2 Jun 2027 03:51:05.798,322.660
9,2 Jun 2027 05:16:53.218,2 Jun 2027 05:28:24.671,691.452
10,2 Jun 2027 06:51:41.828,2 Jun 2027 07:04:30.717,768.890
11,2 Jun 2027 08:30:23.772,2 Jun 2027 08:39:15.083,531.310
12,2 Jun 2027 18:30:47.561,2 Jun 2027 18:42:05.113,677.552
13,2 Jun 2027 20:06:15.049,2 Jun 2027 20:19:03.469,768.420
14,2 Jun 2027 21:42:41.425,2 Jun 2027 21:52:35.387,593.961
15,3 Jun 2027 03:56:50.949,3 Jun 2027 04:03:27.404,396.455
16,3 Jun 2027 05:28:35.374,3 Jun 2027 05:40:30.002,714.628
17,3 Jun 2027 07:03:49.008,3 Jun 2027 07:16:29.382,760.374
18,3 Jun 2027 08:43:14.519,3 Jun 2027 08:50:50.785,456.266
19,3 Jun 2027 18:42:40.335,3 Jun 2027 18:54:27.680,707.345
20,3 Jun 2027 20:18:17.380,3 Jun 2027 20:30:57.563,760.183
21,3 Jun 2027 21:54:51.073,3 Jun 2027 22:04:03.882,552.809
22,4 Jun 2027 04:08:06.056,4 Jun 2027 04:15:43.890,457.835
23,4 Jun 2027 05:40:20.613,4 Jun 2027 05:52:34.543,733.930
24,4 Jun 2027 07:15:59.718,4 Jun 2027 07:28:26.882,747.164
25,4 Jun 2027 08:56:20.169,4 Jun 2027 09:02:14.596,354.427
26,4 Jun 2027 17:21:42.166,4 Jun 2027 17:25:10.613,208.446
27,4 Jun 2027 18:54:35.030,4 Jun 2027 19:06:45.813,730.783
28,4 Jun 2027 20:30:20.478,4 Jun 2027 20:42:48.604,748.126
29,4 Jun 2027 22:07:02.397,4 Jun 2027 22:15:28.416,506.019
30,5 Jun 2027 04:19:26.545,5 Jun 2027 04:27:57.229,510.684
31,5 Jun 2027 05:52:08.901,5 Jun 2027 06:04:38.326,749.425
32,5 Jun 2027 07:28:14.190,5 Jun 2027 07:40:23.019,728.829
33,5 Jun 2027 09:10:00.806,5 Jun 2027 09:13:06.584,185.777
34,5 Jun 2027 17:32:39.688,5 Jun 2027 17:38:45.403,365.715
35,5 Jun 2027 19:06:31.305,5 Jun 2027 19:18:59.919,748.614
36,5 Jun 2027 20:42:24.328,5 Jun 2027 20:54:36.604,732.275
37,5 Jun 2027 22:19:15.976,5 Jun 2027 22:26:48.446,452.470
38,6 Jun 2027 04:30:51.470,6 Jun 2027 04:40:08.379,556.909
39,6 Jun 2027 06:04:00.228,6 Jun 2027 06:16:41.346,761.118
40,6 Jun 2027 07:40:32.726,6 Jun 2027 07:52:17.551,704.825
41,6 Jun 2027 17:44:05.024,6 Jun 2027 17:51:49.244,464.219
42,6 Jun 2027 19:18:28.919,6 Jun 2027 19:31:10.294,761.375
43,6 Jun 2027 20:54:28.937,6 Jun 2027 21:06:21.554,712.617
44,6 Jun 2027 22:31:32.840,6 Jun 2027 22:38:02.981,390.141
45,7 Jun 2027 04:42:20.312,7 Jun 2027 04:52:17.893,597.581
46,7 Jun 2027 06:15:54.610,7 Jun 2027 06:28:43.603,768.993
47,7 Jun 2027 07:52:55.737,7 Jun 2027 08:04:10.122,674.384
48,7 Jun 2027 17:55:41.508,7 Jun 2027 18:04:38.930,537.422
49,7 Jun 2027 19:30:27.686,7 Jun 2027 19:43:17.145,769.459
50,7 Jun 2027 21:06:34.352,7 Jun 2027 21:18:03.422,689.070
51,7 Jun 2027 22:43:55.091,7 Jun 2027 22:49:09.937,314.846
52,8 Jun 2027 04:53:52.747,8 Jun 2027 05:04:26.098,633.351
53,8 Jun 2027 06:27:52.072,8 Jun 2027 06:40:45.066,772.994
54,8 Jun 2027 08:05:23.799,8 Jun 2027 08:16:00.220,636.421
55,8 Jun 2027 18:07:24.452,8 Jun 2027 18:17:19.293,594.841
56,8 Jun 2027 19:42:27.470,8 Jun 2027 19:55:20.653,773.183
57,8 Jun 2027 21:18:40.616,8 Jun 2027 21:29:42.135,661.519
58,8 Jun 2027 22:56:28.652,8 Jun 2027 23:00:03.460,214.808
59,9 Jun 2027 03:35:01.493,9 Jun 2027 03:38:49.031,227.538
60,9 Jun 2027 05:05:28.561,9 Jun 2027 05:16:33.217,664.656
61,9 Jun 2027 06:39:52.686,9 Jun 2027 06:52:45.673,772.987
62,9 Jun 2027 08:17:57.773,9 Jun 2027 08:27:47.080,589.307
63,9 Jun 2027 18:19:11.712,9 Jun 2027 18:29:52.579,640.867
64,9 Jun 2027 19:54:28.175,9 Jun 2027 20:07:20.924,772.749
65,9 Jun 2027 21:30:47.841,9 Jun 2027 21:41:17.598,629.757
66,10 Jun 2027 03:45:57.042,10 Jun 2027 03:51:20.783,323.741
67,10 Jun 2027 05:17:07.613,10 Jun 2027 05:28:39.392,691.778
68,10 Jun 2027 06:51:56.541,10 Jun 2027 07:04:45.349,768.808
69,10 Jun 2027 08:30:38.998,10 Jun 2027 08:39:29.455,530.457
70,10 Jun 2027 18:31:02.105,10 Jun 2027 18:42:20.068,677.964
71,10 Jun 2027 20:06:29.717,10 Jun 2027 20:19:18.057,768.341
72,10 Jun 2027 21:42:56.173,10 Jun 2027 21:52:49.660,593.487
73,11 Jun 2027 03:57:04.969,11 Jun 2027 04:03:42.300,397.331
74,11 Jun 2027 05:28:49.809,11 Jun 2027 05:40:44.712,714.903
75,11 Jun 2027 07:04:03.765,11 Jun 2027 07:16:43.998,760.233
76,11 Jun 2027 08:43:29.893,11 Jun 2027 08:51:05.045,455.152
77,11 Jun 2027 18:42:54.906,11 Jun 2027 18:54:42.576,707.670
78,11 Jun 2027 20:18:32.056,11 Jun 2027 20:31:12.113,760.057
79,11 Jun 2027 21:55:05.837,11 Jun 2027 22:04:18.110,552.273
80,12 Jun 2027 04:08:20.155,12 Jun 2027 04:15:58.735,458.580
81,12 Jun 2027 05:40:35.086,12 Jun 2027 05:52:49.242,734.155
82,12 Jun 2027 07:16:14.522,12 Jun 2027 07:28:41.480,746.958
83,12 Jun 2027 08:56:35.802,12 Jun 2027 09:02:28.634,352.832
84,12 Jun 2027 17:21:55.642,12 Jun 2027 17:25:26.859,211.216
85,12 Jun 2027 18:54:49.622,12 Jun 2027 19:07:00.656,731.035
86,12 Jun 2027 20:30:35.162,12 Jun 2027 20:43:03.116,747.954
87,12 Jun 2027 22:07:17.181,12 Jun 2027 22:15:42.593,505.412
88,13 Jun 2027 04:19:40.706,13 Jun 2027 04:28:12.039,511.333
89,13 Jun 2027 05:52:23.413,13 Jun 2027 06:04:53.014,749.601
90,13 Jun 2027 07:28:29.043,13 Jun 2027 07:40:37.597,728.554
91,13 Jun 2027 09:10:17.349,13 Jun 2027 09:13:19.750,182.401
92,13 Jun 2027 17:32:53.809,13 Jun 2027 17:39:00.963,367.154
93,13 Jun 2027 19:06:45.914,13 Jun 2027 19:19:14.714,748.800
94,13 Jun 2027 20:42:39.020,13 Jun 2027 20:54:51.078,732.057
95,13 Jun 2027 22:19:30.789,13 Jun 2027 22:27:02.566,451.776
