dataset/facility_timing/facility_Facility-Irkutsk/Irkutsk-To-KinoSat_110404.csv

Acces,Start Time (UTCG),Stop Time (UTCG),Duration (sec)
1,1 Jun 2027 02:26:35.269,1 Jun 2027 02:30:57.423,262.154
2,1 Jun 2027 03:57:17.941,1 Jun 2027 04:08:31.735,673.794
3,1 Jun 2027 05:31:50.018,1 Jun 2027 05:44:42.122,772.104
4,1 Jun 2027 07:10:06.574,1 Jun 2027 07:19:38.456,571.882
5,1 Jun 2027 17:11:04.767,1 Jun 2027 17:21:58.444,653.677
6,1 Jun 2027 18:46:25.028,1 Jun 2027 18:59:16.791,771.763
7,1 Jun 2027 20:22:46.846,1 Jun 2027 20:33:05.448,618.602
8,2 Jun 2027 02:37:35.811,2 Jun 2027 02:43:24.863,349.052
9,2 Jun 2027 04:08:58.011,2 Jun 2027 04:20:37.633,699.622
10,2 Jun 2027 05:43:54.934,2 Jun 2027 05:56:41.486,766.552
11,2 Jun 2027 07:22:50.560,2 Jun 2027 07:31:18.984,508.425
12,2 Jun 2027 17:22:55.994,2 Jun 2027 17:34:24.262,688.268
13,2 Jun 2027 18:58:26.834,2 Jun 2027 19:11:12.930,766.096
14,2 Jun 2027 20:34:55.581,2 Jun 2027 20:44:36.373,580.792
15,3 Jun 2027 02:48:46.382,3 Jun 2027 02:55:44.429,418.047
16,3 Jun 2027 04:20:41.201,3 Jun 2027 04:32:42.695,721.493
17,3 Jun 2027 05:56:03.274,3 Jun 2027 06:08:39.779,756.505
18,3 Jun 2027 07:35:45.427,3 Jun 2027 07:42:51.556,426.130
19,3 Jun 2027 17:34:49.454,3 Jun 2027 17:46:45.297,715.842
20,3 Jun 2027 19:10:29.426,3 Jun 2027 19:23:06.002,756.576
21,3 Jun 2027 20:47:05.742,3 Jun 2027 20:56:03.594,537.852
22,4 Jun 2027 03:00:03.429,4 Jun 2027 03:07:59.713,476.284
23,4 Jun 2027 04:32:27.460,4 Jun 2027 04:44:46.979,739.519
24,4 Jun 2027 06:08:15.211,4 Jun 2027 06:20:36.850,741.639
25,4 Jun 2027 07:48:58.664,4 Jun 2027 07:54:08.816,310.152
26,4 Jun 2027 16:13:26.517,4 Jun 2027 16:17:59.581,273.065
27,4 Jun 2027 17:46:44.715,4 Jun 2027 17:59:02.047,737.331
28,4 Jun 2027 19:22:32.773,4 Jun 2027 19:34:56.028,743.255
29,4 Jun 2027 20:59:17.745,4 Jun 2027 21:07:26.702,488.957
30,5 Jun 2027 03:11:25.476,5 Jun 2027 03:20:12.241,526.766
31,5 Jun 2027 04:44:16.761,5 Jun 2027 04:56:50.509,753.747
32,5 Jun 2027 06:20:30.995,5 Jun 2027 06:32:32.484,721.488
33,5 Jun 2027 08:03:26.995,5 Jun 2027 08:04:14.198,47.203
34,5 Jun 2027 16:24:37.425,5 Jun 2027 16:31:19.918,402.493
35,5 Jun 2027 17:58:41.458,5 Jun 2027 18:11:14.878,753.420
36,5 Jun 2027 19:34:36.876,5 Jun 2027 19:46:43.010,726.134
37,5 Jun 2027 21:11:32.275,5 Jun 2027 21:18:45.035,432.761
38,6 Jun 2027 03:22:51.758,6 Jun 2027 03:32:22.796,571.038
39,6 Jun 2027 04:56:09.107,6 Jun 2027 05:08:53.279,764.172
40,6 Jun 2027 06:32:50.969,6 Jun 2027 06:44:26.410,695.441
41,6 Jun 2027 16:36:07.327,6 Jun 2027 16:44:18.170,490.843
42,6 Jun 2027 18:10:39.478,6 Jun 2027 18:23:24.055,764.576
43,6 Jun 2027 19:46:41.747,6 Jun 2027 19:58:26.939,705.192
44,6 Jun 2027 21:23:50.613,6 Jun 2027 21:29:57.348,366.735
45,7 Jun 2027 03:34:21.825,7 Jun 2027 03:44:31.844,610.019
46,7 Jun 2027 05:08:04.509,7 Jun 2027 05:20:55.270,770.761
47,7 Jun 2027 06:45:15.592,7 Jun 2027 06:56:18.223,662.631
48,7 Jun 2027 16:47:46.312,7 Jun 2027 16:57:04.391,558.079
49,7 Jun 2027 18:22:38.594,7 Jun 2027 18:35:29.773,771.180
50,7 Jun 2027 19:58:47.442,7 Jun 2027 20:10:07.759,680.317
51,7 Jun 2027 21:36:15.604,7 Jun 2027 21:41:00.854,285.249
52,8 Jun 2027 02:16:13.125,8 Jun 2027 02:18:22.505,129.380
53,8 Jun 2027 03:45:55.406,8 Jun 2027 03:56:39.666,644.261
54,8 Jun 2027 05:20:03.013,8 Jun 2027 05:32:56.457,773.443
55,8 Jun 2027 06:57:45.507,8 Jun 2027 07:08:07.345,621.838
56,8 Jun 2027 16:59:30.867,8 Jun 2027 17:09:42.205,611.339
57,8 Jun 2027 18:34:38.694,8 Jun 2027 18:47:32.184,773.490
58,8 Jun 2027 20:10:54.014,8 Jun 2027 20:21:45.395,651.382
59,8 Jun 2027 21:48:56.928,8 Jun 2027 21:51:45.919,168.991
60,9 Jun 2027 02:26:49.078,9 Jun 2027 02:31:12.479,263.402
61,9 Jun 2027 03:57:32.313,9 Jun 2027 04:08:46.453,674.140
62,9 Jun 2027 05:32:04.699,9 Jun 2027 05:44:56.761,772.062
63,9 Jun 2027 07:10:21.711,9 Jun 2027 07:19:52.891,571.180
64,9 Jun 2027 17:11:19.278,9 Jun 2027 17:22:13.440,654.162
65,9 Jun 2027 18:46:39.686,9 Jun 2027 18:59:31.402,771.716
66,9 Jun 2027 20:23:01.589,9 Jun 2027 20:33:19.744,618.155
67,10 Jun 2027 02:37:49.785,10 Jun 2027 02:43:39.780,349.995
68,10 Jun 2027 04:09:12.421,10 Jun 2027 04:20:52.340,699.919
69,10 Jun 2027 05:44:09.656,10 Jun 2027 05:56:56.112,766.455
70,10 Jun 2027 07:23:05.809,10 Jun 2027 07:31:33.346,507.537
71,10 Jun 2027 17:23:10.538,10 Jun 2027 17:34:39.194,688.656
72,10 Jun 2027 18:58:41.501,10 Jun 2027 19:11:27.501,766.001
73,10 Jun 2027 20:35:10.340,10 Jun 2027 20:44:50.624,580.284
74,11 Jun 2027 02:49:00.449,11 Jun 2027 02:55:59.280,418.830
75,11 Jun 2027 04:20:55.650,11 Jun 2027 04:32:57.392,721.742
76,11 Jun 2027 05:56:18.040,11 Jun 2027 06:08:54.390,756.350
77,11 Jun 2027 07:36:00.843,11 Jun 2027 07:43:05.782,424.938
78,11 Jun 2027 17:35:04.023,11 Jun 2027 17:47:00.171,716.148
79,11 Jun 2027 19:10:44.102,11 Jun 2027 19:23:20.535,756.432
80,11 Jun 2027 20:47:20.520,11 Jun 2027 20:56:17.797,537.277
81,12 Jun 2027 03:00:17.564,12 Jun 2027 03:08:14.524,476.960
82,12 Jun 2027 04:32:41.946,12 Jun 2027 04:45:01.667,739.721
83,12 Jun 2027 06:08:30.024,12 Jun 2027 06:20:51.444,741.421
84,12 Jun 2027 07:49:14.412,12 Jun 2027 07:54:22.748,308.336
85,12 Jun 2027 16:13:40.314,12 Jun 2027 16:18:15.473,275.158
86,12 Jun 2027 17:46:59.305,12 Jun 2027 17:59:16.868,737.563
87,12 Jun 2027 19:22:47.459,12 Jun 2027 19:35:10.523,743.064
88,12 Jun 2027 20:59:32.548,12 Jun 2027 21:07:40.850,488.302
89,13 Jun 2027 03:11:39.667,13 Jun 2027 03:20:27.024,527.358
90,13 Jun 2027 04:44:31.285,13 Jun 2027 04:57:05.187,753.902
91,13 Jun 2027 06:20:45.858,13 Jun 2027 06:32:47.057,721.199
92,13 Jun 2027 08:03:49.693,13 Jun 2027 08:04:21.218,31.525
93,13 Jun 2027 16:24:51.606,13 Jun 2027 16:31:35.387,403.781
94,13 Jun 2027 17:58:56.065,13 Jun 2027 18:11:29.656,753.590
95,13 Jun 2027 19:34:51.571,13 Jun 2027 19:46:57.467,725.896
96,13 Jun 2027 21:11:47.114,13 Jun 2027 21:18:59.120,432.006
