dataset/facility_timing/facility_Facility-Irkutsk/Irkutsk-To-KinoSat_110703.csv

Acces,Start Time (UTCG),Stop Time (UTCG),Duration (sec)
1,1 Jun 2027 04:00:26.507,1 Jun 2027 04:02:20.075,113.568
2,1 Jun 2027 05:30:01.428,1 Jun 2027 05:40:43.363,641.935
3,1 Jun 2027 07:04:07.266,1 Jun 2027 07:17:00.654,773.388
4,1 Jun 2027 08:41:47.441,1 Jun 2027 08:52:12.515,625.074
5,1 Jun 2027 18:43:36.012,1 Jun 2027 18:53:44.067,608.055
6,1 Jun 2027 20:18:42.909,1 Jun 2027 20:31:36.376,773.467
7,1 Jun 2027 21:54:57.814,1 Jun 2027 22:05:51.300,653.486
8,1 Jun 2027 23:32:57.369,1 Jun 2027 23:35:56.430,179.061
9,2 Jun 2027 04:10:58.216,2 Jun 2027 04:15:14.164,255.948
10,2 Jun 2027 05:41:38.105,2 Jun 2027 05:52:50.237,672.132
11,2 Jun 2027 07:16:08.735,2 Jun 2027 07:29:01.037,772.302
12,2 Jun 2027 08:54:23.174,2 Jun 2027 09:03:58.360,575.186
13,2 Jun 2027 18:55:24.209,2 Jun 2027 19:06:15.734,651.525
14,2 Jun 2027 20:30:43.855,2 Jun 2027 20:43:35.827,771.972
15,2 Jun 2027 22:07:05.333,2 Jun 2027 22:17:25.879,620.546
16,3 Jun 2027 04:21:57.902,3 Jun 2027 04:27:42.351,344.449
17,3 Jun 2027 05:53:17.994,3 Jun 2027 06:04:56.203,698.208
18,3 Jun 2027 07:28:13.469,3 Jun 2027 07:41:00.473,767.004
19,3 Jun 2027 09:07:06.654,3 Jun 2027 09:15:39.258,512.604
20,3 Jun 2027 19:07:15.312,3 Jun 2027 19:18:41.854,686.542
21,3 Jun 2027 20:42:45.630,3 Jun 2027 20:55:32.146,766.516
22,3 Jun 2027 22:19:14.014,3 Jun 2027 22:28:57.009,582.994
23,4 Jun 2027 04:33:07.999,4 Jun 2027 04:40:02.279,414.280
24,4 Jun 2027 06:05:01.010,4 Jun 2027 06:17:01.327,720.317
25,4 Jun 2027 07:40:21.619,4 Jun 2027 07:52:58.844,757.225
26,4 Jun 2027 09:20:00.783,4 Jun 2027 09:27:12.431,431.649
27,4 Jun 2027 19:19:08.672,4 Jun 2027 19:31:03.157,714.485
28,4 Jun 2027 20:54:48.192,4 Jun 2027 21:07:25.393,757.201
29,4 Jun 2027 22:31:24.101,4 Jun 2027 22:40:24.446,540.344
30,5 Jun 2027 04:44:24.708,5 Jun 2027 04:52:17.789,473.080
31,5 Jun 2027 06:16:47.098,5 Jun 2027 06:29:05.672,738.574
32,5 Jun 2027 07:52:33.356,5 Jun 2027 08:04:56.004,742.648
33,5 Jun 2027 09:33:12.563,5 Jun 2027 09:38:30.997,318.434
34,5 Jun 2027 17:57:49.223,5 Jun 2027 18:02:12.847,263.624
35,5 Jun 2027 19:31:03.855,5 Jun 2027 19:43:20.149,736.294
36,5 Jun 2027 21:06:51.512,5 Jun 2027 21:19:15.601,744.088
37,5 Jun 2027 22:43:36.006,5 Jun 2027 22:51:47.794,491.787
38,6 Jun 2027 04:55:46.485,6 Jun 2027 05:04:30.476,523.991
39,6 Jun 2027 06:28:36.231,6 Jun 2027 06:41:09.260,753.028
40,6 Jun 2027 08:04:48.926,6 Jun 2027 08:16:51.737,722.811
41,6 Jun 2027 09:47:24.103,6 Jun 2027 09:48:53.015,88.912
42,6 Jun 2027 18:08:58.382,6 Jun 2027 18:15:35.143,396.761
43,6 Jun 2027 19:43:00.535,6 Jun 2027 19:55:33.207,752.672
44,6 Jun 2027 21:18:55.587,6 Jun 2027 21:31:02.759,727.173
45,6 Jun 2027 22:55:50.390,6 Jun 2027 23:03:06.412,436.021
46,7 Jun 2027 05:07:12.533,7 Jun 2027 05:16:41.149,568.616
47,7 Jun 2027 06:40:28.411,7 Jun 2027 06:53:12.086,763.674
48,7 Jun 2027 08:17:08.670,7 Jun 2027 08:28:45.778,697.108
49,7 Jun 2027 18:20:27.617,7 Jun 2027 18:28:34.263,486.645
50,7 Jun 2027 19:54:58.498,7 Jun 2027 20:07:42.587,764.089
51,7 Jun 2027 21:31:00.428,7 Jun 2027 21:42:46.864,706.436
52,7 Jun 2027 23:08:08.494,7 Jun 2027 23:14:19.099,370.605
53,8 Jun 2027 05:18:42.391,8 Jun 2027 05:28:50.290,607.899
54,8 Jun 2027 06:52:23.647,8 Jun 2027 07:05:14.138,770.491
55,8 Jun 2027 08:29:33.025,8 Jun 2027 08:40:37.734,664.709
56,8 Jun 2027 18:32:06.228,8 Jun 2027 18:41:21.045,554.817
57,8 Jun 2027 20:06:57.574,8 Jun 2027 20:19:48.507,770.933
58,8 Jun 2027 21:43:06.090,8 Jun 2027 21:54:27.862,681.772
59,8 Jun 2027 23:20:33.015,8 Jun 2027 23:25:23.201,290.186
60,9 Jun 2027 04:00:39.240,9 Jun 2027 04:02:36.276,117.036
61,9 Jun 2027 05:30:15.779,9 Jun 2027 05:40:58.198,642.419
62,9 Jun 2027 07:04:21.983,9 Jun 2027 07:17:15.384,773.401
63,9 Jun 2027 08:42:02.636,9 Jun 2027 08:52:27.043,624.406
64,9 Jun 2027 18:43:50.548,9 Jun 2027 18:53:59.281,608.733
65,9 Jun 2027 20:18:57.636,9 Jun 2027 20:31:51.109,773.474
66,9 Jun 2027 21:55:12.624,9 Jun 2027 22:06:05.680,653.056
67,9 Jun 2027 23:33:12.839,9 Jun 2027 23:36:09.892,177.053
68,10 Jun 2027 04:11:11.907,10 Jun 2027 04:15:29.432,257.525
69,10 Jun 2027 05:41:52.504,10 Jun 2027 05:53:05.056,672.552
70,10 Jun 2027 07:16:23.499,10 Jun 2027 07:29:15.752,772.253
71,10 Jun 2027 08:54:38.470,10 Jun 2027 09:04:12.826,574.356
72,10 Jun 2027 18:55:38.789,10 Jun 2027 19:06:30.859,652.070
73,10 Jun 2027 20:30:58.593,10 Jun 2027 20:43:50.513,771.921
74,10 Jun 2027 22:07:20.156,10 Jun 2027 22:17:40.216,620.061
75,11 Jun 2027 04:22:11.809,11 Jun 2027 04:27:57.432,345.622
76,11 Jun 2027 05:53:32.439,11 Jun 2027 06:05:11.007,698.568
77,11 Jun 2027 07:28:28.280,11 Jun 2027 07:41:15.171,766.891
78,11 Jun 2027 09:07:22.085,11 Jun 2027 09:15:53.631,511.546
79,11 Jun 2027 19:07:29.926,11 Jun 2027 19:18:56.907,686.982
80,11 Jun 2027 20:43:00.377,11 Jun 2027 20:55:46.787,766.410
81,11 Jun 2027 22:19:28.851,11 Jun 2027 22:29:11.292,582.441
82,12 Jun 2027 04:33:22.025,12 Jun 2027 04:40:17.273,415.248
83,12 Jun 2027 06:05:15.499,12 Jun 2027 06:17:16.118,720.619
84,12 Jun 2027 07:40:36.481,12 Jun 2027 07:53:13.524,757.042
85,12 Jun 2027 09:20:16.403,12 Jun 2027 09:27:26.651,430.248
86,12 Jun 2027 19:19:23.315,12 Jun 2027 19:31:18.145,714.830
87,12 Jun 2027 20:55:02.948,12 Jun 2027 21:07:39.991,757.043
88,12 Jun 2027 22:31:38.958,12 Jun 2027 22:40:38.676,539.718
89,13 Jun 2027 04:44:38.819,13 Jun 2027 04:52:32.729,473.910
90,13 Jun 2027 06:17:01.632,13 Jun 2027 06:29:20.450,738.818
91,13 Jun 2027 07:52:48.272,13 Jun 2027 08:05:10.662,742.390
92,13 Jun 2027 09:33:28.558,13 Jun 2027 09:38:44.886,316.327
93,13 Jun 2027 17:58:02.971,13 Jun 2027 18:02:29.019,266.048
94,13 Jun 2027 19:31:18.520,13 Jun 2027 19:43:35.078,736.558
95,13 Jun 2027 21:07:06.277,13 Jun 2027 21:19:30.156,743.878
96,13 Jun 2027 22:43:50.888,13 Jun 2027 22:52:01.965,491.077
