dataset/facility_timing/facility_Facility-Irkutsk/Irkutsk-To-KinoSat_110803.csv

Acces,Start Time (UTCG),Stop Time (UTCG),Duration (sec)
1,1 Jun 2027 05:27:23.953,1 Jun 2027 05:36:08.682,524.729
2,1 Jun 2027 07:00:14.166,1 Jun 2027 07:12:47.405,753.239
3,1 Jun 2027 08:36:27.365,1 Jun 2027 08:48:29.795,722.430
4,1 Jun 2027 10:19:07.535,1 Jun 2027 10:20:26.584,79.049
5,1 Jun 2027 18:40:35.508,1 Jun 2027 18:47:14.780,399.271
6,1 Jun 2027 20:14:38.554,1 Jun 2027 20:27:11.561,753.007
7,1 Jun 2027 21:50:33.829,1 Jun 2027 22:02:40.549,726.719
8,1 Jun 2027 23:27:29.011,1 Jun 2027 23:34:43.471,434.459
9,2 Jun 2027 05:38:50.070,2 Jun 2027 05:48:19.362,569.292
10,2 Jun 2027 07:12:06.411,2 Jun 2027 07:24:50.243,763.832
11,2 Jun 2027 08:48:47.211,2 Jun 2027 09:00:23.822,696.612
12,2 Jun 2027 18:52:05.058,2 Jun 2027 19:00:13.571,488.513
13,2 Jun 2027 20:26:36.567,2 Jun 2027 20:39:20.881,764.314
14,2 Jun 2027 22:02:38.714,2 Jun 2027 22:14:24.592,705.878
15,2 Jun 2027 23:39:47.277,2 Jun 2027 23:45:55.969,368.692
16,3 Jun 2027 05:50:19.993,3 Jun 2027 06:00:28.511,608.517
17,3 Jun 2027 07:24:01.720,3 Jun 2027 07:36:52.303,770.583
18,3 Jun 2027 09:01:11.689,3 Jun 2027 09:12:15.761,664.071
19,3 Jun 2027 19:03:43.861,3 Jun 2027 19:13:00.151,556.291
20,3 Jun 2027 20:38:35.690,3 Jun 2027 20:51:26.744,771.055
21,3 Jun 2027 22:14:44.423,3 Jun 2027 22:26:05.525,681.102
22,3 Jun 2027 23:52:12.089,3 Jun 2027 23:56:59.754,287.665
23,4 Jun 2027 04:32:15.383,4 Jun 2027 04:34:15.646,120.263
24,4 Jun 2027 06:01:53.448,4 Jun 2027 06:12:36.428,642.980
25,4 Jun 2027 07:36:00.134,4 Jun 2027 07:48:53.557,773.423
26,4 Jun 2027 09:13:41.437,4 Jun 2027 09:24:05.029,623.591
27,4 Jun 2027 19:15:28.308,4 Jun 2027 19:25:38.242,609.934
28,4 Jun 2027 20:50:35.797,4 Jun 2027 21:03:29.288,773.491
29,4 Jun 2027 22:26:51.008,4 Jun 2027 22:37:43.272,652.264
30,5 Jun 2027 00:04:52.762,5 Jun 2027 00:07:45.571,172.809
31,5 Jun 2027 04:42:48.894,5 Jun 2027 04:47:08.019,259.125
32,5 Jun 2027 06:13:30.241,5 Jun 2027 06:24:43.297,673.056
33,5 Jun 2027 07:48:01.731,5 Jun 2027 08:00:53.931,772.200
34,5 Jun 2027 09:26:17.435,5 Jun 2027 09:35:50.754,573.319
35,5 Jun 2027 19:27:16.651,5 Jun 2027 19:38:09.705,653.054
36,5 Jun 2027 21:02:36.798,5 Jun 2027 21:15:28.633,771.835
37,5 Jun 2027 22:38:58.595,5 Jun 2027 22:49:17.729,619.134
38,6 Jun 2027 04:53:48.999,6 Jun 2027 04:59:35.881,346.882
39,6 Jun 2027 06:25:10.245,6 Jun 2027 06:36:49.258,699.013
40,6 Jun 2027 08:00:06.599,6 Jun 2027 08:12:53.353,766.754
41,6 Jun 2027 09:39:01.257,6 Jun 2027 09:47:31.462,510.205
42,6 Jun 2027 19:39:07.871,6 Jun 2027 19:50:35.655,687.784
43,6 Jun 2027 21:14:38.625,6 Jun 2027 21:27:24.848,766.223
44,6 Jun 2027 22:51:07.354,6 Jun 2027 23:00:48.716,581.363
45,7 Jun 2027 05:04:59.336,7 Jun 2027 05:11:55.671,416.335
46,7 Jun 2027 06:36:53.377,7 Jun 2027 06:48:54.379,721.002
47,7 Jun 2027 08:12:14.892,7 Jun 2027 08:24:51.704,756.813
48,7 Jun 2027 09:51:55.868,7 Jun 2027 09:59:04.302,428.434
49,7 Jun 2027 19:51:01.331,7 Jun 2027 20:02:56.806,715.475
50,7 Jun 2027 21:26:41.240,7 Jun 2027 21:39:17.991,756.751
51,7 Jun 2027 23:03:17.535,7 Jun 2027 23:12:15.999,538.463
52,8 Jun 2027 05:16:16.225,8 Jun 2027 05:24:11.105,474.880
53,8 Jun 2027 06:48:39.582,8 Jun 2027 07:00:58.720,739.138
54,8 Jun 2027 08:24:26.782,8 Jun 2027 08:36:48.838,742.055
55,8 Jun 2027 10:05:08.566,8 Jun 2027 10:10:22.112,313.546
56,8 Jun 2027 18:29:39.260,8 Jun 2027 18:34:09.855,270.595
57,8 Jun 2027 20:02:56.599,8 Jun 2027 20:15:13.661,737.062
58,8 Jun 2027 21:38:44.612,8 Jun 2027 21:51:08.091,743.479
59,8 Jun 2027 23:15:29.557,8 Jun 2027 23:23:39.167,489.610
60,9 Jun 2027 05:27:38.153,9 Jun 2027 05:36:23.744,525.592
61,9 Jun 2027 07:00:28.836,9 Jun 2027 07:13:02.304,753.468
62,9 Jun 2027 08:36:42.517,9 Jun 2027 08:48:44.535,722.018
63,9 Jun 2027 10:19:28.718,9 Jun 2027 10:20:35.687,66.969
64,9 Jun 2027 18:40:49.735,9 Jun 2027 18:47:30.762,401.027
65,9 Jun 2027 20:14:53.354,9 Jun 2027 20:27:26.587,753.233
66,9 Jun 2027 21:50:48.740,9 Jun 2027 22:02:55.140,726.400
67,9 Jun 2027 23:27:44.099,9 Jun 2027 23:34:57.563,433.464
68,10 Jun 2027 05:39:04.340,10 Jun 2027 05:48:34.390,570.051
69,10 Jun 2027 07:12:21.139,10 Jun 2027 07:25:05.126,763.987
70,10 Jun 2027 08:49:02.439,10 Jun 2027 09:00:38.528,696.088
71,10 Jun 2027 18:52:19.493,10 Jun 2027 19:00:29.293,489.800
72,10 Jun 2027 20:26:51.385,10 Jun 2027 20:39:35.849,764.464
73,10 Jun 2027 22:02:53.636,10 Jun 2027 22:14:39.131,705.495
74,10 Jun 2027 23:40:02.441,10 Jun 2027 23:46:09.947,367.505
75,11 Jun 2027 05:50:34.328,11 Jun 2027 06:00:43.512,609.184
76,11 Jun 2027 07:24:16.502,11 Jun 2027 07:37:07.170,770.668
77,11 Jun 2027 09:01:27.005,11 Jun 2027 09:12:30.421,663.417
78,11 Jun 2027 19:03:58.408,11 Jun 2027 19:13:15.704,557.296
79,11 Jun 2027 20:38:50.524,11 Jun 2027 20:51:41.653,771.130
80,11 Jun 2027 22:14:59.356,11 Jun 2027 22:26:20.009,680.653
81,11 Jun 2027 23:52:27.396,11 Jun 2027 23:57:13.550,286.155
82,12 Jun 2027 04:32:27.930,12 Jun 2027 04:34:32.169,124.239
83,12 Jun 2027 06:02:07.843,12 Jun 2027 06:12:51.407,643.564
84,12 Jun 2027 07:36:14.970,12 Jun 2027 07:49:08.407,773.437
85,12 Jun 2027 09:13:56.853,12 Jun 2027 09:24:19.632,622.779
86,12 Jun 2027 19:15:42.931,12 Jun 2027 19:25:53.668,610.737
87,12 Jun 2027 20:50:50.645,12 Jun 2027 21:03:44.140,773.495
88,12 Jun 2027 22:27:05.954,12 Jun 2027 22:37:57.701,651.748
89,13 Jun 2027 00:05:08.531,13 Jun 2027 00:07:58.867,170.336
90,13 Jun 2027 04:43:02.498,13 Jun 2027 04:47:23.518,261.021
91,13 Jun 2027 06:13:44.693,13 Jun 2027 06:24:58.256,673.562
92,13 Jun 2027 07:48:16.624,13 Jun 2027 08:01:08.762,772.138
93,13 Jun 2027 09:26:32.973,13 Jun 2027 09:36:05.279,572.306
94,13 Jun 2027 19:27:31.329,13 Jun 2027 19:38:25.029,653.700
95,13 Jun 2027 21:02:51.659,13 Jun 2027 21:15:43.428,771.769
96,13 Jun 2027 22:39:13.556,13 Jun 2027 22:49:32.102,618.547
