dataset/facility_timing/facility_Facility-Irkutsk/Irkutsk-To-KinoSat_110406.csv

Acces,Start Time (UTCG),Stop Time (UTCG),Duration (sec)
1,1 Jun 2027 03:38:47.406,1 Jun 2027 03:49:11.317,623.911
2,1 Jun 2027 05:12:39.842,1 Jun 2027 05:25:32.118,772.276
3,1 Jun 2027 06:50:02.873,1 Jun 2027 07:00:50.624,647.750
4,1 Jun 2027 16:52:16.034,1 Jun 2027 17:01:56.301,580.267
5,1 Jun 2027 18:27:14.810,1 Jun 2027 18:40:07.390,772.580
6,1 Jun 2027 20:03:26.182,1 Jun 2027 20:14:35.711,669.529
7,1 Jun 2027 21:41:04.895,1 Jun 2027 21:45:11.273,246.378
8,2 Jun 2027 02:20:10.936,2 Jun 2027 02:23:23.743,192.807
9,2 Jun 2027 03:50:22.299,2 Jun 2027 04:01:18.719,656.420
10,2 Jun 2027 05:24:39.574,2 Jun 2027 05:37:32.973,773.399
11,2 Jun 2027 07:02:35.101,2 Jun 2027 07:12:38.483,603.382
12,2 Jun 2027 17:04:02.243,2 Jun 2027 17:14:31.386,629.144
13,2 Jun 2027 18:39:15.269,2 Jun 2027 18:52:08.543,773.274
14,2 Jun 2027 20:15:33.128,2 Jun 2027 20:26:12.083,638.955
15,2 Jun 2027 21:54:05.593,2 Jun 2027 21:55:36.171,90.578
16,3 Jun 2027 02:31:00.634,3 Jun 2027 02:36:00.769,300.135
17,3 Jun 2027 04:02:00.468,3 Jun 2027 04:13:25.144,684.676
18,3 Jun 2027 05:36:42.523,3 Jun 2027 05:49:32.915,770.392
19,3 Jun 2027 07:15:14.134,3 Jun 2027 07:24:22.274,548.140
20,3 Jun 2027 17:15:51.860,3 Jun 2027 17:27:00.380,668.520
21,3 Jun 2027 18:51:16.587,3 Jun 2027 19:04:06.540,769.954
22,3 Jun 2027 20:27:41.137,3 Jun 2027 20:37:45.103,603.966
23,4 Jun 2027 02:42:05.921,4 Jun 2027 02:48:24.333,378.412
24,4 Jun 2027 04:13:41.802,4 Jun 2027 04:25:30.692,708.891
25,4 Jun 2027 05:48:48.801,4 Jun 2027 06:01:31.864,763.063
26,4 Jun 2027 07:28:02.006,4 Jun 2027 07:36:00.080,478.075
27,4 Jun 2027 17:27:44.050,4 Jun 2027 17:39:24.200,700.151
28,4 Jun 2027 19:03:18.712,4 Jun 2027 19:16:01.435,762.723
29,4 Jun 2027 20:39:50.410,4 Jun 2027 20:49:14.574,564.164
30,5 Jun 2027 02:53:19.351,5 Jun 2027 03:00:41.915,442.564
31,5 Jun 2027 04:25:26.232,5 Jun 2027 04:37:35.442,729.210
32,5 Jun 2027 06:00:58.557,5 Jun 2027 06:13:29.689,751.132
33,5 Jun 2027 07:41:02.856,5 Jun 2027 07:47:27.884,385.028
34,5 Jun 2027 16:07:16.365,5 Jun 2027 16:09:31.374,135.009
35,5 Jun 2027 17:39:38.276,5 Jun 2027 17:51:43.457,725.181
36,5 Jun 2027 19:15:21.611,5 Jun 2027 19:27:53.281,751.670
37,5 Jun 2027 20:52:01.250,5 Jun 2027 21:00:40.192,518.942
38,6 Jun 2027 03:04:38.536,6 Jun 2027 03:12:55.965,497.429
39,6 Jun 2027 04:37:13.717,6 Jun 2027 04:49:39.417,745.701
40,6 Jun 2027 06:13:12.015,6 Jun 2027 06:25:26.207,734.192
41,6 Jun 2027 07:54:29.391,6 Jun 2027 07:58:33.121,243.730
42,6 Jun 2027 16:17:54.030,6 Jun 2027 16:23:26.880,332.850
43,6 Jun 2027 17:51:34.164,6 Jun 2027 18:03:58.596,744.432
44,6 Jun 2027 19:27:25.257,6 Jun 2027 19:39:42.084,736.826
45,6 Jun 2027 21:04:14.167,6 Jun 2027 21:12:01.483,467.316
46,7 Jun 2027 03:16:02.352,7 Jun 2027 03:25:07.626,545.275
47,7 Jun 2027 04:49:04.240,7 Jun 2027 05:01:42.643,758.402
48,7 Jun 2027 06:25:29.437,7 Jun 2027 06:37:21.192,711.756
49,7 Jun 2027 16:29:14.777,7 Jun 2027 16:36:36.121,441.343
50,7 Jun 2027 18:03:31.445,7 Jun 2027 18:16:09.928,758.483
51,7 Jun 2027 19:39:29.668,7 Jun 2027 19:51:27.837,718.170
52,7 Jun 2027 21:16:30.022,7 Jun 2027 21:23:17.597,407.574
53,8 Jun 2027 03:27:30.202,8 Jun 2027 03:37:17.530,587.327
54,8 Jun 2027 05:00:57.814,8 Jun 2027 05:13:45.101,767.287
55,8 Jun 2027 06:37:51.217,8 Jun 2027 06:49:14.324,683.107
56,8 Jun 2027 16:40:48.961,8 Jun 2027 16:49:28.884,519.922
57,8 Jun 2027 18:15:29.922,8 Jun 2027 18:28:17.687,767.764
58,8 Jun 2027 19:51:34.864,8 Jun 2027 20:03:10.523,695.659
59,8 Jun 2027 21:28:50.538,8 Jun 2027 21:34:26.859,336.320
60,9 Jun 2027 03:39:01.708,9 Jun 2027 03:49:26.050,624.342
61,9 Jun 2027 05:12:54.459,9 Jun 2027 05:25:46.774,772.315
62,9 Jun 2027 06:50:17.875,9 Jun 2027 07:01:05.136,647.261
63,9 Jun 2027 16:52:30.473,9 Jun 2027 17:02:11.425,580.952
64,9 Jun 2027 18:27:29.450,9 Jun 2027 18:40:22.064,772.615
65,9 Jun 2027 20:03:40.900,9 Jun 2027 20:14:50.074,669.174
66,9 Jun 2027 21:41:20.007,9 Jun 2027 21:45:25.027,245.020
67,10 Jun 2027 02:20:24.519,10 Jun 2027 02:23:39.009,194.491
68,10 Jun 2027 03:50:36.646,10 Jun 2027 04:01:33.444,656.798
69,10 Jun 2027 05:24:54.231,10 Jun 2027 05:37:47.618,773.387
70,10 Jun 2027 07:02:50.184,10 Jun 2027 07:12:52.949,602.766
71,10 Jun 2027 17:04:16.732,10 Jun 2027 17:14:46.420,629.689
72,10 Jun 2027 18:39:29.921,10 Jun 2027 18:52:23.176,773.256
73,10 Jun 2027 20:15:47.862,10 Jun 2027 20:26:26.404,638.542
74,10 Jun 2027 21:54:21.858,10 Jun 2027 21:55:48.739,86.882
75,11 Jun 2027 02:31:14.522,11 Jun 2027 02:36:15.756,301.235
76,11 Jun 2027 04:02:14.854,11 Jun 2027 04:13:39.857,685.003
77,11 Jun 2027 05:36:57.220,11 Jun 2027 05:49:47.548,770.328
78,11 Jun 2027 07:15:29.312,11 Jun 2027 07:24:36.679,547.367
79,11 Jun 2027 17:16:06.386,11 Jun 2027 17:27:15.348,668.962
80,11 Jun 2027 18:51:31.248,11 Jun 2027 19:04:21.134,769.887
81,11 Jun 2027 20:27:55.884,11 Jun 2027 20:37:59.382,603.497
82,12 Jun 2027 02:42:19.934,12 Jun 2027 02:48:39.221,379.287
83,12 Jun 2027 04:13:56.227,12 Jun 2027 04:25:45.396,709.169
84,12 Jun 2027 05:49:03.541,12 Jun 2027 06:01:46.483,762.942
85,12 Jun 2027 07:28:17.314,12 Jun 2027 07:36:14.391,477.077
86,12 Jun 2027 17:27:58.605,12 Jun 2027 17:39:39.107,700.503
87,12 Jun 2027 19:03:33.382,12 Jun 2027 19:16:15.991,762.608
88,12 Jun 2027 20:40:05.174,12 Jun 2027 20:49:28.807,563.633
89,13 Jun 2027 02:53:33.445,13 Jun 2027 03:00:56.749,443.304
90,13 Jun 2027 04:25:40.695,13 Jun 2027 04:37:50.136,729.441
91,13 Jun 2027 06:01:13.342,13 Jun 2027 06:13:44.293,750.951
92,13 Jun 2027 07:41:18.375,13 Jun 2027 07:47:42.021,383.646
93,13 Jun 2027 16:07:29.019,13 Jun 2027 16:09:48.434,139.415
94,13 Jun 2027 17:39:52.855,13 Jun 2027 17:51:58.310,725.455
95,13 Jun 2027 19:15:36.291,13 Jun 2027 19:28:07.799,751.508
96,13 Jun 2027 20:52:16.035,13 Jun 2027 21:00:54.375,518.340
