dataset/facility_timing/facility_Facility-Irkutsk/Irkutsk-To-KinoSat_110405.csv

Acces,Start Time (UTCG),Stop Time (UTCG),Duration (sec)
1,1 Jun 2027 02:18:03.775,1 Jun 2027 02:20:46.915,163.140
2,1 Jun 2027 03:48:01.620,1 Jun 2027 03:58:51.849,650.229
3,1 Jun 2027 05:22:13.912,1 Jun 2027 05:35:07.403,773.491
4,1 Jun 2027 07:00:02.646,1 Jun 2027 07:10:15.749,613.104
5,1 Jun 2027 17:01:39.246,1 Jun 2027 17:11:59.383,620.137
6,1 Jun 2027 18:36:49.640,1 Jun 2027 18:49:43.107,773.467
7,1 Jun 2027 20:13:06.185,1 Jun 2027 20:23:51.638,645.453
8,1 Jun 2027 21:51:20.605,1 Jun 2027 21:53:37.316,136.711
9,2 Jun 2027 02:28:47.615,2 Jun 2027 02:33:29.390,281.775
10,2 Jun 2027 03:59:39.140,2 Jun 2027 04:10:58.460,679.320
11,2 Jun 2027 05:34:16.205,2 Jun 2027 05:47:07.538,771.333
12,2 Jun 2027 07:12:40.188,2 Jun 2027 07:22:00.475,560.287
13,2 Jun 2027 17:13:28.260,2 Jun 2027 17:24:29.520,661.260
14,2 Jun 2027 18:48:50.791,2 Jun 2027 19:01:41.731,770.941
15,2 Jun 2027 20:25:13.967,2 Jun 2027 20:35:25.346,611.379
16,3 Jun 2027 02:39:50.691,3 Jun 2027 02:45:54.730,364.039
17,3 Jun 2027 04:11:19.843,3 Jun 2027 04:23:04.181,704.337
18,3 Jun 2027 05:46:21.801,3 Jun 2027 05:59:06.697,764.897
19,3 Jun 2027 07:25:26.048,3 Jun 2027 07:33:39.710,493.662
20,3 Jun 2027 17:25:19.979,3 Jun 2027 17:36:54.322,694.343
21,3 Jun 2027 19:00:52.757,3 Jun 2027 19:13:37.244,764.487
22,3 Jun 2027 20:37:22.965,3 Jun 2027 20:46:55.548,572.583
23,4 Jun 2027 02:51:02.748,4 Jun 2027 02:58:13.248,430.499
24,4 Jun 2027 04:23:03.654,4 Jun 2027 04:35:09.086,725.431
25,4 Jun 2027 05:58:30.844,4 Jun 2027 06:11:04.757,753.914
26,4 Jun 2027 07:38:23.744,4 Jun 2027 07:45:10.054,406.310
27,4 Jun 2027 17:37:13.831,4 Jun 2027 17:49:14.460,720.629
28,4 Jun 2027 19:12:55.504,4 Jun 2027 19:25:29.703,754.199
29,4 Jun 2027 20:49:33.457,4 Jun 2027 20:58:21.978,528.521
30,5 Jun 2027 03:02:20.884,5 Jun 2027 03:10:27.888,487.004
31,5 Jun 2027 04:34:50.531,5 Jun 2027 04:47:13.214,742.683
32,5 Jun 2027 06:10:43.534,5 Jun 2027 06:23:01.559,738.025
33,5 Jun 2027 07:51:42.846,5 Jun 2027 07:56:22.086,279.240
34,5 Jun 2027 16:15:39.428,5 Jun 2027 16:20:44.140,304.712
35,5 Jun 2027 17:49:09.413,5 Jun 2027 18:01:30.401,740.988
36,5 Jun 2027 19:24:59.002,5 Jun 2027 19:37:19.118,740.115
37,5 Jun 2027 21:01:45.902,5 Jun 2027 21:09:44.192,478.290
38,6 Jun 2027 03:13:43.830,6 Jun 2027 03:22:39.971,536.141
39,6 Jun 2027 04:46:40.439,6 Jun 2027 04:59:16.591,756.152
40,6 Jun 2027 06:23:00.130,6 Jun 2027 06:34:56.875,716.745
41,6 Jun 2027 16:26:55.808,6 Jun 2027 16:33:58.376,422.567
42,6 Jun 2027 18:01:06.427,6 Jun 2027 18:13:42.477,756.050
43,6 Jun 2027 19:37:03.254,6 Jun 2027 19:49:05.486,722.231
44,6 Jun 2027 21:14:01.065,6 Jun 2027 21:21:01.443,420.378
45,7 Jun 2027 03:25:10.905,7 Jun 2027 03:34:50.192,579.287
46,7 Jun 2027 04:58:33.398,7 Jun 2027 05:11:19.207,765.809
47,7 Jun 2027 06:35:20.996,7 Jun 2027 06:46:50.412,689.415
48,7 Jun 2027 16:38:27.985,7 Jun 2027 16:46:53.744,505.759
49,7 Jun 2027 18:13:04.677,7 Jun 2027 18:25:50.938,766.261
50,7 Jun 2027 19:49:08.289,7 Jun 2027 20:00:48.794,700.505
51,7 Jun 2027 21:26:20.431,7 Jun 2027 21:32:12.292,351.862
52,8 Jun 2027 03:36:41.696,8 Jun 2027 03:46:58.969,617.272
53,8 Jun 2027 05:10:29.421,8 Jun 2027 05:23:21.039,771.618
54,8 Jun 2027 06:47:46.626,8 Jun 2027 06:58:41.737,655.111
55,8 Jun 2027 16:50:08.289,8 Jun 2027 16:59:38.065,569.776
56,8 Jun 2027 18:25:04.002,8 Jun 2027 18:37:55.986,771.984
57,8 Jun 2027 20:01:14.155,8 Jun 2027 20:12:28.981,674.826
58,8 Jun 2027 21:38:47.455,8 Jun 2027 21:43:13.333,265.879
59,9 Jun 2027 02:18:17.214,9 Jun 2027 02:21:02.325,165.111
60,9 Jun 2027 03:48:15.959,9 Jun 2027 03:59:06.572,650.613
61,9 Jun 2027 05:22:28.557,9 Jun 2027 05:35:22.055,773.498
62,9 Jun 2027 07:00:17.716,9 Jun 2027 07:10:30.224,612.508
63,9 Jun 2027 17:01:53.727,9 Jun 2027 17:12:14.442,620.715
64,9 Jun 2027 18:37:04.288,9 Jun 2027 18:49:57.745,773.456
65,9 Jun 2027 20:13:20.917,9 Jun 2027 20:24:05.968,645.052
66,9 Jun 2027 21:51:36.243,9 Jun 2027 21:53:50.519,134.276
67,10 Jun 2027 02:29:01.467,10 Jun 2027 02:33:44.408,282.941
68,10 Jun 2027 03:59:53.519,10 Jun 2027 04:11:13.175,679.656
69,10 Jun 2027 05:34:30.894,10 Jun 2027 05:47:22.174,771.280
70,10 Jun 2027 07:12:55.345,10 Jun 2027 07:22:14.893,559.548
71,10 Jun 2027 17:13:42.779,10 Jun 2027 17:24:44.502,661.723
72,10 Jun 2027 18:49:05.450,10 Jun 2027 19:01:56.333,770.884
73,10 Jun 2027 20:25:28.712,10 Jun 2027 20:35:39.634,610.921
74,11 Jun 2027 02:40:04.686,11 Jun 2027 02:46:09.631,364.945
75,11 Jun 2027 04:11:34.261,11 Jun 2027 04:23:18.886,704.625
76,11 Jun 2027 05:46:36.531,11 Jun 2027 05:59:21.319,764.788
77,11 Jun 2027 07:25:41.326,11 Jun 2027 07:33:54.045,492.719
78,11 Jun 2027 17:25:34.528,11 Jun 2027 17:37:09.242,694.714
79,11 Jun 2027 19:01:07.426,11 Jun 2027 19:13:51.808,764.382
80,11 Jun 2027 20:37:37.726,11 Jun 2027 20:47:09.790,572.064
81,12 Jun 2027 02:51:16.829,12 Jun 2027 02:58:28.090,431.261
82,12 Jun 2027 04:23:18.110,12 Jun 2027 04:35:23.781,725.671
83,12 Jun 2027 05:58:45.619,12 Jun 2027 06:11:19.365,753.746
84,12 Jun 2027 07:38:39.208,12 Jun 2027 07:45:24.242,405.034
85,12 Jun 2027 17:37:28.404,12 Jun 2027 17:49:29.324,720.919
86,12 Jun 2027 19:13:10.182,12 Jun 2027 19:25:44.228,754.046
87,12 Jun 2027 20:49:48.239,12 Jun 2027 20:58:36.171,527.932
88,13 Jun 2027 03:02:35.030,13 Jun 2027 03:10:42.693,487.662
89,13 Jun 2027 04:35:05.025,13 Jun 2027 04:47:27.901,742.876
90,13 Jun 2027 06:10:58.356,13 Jun 2027 06:23:16.149,737.793
91,13 Jun 2027 07:51:58.722,13 Jun 2027 07:56:35.898,277.177
92,13 Jun 2027 16:15:53.350,13 Jun 2027 16:20:59.899,306.550
93,13 Jun 2027 17:49:24.007,13 Jun 2027 18:01:45.214,741.208
94,13 Jun 2027 19:25:13.690,13 Jun 2027 19:37:33.605,739.916
95,13 Jun 2027 21:02:00.711,13 Jun 2027 21:09:58.330,477.619
