dataset/facility_timing/facility_Facility-Irkutsk/Irkutsk-To-KinoSat_111908.csv

Acces,Start Time (UTCG),Stop Time (UTCG),Duration (sec)
1,1 Jun 2027 00:56:05.736,1 Jun 2027 01:08:35.152,749.416
2,1 Jun 2027 02:32:00.410,1 Jun 2027 02:44:11.881,731.471
3,1 Jun 2027 04:08:54.936,1 Jun 2027 04:16:22.093,447.157
4,1 Jun 2027 10:20:30.343,1 Jun 2027 10:29:40.620,550.277
5,1 Jun 2027 11:53:36.328,1 Jun 2027 12:06:16.370,760.042
6,1 Jun 2027 13:30:06.851,1 Jun 2027 13:41:54.926,708.074
7,1 Jun 2027 23:33:37.285,1 Jun 2027 23:41:25.916,468.631
8,2 Jun 2027 01:08:03.932,2 Jun 2027 01:20:46.010,762.078
9,2 Jun 2027 02:44:05.689,2 Jun 2027 02:55:57.009,711.320
10,2 Jun 2027 04:21:13.210,2 Jun 2027 04:27:35.800,382.590
11,2 Jun 2027 10:31:58.752,2 Jun 2027 10:41:51.113,592.361
12,2 Jun 2027 12:05:30.824,2 Jun 2027 12:18:19.296,768.471
13,2 Jun 2027 13:42:30.124,2 Jun 2027 13:53:48.222,678.097
14,2 Jun 2027 23:45:14.605,2 Jun 2027 23:54:16.013,541.407
15,3 Jun 2027 01:20:03.295,3 Jun 2027 01:32:53.286,769.991
16,3 Jun 2027 02:56:11.801,3 Jun 2027 03:07:38.975,687.174
17,3 Jun 2027 04:33:37.548,3 Jun 2027 04:38:41.212,303.665
18,3 Jun 2027 10:43:30.909,3 Jun 2027 10:54:00.194,629.285
19,3 Jun 2027 12:17:28.469,3 Jun 2027 12:30:21.403,772.934
20,3 Jun 2027 13:54:58.475,3 Jun 2027 14:05:39.068,640.593
21,3 Jun 2027 23:56:58.309,4 Jun 2027 00:06:56.806,598.497
22,4 Jun 2027 01:32:03.689,4 Jun 2027 01:44:57.153,773.463
23,4 Jun 2027 03:08:18.803,4 Jun 2027 03:19:17.694,658.891
24,4 Jun 2027 04:46:15.514,4 Jun 2027 04:49:30.820,195.306
25,4 Jun 2027 09:24:48.097,4 Jun 2027 09:28:15.174,207.077
26,4 Jun 2027 10:55:06.570,4 Jun 2027 11:06:08.122,661.552
27,4 Jun 2027 12:29:29.323,4 Jun 2027 12:42:22.653,773.330
28,4 Jun 2027 14:07:32.749,4 Jun 2027 14:17:26.716,593.967
29,5 Jun 2027 00:08:46.286,5 Jun 2027 00:19:30.508,644.222
30,5 Jun 2027 01:44:05.018,5 Jun 2027 01:56:57.721,772.704
31,5 Jun 2027 03:20:26.820,5 Jun 2027 03:30:53.059,626.240
32,5 Jun 2027 09:35:39.782,5 Jun 2027 09:40:51.249,311.467
33,5 Jun 2027 11:06:45.575,5 Jun 2027 11:18:15.050,689.475
34,5 Jun 2027 12:41:33.483,5 Jun 2027 12:54:22.954,769.471
35,5 Jun 2027 14:20:14.258,5 Jun 2027 14:29:09.948,535.690
36,6 Jun 2027 00:20:37.383,6 Jun 2027 00:31:58.382,680.998
37,6 Jun 2027 01:56:07.201,6 Jun 2027 02:08:55.092,767.891
38,6 Jun 2027 03:32:36.002,6 Jun 2027 03:42:24.905,588.903
39,6 Jun 2027 09:46:46.087,6 Jun 2027 09:53:14.896,388.809
40,6 Jun 2027 11:18:27.816,6 Jun 2027 11:30:21.082,713.265
41,6 Jun 2027 12:53:41.072,6 Jun 2027 13:06:22.217,761.145
42,6 Jun 2027 14:33:05.353,6 Jun 2027 14:40:46.533,461.180
43,7 Jun 2027 00:32:30.864,7 Jun 2027 00:44:21.236,710.372
44,7 Jun 2027 02:08:10.190,7 Jun 2027 02:20:49.310,759.120
45,7 Jun 2027 03:44:46.618,7 Jun 2027 03:53:52.982,546.364
46,7 Jun 2027 09:58:00.372,7 Jun 2027 10:05:32.794,452.422
47,7 Jun 2027 11:30:13.224,7 Jun 2027 11:42:26.294,733.070
48,7 Jun 2027 13:05:52.254,7 Jun 2027 13:18:20.302,748.047
49,7 Jun 2027 14:46:11.148,7 Jun 2027 14:52:11.489,360.341
50,7 Jun 2027 23:11:21.438,7 Jun 2027 23:15:16.079,234.642
51,8 Jun 2027 00:44:26.260,8 Jun 2027 00:56:39.620,733.360
52,8 Jun 2027 02:20:13.971,8 Jun 2027 02:32:40.411,746.440
53,8 Jun 2027 03:56:59.068,8 Jun 2027 04:05:16.897,497.829
54,8 Jun 2027 10:09:20.391,8 Jun 2027 10:17:47.239,506.848
55,8 Jun 2027 11:42:01.758,8 Jun 2027 11:54:30.710,748.951
56,8 Jun 2027 13:18:07.269,8 Jun 2027 13:30:17.007,729.738
57,8 Jun 2027 14:59:50.417,8 Jun 2027 15:03:06.200,195.783
58,8 Jun 2027 23:22:25.052,8 Jun 2027 23:28:45.863,380.811
59,9 Jun 2027 00:56:23.229,9 Jun 2027 01:08:53.938,750.709
60,9 Jun 2027 02:32:18.524,9 Jun 2027 02:44:28.396,729.872
61,9 Jun 2027 04:09:14.008,9 Jun 2027 04:16:36.018,442.009
62,9 Jun 2027 10:20:45.074,9 Jun 2027 10:29:59.336,554.262
63,9 Jun 2027 11:53:53.407,9 Jun 2027 12:06:34.349,760.942
64,9 Jun 2027 13:30:26.411,9 Jun 2027 13:42:12.087,705.676
65,9 Jun 2027 23:33:52.693,9 Jun 2027 23:41:48.436,475.743
66,10 Jun 2027 01:08:21.535,10 Jun 2027 01:21:04.472,762.937
67,10 Jun 2027 02:44:23.868,10 Jun 2027 02:56:13.253,709.385
68,10 Jun 2027 04:21:32.676,10 Jun 2027 04:27:49.137,376.461
69,10 Jun 2027 10:32:13.828,10 Jun 2027 10:42:09.682,595.855
70,10 Jun 2027 12:05:48.177,10 Jun 2027 12:18:37.202,769.025
71,10 Jun 2027 13:42:50.105,10 Jun 2027 13:54:05.189,675.084
72,10 Jun 2027 23:45:30.689,10 Jun 2027 23:54:37.592,546.903
73,11 Jun 2027 01:20:20.985,11 Jun 2027 01:33:11.445,770.460
74,11 Jun 2027 02:56:30.050,11 Jun 2027 03:07:54.938,684.888
75,11 Jun 2027 04:33:57.737,11 Jun 2027 04:38:53.626,295.888
76,11 Jun 2027 10:43:46.304,11 Jun 2027 10:54:18.646,632.342
77,11 Jun 2027 12:17:46.102,11 Jun 2027 12:30:39.238,773.136
78,11 Jun 2027 13:55:18.936,11 Jun 2027 14:05:55.784,636.848
79,11 Jun 2027 23:57:14.825,12 Jun 2027 00:07:17.698,602.873
80,12 Jun 2027 01:32:21.460,12 Jun 2027 01:45:15.017,773.557
81,12 Jun 2027 03:08:37.130,12 Jun 2027 03:19:33.367,656.237
82,12 Jun 2027 04:46:37.815,12 Jun 2027 04:49:40.929,183.114
83,12 Jun 2027 09:24:58.644,12 Jun 2027 09:28:37.097,218.453
84,12 Jun 2027 10:55:22.267,12 Jun 2027 11:06:26.477,664.210
85,12 Jun 2027 12:29:47.242,12 Jun 2027 12:42:40.402,773.160
86,12 Jun 2027 14:07:53.786,12 Jun 2027 14:17:43.096,589.311
87,13 Jun 2027 00:09:03.106,13 Jun 2027 00:19:50.849,647.743
88,13 Jun 2027 01:44:22.863,13 Jun 2027 01:57:15.306,772.443
89,13 Jun 2027 03:20:45.238,13 Jun 2027 03:31:08.436,623.198
90,13 Jun 2027 09:35:52.255,13 Jun 2027 09:41:11.430,319.175
91,13 Jun 2027 11:07:01.562,13 Jun 2027 11:18:33.318,691.756
92,13 Jun 2027 12:41:51.698,13 Jun 2027 12:54:40.613,768.914
93,13 Jun 2027 14:20:36.026,13 Jun 2027 14:29:25.847,529.821
