dataset/facility_timing/facility_Facility-Irkutsk/Irkutsk-To-KinoSat_111410.csv

Acces,Start Time (UTCG),Stop Time (UTCG),Duration (sec)
1,1 Jun 2027 00:55:57.251,1 Jun 2027 01:07:16.451,679.200
2,1 Jun 2027 02:33:28.432,1 Jun 2027 02:38:06.875,278.443
3,1 Jun 2027 07:13:32.795,1 Jun 2027 07:15:20.935,108.140
4,1 Jun 2027 08:43:05.431,1 Jun 2027 08:53:47.742,642.311
5,1 Jun 2027 10:17:12.184,1 Jun 2027 10:30:05.679,773.495
6,1 Jun 2027 11:54:53.787,1 Jun 2027 12:05:17.914,624.126
7,1 Jun 2027 21:56:38.791,1 Jun 2027 22:06:52.012,613.221
8,1 Jun 2027 23:31:47.849,1 Jun 2027 23:44:41.433,773.584
9,2 Jun 2027 01:08:04.229,2 Jun 2027 01:18:54.080,649.851
10,2 Jun 2027 02:46:13.256,2 Jun 2027 02:48:48.695,155.439
11,2 Jun 2027 07:24:02.553,2 Jun 2027 07:28:17.330,254.777
12,2 Jun 2027 08:54:42.279,2 Jun 2027 09:05:54.948,672.668
13,2 Jun 2027 10:29:14.014,2 Jun 2027 10:42:06.320,772.306
14,2 Jun 2027 12:07:30.156,2 Jun 2027 12:17:03.883,573.727
15,2 Jun 2027 22:08:27.577,2 Jun 2027 22:19:23.461,655.885
16,2 Jun 2027 23:43:49.169,2 Jun 2027 23:56:40.803,771.634
17,3 Jun 2027 01:20:12.228,3 Jun 2027 01:30:28.358,616.130
18,3 Jun 2027 07:35:01.871,3 Jun 2027 07:40:46.278,344.407
19,3 Jun 2027 09:06:22.384,3 Jun 2027 09:18:01.226,698.843
20,3 Jun 2027 10:41:19.147,3 Jun 2027 10:54:06.000,766.853
21,3 Jun 2027 12:20:14.399,3 Jun 2027 12:28:44.800,510.401
22,3 Jun 2027 22:20:19.212,3 Jun 2027 22:31:49.416,690.204
23,3 Jun 2027 23:55:51.326,4 Jun 2027 00:08:37.013,765.687
24,4 Jun 2027 01:32:21.443,4 Jun 2027 01:41:59.108,577.665
25,4 Jun 2027 07:46:11.864,4 Jun 2027 07:53:06.734,414.870
26,4 Jun 2027 09:18:05.658,4 Jun 2027 09:30:06.653,720.995
27,4 Jun 2027 10:53:27.735,4 Jun 2027 11:06:04.605,756.870
28,4 Jun 2027 12:33:09.520,4 Jun 2027 12:40:17.806,428.286
29,4 Jun 2027 22:32:13.065,4 Jun 2027 22:44:10.573,717.508
30,5 Jun 2027 00:07:54.274,5 Jun 2027 00:20:30.127,755.853
31,5 Jun 2027 01:44:32.145,5 Jun 2027 01:53:26.061,533.916
32,5 Jun 2027 07:57:28.586,5 Jun 2027 08:05:22.678,474.092
33,5 Jun 2027 09:29:52.038,5 Jun 2027 09:42:11.280,739.242
34,5 Jun 2027 11:05:39.963,5 Jun 2027 11:18:01.969,742.006
35,5 Jun 2027 12:46:22.913,5 Jun 2027 12:51:35.626,312.713
36,5 Jun 2027 21:10:45.269,5 Jun 2027 21:15:30.209,284.940
37,5 Jun 2027 22:44:08.702,5 Jun 2027 22:56:27.427,738.725
38,6 Jun 2027 00:19:57.995,6 Jun 2027 00:32:20.157,742.162
39,6 Jun 2027 01:56:44.781,6 Jun 2027 02:04:48.783,484.002
40,6 Jun 2027 08:08:50.460,6 Jun 2027 08:17:35.748,525.288
41,6 Jun 2027 09:41:41.504,6 Jun 2027 09:54:15.142,753.638
42,6 Jun 2027 11:17:56.073,6 Jun 2027 11:29:57.891,721.818
43,6 Jun 2027 13:00:46.831,6 Jun 2027 13:01:46.174,59.343
44,6 Jun 2027 21:21:58.470,6 Jun 2027 21:28:48.807,410.337
45,6 Jun 2027 22:56:05.820,6 Jun 2027 23:08:40.344,754.524
46,7 Jun 2027 00:32:02.479,7 Jun 2027 00:44:07.104,724.625
47,7 Jun 2027 02:09:00.097,7 Jun 2027 02:16:06.548,426.451
48,7 Jun 2027 08:20:16.671,7 Jun 2027 08:29:46.770,570.098
49,7 Jun 2027 09:53:34.053,7 Jun 2027 10:06:18.230,764.177
50,7 Jun 2027 11:30:16.414,7 Jun 2027 11:41:52.088,695.675
51,7 Jun 2027 21:33:29.486,7 Jun 2027 21:41:46.478,496.991
52,7 Jun 2027 23:08:04.208,7 Jun 2027 23:20:49.576,765.368
53,8 Jun 2027 00:44:07.747,8 Jun 2027 00:55:50.954,703.207
54,8 Jun 2027 02:21:19.520,8 Jun 2027 02:27:17.970,358.450
55,8 Jun 2027 08:31:46.742,8 Jun 2027 08:41:56.239,609.497
56,8 Jun 2027 10:05:29.695,8 Jun 2027 10:18:20.530,770.835
57,8 Jun 2027 11:42:41.449,8 Jun 2027 11:53:44.163,662.714
58,8 Jun 2027 21:45:09.241,8 Jun 2027 21:54:32.420,563.179
59,8 Jun 2027 23:20:03.700,8 Jun 2027 23:32:55.337,771.637
60,9 Jun 2027 00:56:13.859,9 Jun 2027 01:07:31.648,677.788
61,9 Jun 2027 02:33:46.321,9 Jun 2027 02:38:19.826,273.505
62,9 Jun 2027 07:13:41.844,9 Jun 2027 07:15:42.615,120.772
63,9 Jun 2027 08:43:20.388,9 Jun 2027 08:54:04.449,644.060
64,9 Jun 2027 10:17:28.477,9 Jun 2027 10:30:22.012,773.534
65,9 Jun 2027 11:55:11.831,9 Jun 2027 12:05:33.519,621.687
66,9 Jun 2027 21:56:54.425,9 Jun 2027 22:07:10.084,615.660
67,9 Jun 2027 23:32:04.173,9 Jun 2027 23:44:57.757,773.584
68,10 Jun 2027 01:08:20.875,10 Jun 2027 01:19:09.103,648.228
69,10 Jun 2027 02:46:33.058,10 Jun 2027 02:48:59.618,146.560
70,10 Jun 2027 07:24:15.133,10 Jun 2027 07:28:35.590,260.458
71,10 Jun 2027 08:54:57.414,10 Jun 2027 09:06:11.602,674.187
72,10 Jun 2027 10:29:30.475,10 Jun 2027 10:42:22.605,772.130
73,10 Jun 2027 12:07:48.574,10 Jun 2027 12:17:19.259,570.685
74,10 Jun 2027 22:08:43.375,10 Jun 2027 22:19:41.224,657.849
75,10 Jun 2027 23:44:05.543,10 Jun 2027 23:56:56.957,771.414
76,11 Jun 2027 01:20:28.934,11 Jun 2027 01:30:43.207,614.274
77,11 Jun 2027 07:35:15.239,11 Jun 2027 07:41:03.860,348.620
78,11 Jun 2027 09:06:37.689,11 Jun 2027 09:18:17.826,700.137
79,11 Jun 2027 10:41:35.791,11 Jun 2027 10:54:22.223,766.432
80,11 Jun 2027 12:20:33.305,11 Jun 2027 12:28:59.845,506.540
81,11 Jun 2027 22:20:35.134,11 Jun 2027 22:32:06.912,691.778
82,11 Jun 2027 23:56:07.735,12 Jun 2027 00:08:53.006,765.271
83,12 Jun 2027 01:32:38.212,12 Jun 2027 01:42:13.764,575.551
84,12 Jun 2027 07:46:25.662,12 Jun 2027 07:53:23.997,418.334
85,12 Jun 2027 09:18:21.130,12 Jun 2027 09:30:23.205,722.075
86,12 Jun 2027 10:53:44.565,12 Jun 2027 11:06:20.763,756.197
87,12 Jun 2027 12:33:29.143,12 Jun 2027 12:40:32.280,423.136
88,12 Jun 2027 22:32:29.086,12 Jun 2027 22:44:27.832,718.746
89,13 Jun 2027 00:08:10.719,13 Jun 2027 00:20:45.958,755.239
90,13 Jun 2027 01:44:48.994,13 Jun 2027 01:53:40.510,531.517
91,13 Jun 2027 07:57:42.699,13 Jun 2027 08:05:39.756,477.057
92,13 Jun 2027 09:30:07.673,13 Jun 2027 09:42:27.790,740.116
93,13 Jun 2027 11:05:56.989,13 Jun 2027 11:18:18.054,741.065
94,13 Jun 2027 12:46:43.968,13 Jun 2027 12:51:48.828,304.860
95,13 Jun 2027 21:10:58.356,13 Jun 2027 21:15:51.447,293.091
96,13 Jun 2027 22:44:24.804,13 Jun 2027 22:56:44.474,739.670
