dataset/facility_timing/facility_Facility-Irkutsk/Irkutsk-To-KinoSat_111609.csv

Acces,Start Time (UTCG),Stop Time (UTCG),Duration (sec)
1,1 Jun 2027 00:57:50.516,1 Jun 2027 01:10:25.105,754.589
2,1 Jun 2027 02:34:29.679,1 Jun 2027 02:43:18.215,528.536
3,1 Jun 2027 08:47:21.420,1 Jun 2027 08:55:19.046,477.626
4,1 Jun 2027 10:19:46.929,1 Jun 2027 10:32:07.368,740.439
5,1 Jun 2027 11:55:37.031,1 Jun 2027 12:07:57.770,740.739
6,1 Jun 2027 13:36:25.859,1 Jun 2027 13:41:27.794,301.934
7,1 Jun 2027 22:00:34.037,1 Jun 2027 22:05:35.902,301.864
8,1 Jun 2027 23:34:04.042,1 Jun 2027 23:46:24.769,740.726
9,2 Jun 2027 01:09:54.440,2 Jun 2027 01:22:14.883,740.443
10,2 Jun 2027 02:46:42.754,2 Jun 2027 02:54:40.409,477.655
11,2 Jun 2027 08:58:43.601,2 Jun 2027 09:07:32.126,528.525
12,2 Jun 2027 10:31:36.704,2 Jun 2027 10:44:11.290,754.586
13,2 Jun 2027 12:07:53.592,2 Jun 2027 12:19:53.675,720.082
14,2 Jun 2027 22:11:50.185,2 Jun 2027 22:18:51.504,421.318
15,2 Jun 2027 23:46:01.413,2 Jun 2027 23:58:37.404,755.992
16,3 Jun 2027 01:21:59.129,3 Jun 2027 01:34:01.562,722.432
17,3 Jun 2027 02:58:58.654,3 Jun 2027 03:05:57.487,418.833
18,3 Jun 2027 09:10:10.106,3 Jun 2027 09:19:43.186,573.080
19,3 Jun 2027 10:43:29.577,3 Jun 2027 10:56:14.433,764.856
20,3 Jun 2027 12:20:14.428,3 Jun 2027 12:31:47.826,693.399
21,3 Jun 2027 22:23:22.515,3 Jun 2027 22:31:47.805,505.290
22,3 Jun 2027 23:58:00.042,4 Jun 2027 00:10:46.372,766.331
23,4 Jun 2027 01:34:04.620,4 Jun 2027 01:45:45.124,700.504
24,4 Jun 2027 03:11:18.958,4 Jun 2027 03:17:07.915,348.957
25,4 Jun 2027 09:21:40.474,4 Jun 2027 09:31:52.704,612.231
26,4 Jun 2027 10:55:25.561,4 Jun 2027 11:08:16.788,771.227
27,4 Jun 2027 12:32:40.020,4 Jun 2027 12:43:39.803,659.783
28,4 Jun 2027 22:35:03.085,4 Jun 2027 22:44:32.887,569.802
29,5 Jun 2027 00:09:59.755,5 Jun 2027 00:22:51.861,772.106
30,5 Jun 2027 01:46:10.964,5 Jun 2027 01:57:25.506,674.541
31,5 Jun 2027 03:23:47.450,5 Jun 2027 03:28:07.969,260.519
32,5 Jun 2027 08:03:29.620,5 Jun 2027 08:05:43.603,133.983
33,5 Jun 2027 09:33:14.423,5 Jun 2027 09:44:00.970,646.547
34,5 Jun 2027 11:07:24.704,5 Jun 2027 11:20:18.315,773.611
35,5 Jun 2027 12:45:11.045,5 Jun 2027 12:55:28.998,617.953
36,5 Jun 2027 22:46:48.859,5 Jun 2027 22:57:09.912,621.052
37,6 Jun 2027 00:22:00.447,6 Jun 2027 00:34:54.021,773.575
38,6 Jun 2027 01:58:18.232,6 Jun 2027 02:09:02.623,644.390
39,6 Jun 2027 03:36:40.915,6 Jun 2027 03:38:40.917,120.002
40,6 Jun 2027 08:14:06.189,6 Jun 2027 08:18:33.584,267.395
41,6 Jun 2027 09:44:51.759,6 Jun 2027 09:56:08.180,676.421
42,6 Jun 2027 11:19:27.087,6 Jun 2027 11:32:18.938,771.851
43,6 Jun 2027 12:57:48.554,6 Jun 2027 13:07:14.473,565.919
44,6 Jun 2027 22:58:38.273,6 Jun 2027 23:09:40.544,662.272
45,7 Jun 2027 00:34:02.025,7 Jun 2027 00:46:52.957,770.933
46,7 Jun 2027 02:10:26.567,7 Jun 2027 02:20:36.344,609.776
47,7 Jun 2027 08:25:07.152,7 Jun 2027 08:31:01.314,354.162
48,7 Jun 2027 09:56:32.353,7 Jun 2027 10:08:14.466,702.113
49,7 Jun 2027 11:31:32.805,7 Jun 2027 11:44:18.582,765.777
50,7 Jun 2027 13:10:34.269,7 Jun 2027 13:18:54.600,500.331
51,7 Jun 2027 23:10:30.416,7 Jun 2027 23:22:05.793,695.378
52,8 Jun 2027 00:46:04.432,8 Jun 2027 00:58:48.728,764.296
53,8 Jun 2027 02:22:36.166,8 Jun 2027 02:32:06.470,570.304
54,8 Jun 2027 08:36:18.103,8 Jun 2027 08:43:21.249,423.147
55,8 Jun 2027 10:08:16.124,8 Jun 2027 10:20:19.904,723.780
56,8 Jun 2027 11:43:42.014,8 Jun 2027 11:56:17.128,755.114
57,8 Jun 2027 13:23:31.532,8 Jun 2027 13:30:26.164,414.632
58,8 Jun 2027 21:50:39.777,8 Jun 2027 21:51:31.397,51.620
59,8 Jun 2027 23:22:24.700,8 Jun 2027 23:34:26.327,721.627
60,9 Jun 2027 00:58:07.629,9 Jun 2027 01:10:41.395,753.767
61,9 Jun 2027 02:34:47.332,9 Jun 2027 02:43:32.714,525.381
62,9 Jun 2027 08:47:35.557,9 Jun 2027 08:55:36.934,481.377
63,9 Jun 2027 10:20:03.011,9 Jun 2027 10:32:24.541,741.529
64,9 Jun 2027 11:55:54.911,9 Jun 2027 12:08:14.401,739.490
65,9 Jun 2027 13:36:49.123,9 Jun 2027 13:41:40.523,291.401
66,9 Jun 2027 22:00:47.152,9 Jun 2027 22:05:58.813,311.661
67,9 Jun 2027 23:34:20.709,9 Jun 2027 23:46:42.614,741.905
68,10 Jun 2027 01:10:11.596,10 Jun 2027 01:22:30.966,739.370
69,10 Jun 2027 02:47:00.555,10 Jun 2027 02:54:54.599,474.044
70,10 Jun 2027 08:58:58.051,10 Jun 2027 09:07:49.848,531.797
71,10 Jun 2027 10:31:52.996,10 Jun 2027 10:44:28.410,755.414
72,10 Jun 2027 12:08:11.746,10 Jun 2027 12:20:10.195,718.449
73,10 Jun 2027 22:12:04.886,10 Jun 2027 22:19:12.609,427.723
74,10 Jun 2027 23:46:18.170,10 Jun 2027 23:58:54.996,756.826
75,11 Jun 2027 01:22:16.338,11 Jun 2027 01:34:17.436,721.098
76,11 Jun 2027 02:59:16.681,11 Jun 2027 03:06:11.299,414.618
77,11 Jun 2027 09:10:24.838,11 Jun 2027 09:20:00.784,575.946
78,11 Jun 2027 10:43:46.080,11 Jun 2027 10:56:31.501,765.421
79,11 Jun 2027 12:20:32.886,11 Jun 2027 12:32:04.212,691.325
80,11 Jun 2027 22:23:37.909,11 Jun 2027 22:32:08.003,510.094
81,11 Jun 2027 23:58:16.869,12 Jun 2027 00:11:03.720,766.851
82,12 Jun 2027 01:34:21.880,12 Jun 2027 01:46:00.787,698.907
83,12 Jun 2027 03:11:37.361,12 Jun 2027 03:17:21.200,343.839
84,12 Jun 2027 09:21:55.459,12 Jun 2027 09:32:10.203,614.744
85,12 Jun 2027 10:55:42.277,12 Jun 2027 11:08:33.794,771.517
86,12 Jun 2027 12:32:58.823,12 Jun 2027 12:43:56.016,657.192
87,12 Jun 2027 22:35:18.901,12 Jun 2027 22:44:52.471,573.570
88,13 Jun 2027 00:10:16.652,13 Jun 2027 00:23:08.985,772.334
89,13 Jun 2027 01:46:28.279,13 Jun 2027 01:57:40.953,672.673
90,13 Jun 2027 03:24:06.648,13 Jun 2027 03:28:20.304,253.656
91,13 Jun 2027 08:03:38.750,13 Jun 2027 08:06:05.904,147.154
92,13 Jun 2027 09:33:29.644,13 Jun 2027 09:44:18.387,648.742
93,13 Jun 2027 11:07:41.636,13 Jun 2027 11:20:35.258,773.622
94,13 Jun 2027 12:45:30.251,13 Jun 2027 12:55:44.988,614.737
95,13 Jun 2027 22:47:04.948,13 Jun 2027 22:57:29.025,624.078
