dataset/facility_timing/facility_Facility-Irkutsk/Irkutsk-To-KinoSat_110510.csv

Acces,Start Time (UTCG),Stop Time (UTCG),Duration (sec)
1,1 Jun 2027 03:00:43.594,1 Jun 2027 03:04:39.513,235.919
2,1 Jun 2027 04:31:14.438,1 Jun 2027 04:42:21.221,666.783
3,1 Jun 2027 06:05:40.373,1 Jun 2027 06:18:33.198,772.825
4,1 Jun 2027 07:43:48.036,1 Jun 2027 07:53:33.474,585.439
5,1 Jun 2027 17:44:58.436,1 Jun 2027 17:55:42.278,643.842
6,1 Jun 2027 19:20:15.775,1 Jun 2027 19:33:08.336,772.561
7,1 Jun 2027 20:56:35.917,1 Jun 2027 21:07:03.199,627.283
8,2 Jun 2027 03:11:40.426,2 Jun 2027 03:17:10.133,329.707
9,2 Jun 2027 04:42:53.722,2 Jun 2027 04:54:27.326,693.604
10,2 Jun 2027 06:17:44.466,2 Jun 2027 06:30:32.799,768.333
11,2 Jun 2027 07:56:29.858,2 Jun 2027 08:05:15.450,525.591
12,2 Jun 2027 17:56:49.022,2 Jun 2027 18:08:09.373,680.351
13,2 Jun 2027 19:32:17.372,2 Jun 2027 19:45:05.243,767.870
14,2 Jun 2027 21:08:44.333,2 Jun 2027 21:18:35.005,590.672
15,3 Jun 2027 03:22:48.995,3 Jun 2027 03:29:31.160,402.165
16,3 Jun 2027 04:54:36.143,3 Jun 2027 05:06:32.583,716.439
17,3 Jun 2027 06:29:51.940,3 Jun 2027 06:42:31.365,759.425
18,3 Jun 2027 08:09:21.602,3 Jun 2027 08:16:50.396,448.794
19,3 Jun 2027 18:08:41.971,3 Jun 2027 18:20:31.543,709.572
20,3 Jun 2027 19:44:19.765,3 Jun 2027 19:56:59.068,759.303
21,3 Jun 2027 21:20:54.101,3 Jun 2027 21:30:03.181,549.079
22,4 Jun 2027 03:34:04.622,4 Jun 2027 03:41:47.310,462.688
23,4 Jun 2027 05:06:21.643,4 Jun 2027 05:18:37.052,735.409
24,4 Jun 2027 06:42:02.959,4 Jun 2027 06:54:28.753,745.794
25,4 Jun 2027 08:22:29.004,4 Jun 2027 08:28:12.710,343.706
26,4 Jun 2027 16:47:36.585,4 Jun 2027 16:51:23.387,226.802
27,4 Jun 2027 18:20:36.812,4 Jun 2027 18:32:49.315,732.503
28,4 Jun 2027 19:56:22.922,4 Jun 2027 20:08:49.852,746.929
29,4 Jun 2027 21:33:05.586,4 Jun 2027 21:41:27.363,501.777
30,5 Jun 2027 03:45:25.522,5 Jun 2027 03:54:00.424,514.902
31,5 Jun 2027 05:18:10.188,5 Jun 2027 05:30:40.765,750.576
32,5 Jun 2027 06:54:17.758,5 Jun 2027 07:06:24.759,727.001
33,5 Jun 2027 08:36:16.213,5 Jun 2027 08:38:58.391,162.178
34,5 Jun 2027 16:58:38.247,5 Jun 2027 17:04:53.754,375.507
35,5 Jun 2027 18:32:33.205,5 Jun 2027 18:45:03.090,749.886
36,5 Jun 2027 20:08:26.832,5 Jun 2027 20:20:37.590,730.758
37,5 Jun 2027 21:45:19.387,5 Jun 2027 21:52:46.971,447.584
38,6 Jun 2027 03:56:50.802,6 Jun 2027 04:06:11.408,560.606
39,6 Jun 2027 05:30:01.772,6 Jun 2027 05:42:43.715,761.942
40,6 Jun 2027 07:06:36.654,6 Jun 2027 07:18:19.135,702.481
41,6 Jun 2027 17:10:04.851,6 Jun 2027 17:17:56.057,471.206
42,6 Jun 2027 18:44:30.918,6 Jun 2027 18:57:13.153,762.235
43,6 Jun 2027 20:20:31.502,6 Jun 2027 20:32:22.278,710.776
44,6 Jun 2027 21:57:36.595,6 Jun 2027 22:04:00.970,384.375
45,7 Jun 2027 04:08:19.962,7 Jun 2027 04:18:20.793,600.830
46,7 Jun 2027 05:41:56.413,7 Jun 2027 05:54:45.901,769.487
47,7 Jun 2027 07:19:00.066,7 Jun 2027 07:30:11.513,671.447
48,7 Jun 2027 17:21:42.003,7 Jun 2027 17:30:44.814,542.810
49,7 Jun 2027 18:56:29.771,7 Jun 2027 19:09:19.711,769.940
50,7 Jun 2027 20:32:36.981,7 Jun 2027 20:44:03.880,686.899
51,7 Jun 2027 22:09:59.464,7 Jun 2027 22:15:07.119,307.655
52,8 Jun 2027 02:50:42.068,8 Jun 2027 02:51:44.458,62.390
53,8 Jun 2027 04:19:52.697,8 Jun 2027 04:30:28.888,636.192
54,8 Jun 2027 05:53:54.141,8 Jun 2027 06:06:47.285,773.144
55,8 Jun 2027 07:31:28.586,8 Jun 2027 07:42:01.365,632.779
56,8 Jun 2027 17:33:25.370,8 Jun 2027 17:43:24.502,599.131
57,8 Jun 2027 19:08:29.632,8 Jun 2027 19:21:22.937,773.304
58,8 Jun 2027 20:44:43.318,8 Jun 2027 20:55:42.321,659.002
59,8 Jun 2027 22:22:34.629,8 Jun 2027 22:25:58.859,204.230
60,9 Jun 2027 03:00:57.330,9 Jun 2027 03:04:54.610,237.280
61,9 Jun 2027 04:31:28.787,9 Jun 2027 04:42:35.920,667.133
62,9 Jun 2027 06:05:55.020,9 Jun 2027 06:18:47.816,772.796
63,9 Jun 2027 07:44:03.110,9 Jun 2027 07:53:47.903,584.793
64,9 Jun 2027 17:45:12.927,9 Jun 2027 17:55:57.252,644.325
65,9 Jun 2027 19:20:30.407,9 Jun 2027 19:33:22.935,772.528
66,9 Jun 2027 20:56:50.626,9 Jun 2027 21:07:17.501,626.876
67,10 Jun 2027 03:11:54.365,10 Jun 2027 03:17:25.053,330.688
68,10 Jun 2027 04:43:08.109,10 Jun 2027 04:54:42.013,693.905
69,10 Jun 2027 06:17:59.153,10 Jun 2027 06:30:47.405,768.251
70,10 Jun 2027 07:56:45.034,10 Jun 2027 08:05:29.810,524.776
71,10 Jun 2027 17:57:03.545,10 Jun 2027 18:08:24.284,680.739
72,10 Jun 2027 19:32:32.013,10 Jun 2027 19:45:19.804,767.791
73,10 Jun 2027 21:08:59.055,10 Jun 2027 21:18:49.265,590.210
74,11 Jun 2027 03:23:03.036,11 Jun 2027 03:29:46.002,402.966
75,11 Jun 2027 04:54:50.567,11 Jun 2027 05:06:47.260,716.693
76,11 Jun 2027 06:30:06.668,11 Jun 2027 06:42:45.957,759.288
77,11 Jun 2027 08:09:36.922,11 Jun 2027 08:17:04.645,447.723
78,11 Jun 2027 18:08:56.518,11 Jun 2027 18:20:46.397,709.879
79,11 Jun 2027 19:44:34.415,11 Jun 2027 19:57:13.593,759.178
80,11 Jun 2027 21:21:08.840,11 Jun 2027 21:30:17.396,548.557
81,12 Jun 2027 03:34:18.734,12 Jun 2027 03:42:02.107,463.373
82,12 Jun 2027 05:06:36.103,12 Jun 2027 05:18:51.719,735.616
83,12 Jun 2027 06:42:17.731,12 Jun 2027 06:54:43.328,745.597
84,12 Jun 2027 08:22:44.583,12 Jun 2027 08:28:26.735,342.152
85,12 Jun 2027 16:47:50.191,12 Jun 2027 16:51:39.422,229.231
86,12 Jun 2027 18:20:51.380,12 Jun 2027 18:33:04.119,732.739
87,12 Jun 2027 19:56:37.580,12 Jun 2027 20:09:04.340,746.760
88,12 Jun 2027 21:33:20.345,12 Jun 2027 21:41:41.529,501.184
89,13 Jun 2027 03:45:39.691,13 Jun 2027 03:54:15.192,515.500
90,13 Jun 2027 05:18:24.685,13 Jun 2027 05:30:55.422,750.738
91,13 Jun 2027 06:54:32.577,13 Jun 2027 07:06:39.315,726.738
92,13 Jun 2027 08:36:32.863,13 Jun 2027 08:39:11.382,158.519
93,13 Jun 2027 16:58:52.380,13 Jun 2027 17:05:09.222,376.841
94,13 Jun 2027 18:32:47.789,13 Jun 2027 18:45:17.848,750.059
95,13 Jun 2027 20:08:41.497,13 Jun 2027 20:20:52.042,730.545
96,13 Jun 2027 21:45:34.176,13 Jun 2027 21:53:01.080,446.905
