dataset/facility_timing/facility_Facility-Irkutsk/Irkutsk-To-KinoSat_111909.csv

Acces,Start Time (UTCG),Stop Time (UTCG),Duration (sec)
1,1 Jun 2027 00:46:33.880,1 Jun 2027 00:58:49.645,735.765
2,1 Jun 2027 02:22:22.566,1 Jun 2027 02:34:47.197,744.630
3,1 Jun 2027 03:59:08.844,1 Jun 2027 04:07:20.275,491.431
4,1 Jun 2027 10:11:23.993,1 Jun 2027 10:19:56.856,512.863
5,1 Jun 2027 11:44:08.667,1 Jun 2027 11:56:39.263,750.596
6,1 Jun 2027 13:20:17.430,1 Jun 2027 13:32:24.600,727.170
7,1 Jun 2027 15:02:16.755,1 Jun 2027 15:05:00.369,163.614
8,1 Jun 2027 23:24:28.339,1 Jun 2027 23:31:02.535,394.196
9,2 Jun 2027 00:58:31.025,2 Jun 2027 01:11:03.493,752.467
10,2 Jun 2027 02:34:27.218,2 Jun 2027 02:46:34.803,727.584
11,2 Jun 2027 04:11:24.161,2 Jun 2027 04:18:38.738,434.577
12,2 Jun 2027 10:22:49.191,2 Jun 2027 10:32:08.719,559.528
13,2 Jun 2027 11:56:00.692,2 Jun 2027 12:08:42.812,762.120
14,2 Jun 2027 13:32:37.096,2 Jun 2027 13:44:19.467,702.371
15,2 Jun 2027 23:35:57.635,2 Jun 2027 23:44:03.079,485.444
16,3 Jun 2027 01:10:29.482,3 Jun 2027 01:23:13.584,764.101
17,3 Jun 2027 02:46:32.666,3 Jun 2027 02:58:19.278,706.612
18,3 Jun 2027 04:23:43.428,3 Jun 2027 04:29:50.989,367.561
19,3 Jun 2027 10:34:18.406,3 Jun 2027 10:44:18.888,600.482
20,3 Jun 2027 12:07:55.839,3 Jun 2027 12:20:45.571,769.732
21,3 Jun 2027 13:45:01.375,3 Jun 2027 13:56:12.298,670.923
22,3 Jun 2027 23:47:36.540,3 Jun 2027 23:56:50.970,554.430
23,4 Jun 2027 01:22:29.066,4 Jun 2027 01:35:20.141,771.075
24,4 Jun 2027 02:58:38.954,4 Jun 2027 03:10:00.573,681.619
25,4 Jun 2027 04:36:09.632,4 Jun 2027 04:40:54.070,284.437
26,4 Jun 2027 09:16:59.150,4 Jun 2027 09:17:22.669,23.519
27,4 Jun 2027 10:45:51.311,4 Jun 2027 10:56:27.710,636.398
28,4 Jun 2027 12:19:54.149,4 Jun 2027 12:32:47.510,773.361
29,4 Jun 2027 13:57:30.877,4 Jun 2027 14:08:02.551,631.674
30,4 Jun 2027 23:59:21.267,5 Jun 2027 00:09:30.144,608.876
31,5 Jun 2027 01:34:29.661,5 Jun 2027 01:47:23.306,773.645
32,5 Jun 2027 03:10:46.158,5 Jun 2027 03:21:38.600,652.442
33,5 Jun 2027 04:48:53.336,5 Jun 2027 04:51:37.491,164.154
34,5 Jun 2027 09:26:57.593,5 Jun 2027 09:30:50.312,232.719
35,5 Jun 2027 10:57:27.682,5 Jun 2027 11:08:35.418,667.736
36,5 Jun 2027 12:31:55.684,5 Jun 2027 12:44:48.566,772.882
37,5 Jun 2027 14:10:06.531,5 Jun 2027 14:19:49.402,582.871
38,6 Jun 2027 00:11:09.974,6 Jun 2027 00:22:02.540,652.566
39,6 Jun 2027 01:46:31.173,6 Jun 2027 01:59:23.203,772.029
40,6 Jun 2027 03:22:54.400,6 Jun 2027 03:33:13.250,618.850
41,6 Jun 2027 09:37:53.474,6 Jun 2027 09:43:22.638,329.164
42,6 Jun 2027 11:09:07.371,6 Jun 2027 11:20:42.152,694.781
43,6 Jun 2027 12:44:00.548,6 Jun 2027 12:56:48.659,768.111
44,6 Jun 2027 14:22:49.796,6 Jun 2027 14:31:31.481,521.685
45,7 Jun 2027 00:23:01.611,7 Jun 2027 00:34:29.315,687.703
46,7 Jun 2027 01:58:33.525,7 Jun 2027 02:11:19.910,766.385
47,7 Jun 2027 03:35:03.860,7 Jun 2027 03:44:44.328,580.468
48,7 Jun 2027 09:49:01.750,7 Jun 2027 09:55:44.772,403.022
49,7 Jun 2027 11:20:50.278,7 Jun 2027 11:32:48.006,717.728
50,7 Jun 2027 12:56:08.871,7 Jun 2027 13:08:47.692,758.821
51,7 Jun 2027 14:35:43.378,7 Jun 2027 14:43:06.204,442.826
52,8 Jun 2027 00:34:55.529,8 Jun 2027 00:46:51.197,715.668
53,8 Jun 2027 02:10:36.686,8 Jun 2027 02:23:13.478,756.793
54,8 Jun 2027 03:47:14.816,8 Jun 2027 03:56:11.577,536.761
55,8 Jun 2027 10:00:17.362,8 Jun 2027 10:08:01.818,464.456
56,8 Jun 2027 11:32:36.341,8 Jun 2027 11:44:53.047,736.706
57,8 Jun 2027 13:08:20.835,8 Jun 2027 13:20:45.500,744.666
58,8 Jun 2027 14:48:53.582,8 Jun 2027 14:54:27.413,333.831
59,8 Jun 2027 23:13:31.635,8 Jun 2027 23:18:04.668,273.033
60,9 Jun 2027 00:46:51.281,9 Jun 2027 00:59:08.702,737.422
61,9 Jun 2027 02:22:40.625,9 Jun 2027 02:35:03.930,743.305
62,9 Jun 2027 03:59:27.716,9 Jun 2027 04:07:34.563,486.847
63,9 Jun 2027 10:11:38.421,9 Jun 2027 10:20:15.708,517.287
64,9 Jun 2027 11:44:25.525,9 Jun 2027 11:56:57.307,751.782
65,9 Jun 2027 13:20:36.677,9 Jun 2027 13:32:41.891,725.214
66,9 Jun 2027 15:02:50.529,9 Jun 2027 15:05:05.132,134.603
67,9 Jun 2027 23:24:42.831,9 Jun 2027 23:31:26.188,403.357
68,10 Jun 2027 00:58:48.541,10 Jun 2027 01:11:22.212,753.671
69,10 Jun 2027 02:34:45.341,10 Jun 2027 02:46:51.263,725.922
70,10 Jun 2027 04:11:43.305,10 Jun 2027 04:18:52.554,429.249
71,10 Jun 2027 10:23:03.995,10 Jun 2027 10:32:27.398,563.403
72,10 Jun 2027 11:56:17.826,10 Jun 2027 12:09:00.781,762.955
73,10 Jun 2027 13:32:56.735,10 Jun 2027 13:44:36.591,699.856
74,10 Jun 2027 23:36:13.209,10 Jun 2027 23:44:25.369,492.159
75,11 Jun 2027 01:10:47.096,11 Jun 2027 01:23:31.985,764.889
76,11 Jun 2027 02:46:50.852,11 Jun 2027 02:58:35.465,704.613
77,11 Jun 2027 04:24:03.004,11 Jun 2027 04:30:04.167,361.162
78,11 Jun 2027 10:34:33.550,11 Jun 2027 10:44:37.430,603.881
79,11 Jun 2027 12:08:13.249,11 Jun 2027 12:21:03.464,770.215
80,11 Jun 2027 13:45:21.447,11 Jun 2027 13:56:29.214,667.767
81,11 Jun 2027 23:47:52.727,11 Jun 2027 23:57:12.389,559.662
82,12 Jun 2027 01:22:46.773,12 Jun 2027 01:35:38.238,771.466
83,12 Jun 2027 02:58:57.218,12 Jun 2027 03:10:16.476,679.258
84,12 Jun 2027 04:36:30.070,12 Jun 2027 04:41:06.196,276.126
85,12 Jun 2027 09:16:50.573,12 Jun 2027 09:18:03.567,72.994
86,12 Jun 2027 10:46:06.770,12 Jun 2027 10:56:46.141,639.371
87,12 Jun 2027 12:20:11.840,12 Jun 2027 12:33:05.325,773.484
88,12 Jun 2027 13:57:51.448,12 Jun 2027 14:08:19.204,627.756
89,12 Jun 2027 23:59:37.854,13 Jun 2027 00:09:50.911,613.057
90,13 Jun 2027 01:34:47.448,13 Jun 2027 01:47:41.114,773.666
91,13 Jun 2027 03:11:04.499,13 Jun 2027 03:21:54.214,649.715
92,13 Jun 2027 04:49:16.853,13 Jun 2027 04:51:46.347,149.494
93,13 Jun 2027 09:27:08.749,13 Jun 2027 09:31:11.661,242.912
94,13 Jun 2027 10:57:43.440,13 Jun 2027 11:08:53.753,670.313
95,13 Jun 2027 12:32:13.663,13 Jun 2027 12:45:06.296,772.633
96,13 Jun 2027 14:10:27.704,13 Jun 2027 14:20:05.695,577.991
