dataset/facility_timing/facility_Facility-Irkutsk/Irkutsk-To-KinoSat_110402.csv

Acces,Start Time (UTCG),Stop Time (UTCG),Duration (sec)
1,1 Jun 2027 02:44:14.448,1 Jun 2027 02:50:46.269,391.821
2,1 Jun 2027 04:15:56.668,1 Jun 2027 04:27:49.825,713.157
3,1 Jun 2027 05:51:08.569,1 Jun 2027 06:03:49.675,761.106
4,1 Jun 2027 07:30:30.801,1 Jun 2027 07:38:12.926,462.125
5,1 Jun 2027 17:30:00.922,1 Jun 2027 17:41:46.441,705.519
6,1 Jun 2027 19:05:37.360,1 Jun 2027 19:18:18.227,760.867
7,1 Jun 2027 20:42:10.530,1 Jun 2027 20:51:26.329,555.799
8,2 Jun 2027 02:55:29.128,2 Jun 2027 03:03:03.026,453.898
9,2 Jun 2027 04:27:41.696,2 Jun 2027 04:39:54.417,732.722
10,2 Jun 2027 06:03:19.026,2 Jun 2027 06:15:47.261,748.235
11,2 Jun 2027 07:43:35.111,2 Jun 2027 07:49:37.861,362.750
12,2 Jun 2027 16:09:09.272,2 Jun 2027 16:12:21.486,192.214
13,2 Jun 2027 17:41:55.501,2 Jun 2027 17:54:04.864,729.363
14,2 Jun 2027 19:17:40.406,2 Jun 2027 19:30:09.480,749.074
15,2 Jun 2027 20:54:21.726,2 Jun 2027 21:02:51.147,509.421
16,3 Jun 2027 03:06:49.283,3 Jun 2027 03:15:16.543,507.260
17,3 Jun 2027 04:39:29.774,3 Jun 2027 04:51:58.248,748.474
18,3 Jun 2027 06:15:33.234,3 Jun 2027 06:27:43.500,730.265
19,3 Jun 2027 07:57:11.345,3 Jun 2027 08:00:34.028,202.683
20,3 Jun 2027 16:20:02.876,3 Jun 2027 16:26:00.414,357.538
21,3 Jun 2027 17:53:51.676,3 Jun 2027 18:06:19.237,747.561
22,3 Jun 2027 19:29:44.205,3 Jun 2027 19:41:57.688,733.482
23,3 Jun 2027 21:06:35.129,3 Jun 2027 21:14:11.509,456.381
24,4 Jun 2027 03:18:13.923,4 Jun 2027 03:27:27.822,553.899
25,4 Jun 2027 04:51:20.891,4 Jun 2027 05:04:01.323,760.433
26,4 Jun 2027 06:27:51.472,4 Jun 2027 06:39:38.154,706.681
27,4 Jun 2027 16:31:27.117,4 Jun 2027 16:39:05.560,458.443
28,4 Jun 2027 18:05:49.204,4 Jun 2027 18:18:29.859,760.655
29,4 Jun 2027 19:41:48.762,4 Jun 2027 19:53:42.848,714.086
30,4 Jun 2027 21:18:51.723,4 Jun 2027 21:25:26.465,394.742
31,5 Jun 2027 03:29:42.508,5 Jun 2027 03:39:37.436,594.929
32,5 Jun 2027 05:03:15.062,5 Jun 2027 05:16:03.635,768.573
33,5 Jun 2027 06:40:14.159,5 Jun 2027 06:51:30.876,676.716
34,5 Jun 2027 16:43:03.033,5 Jun 2027 16:51:56.015,532.982
35,5 Jun 2027 18:17:47.896,5 Jun 2027 18:30:36.945,769.049
36,5 Jun 2027 19:53:54.120,5 Jun 2027 20:05:24.929,690.809
37,5 Jun 2027 21:31:13.499,5 Jun 2027 21:36:34.045,320.546
38,6 Jun 2027 03:41:14.703,6 Jun 2027 03:51:45.720,631.017
39,6 Jun 2027 05:15:12.312,6 Jun 2027 05:28:05.152,772.840
40,6 Jun 2027 06:52:41.847,6 Jun 2027 07:03:21.166,639.319
41,6 Jun 2027 16:54:45.620,6 Jun 2027 17:04:36.928,591.308
42,6 Jun 2027 18:29:47.615,6 Jun 2027 18:42:40.679,773.064
43,6 Jun 2027 20:06:00.326,6 Jun 2027 20:17:03.860,663.534
44,6 Jun 2027 21:43:45.885,6 Jun 2027 21:47:28.888,223.003
45,7 Jun 2027 02:22:26.931,7 Jun 2027 02:26:06.241,219.309
46,7 Jun 2027 03:52:50.289,7 Jun 2027 04:03:52.912,662.623
47,7 Jun 2027 05:27:12.703,7 Jun 2027 05:40:05.823,773.121
48,7 Jun 2027 07:05:15.375,7 Jun 2027 07:15:08.287,592.911
49,7 Jun 2027 17:06:32.627,7 Jun 2027 17:17:10.650,638.023
50,7 Jun 2027 18:41:48.259,7 Jun 2027 18:54:41.168,772.909
51,7 Jun 2027 20:18:07.483,7 Jun 2027 20:28:39.548,632.064
52,8 Jun 2027 02:33:21.181,8 Jun 2027 02:38:39.147,317.966
53,8 Jun 2027 04:04:29.121,8 Jun 2027 04:15:59.148,690.027
54,8 Jun 2027 05:39:16.330,8 Jun 2027 05:52:05.567,769.237
55,8 Jun 2027 07:17:56.036,8 Jun 2027 07:26:51.032,534.996
56,8 Jun 2027 17:18:22.834,8 Jun 2027 17:29:38.509,675.675
57,8 Jun 2027 18:53:49.747,8 Jun 2027 19:06:38.515,768.769
58,8 Jun 2027 20:30:15.737,8 Jun 2027 20:40:11.850,596.113
59,9 Jun 2027 02:44:28.481,9 Jun 2027 02:51:01.141,392.660
60,9 Jun 2027 04:16:11.102,9 Jun 2027 04:28:04.525,713.423
61,9 Jun 2027 05:51:23.317,9 Jun 2027 06:04:04.293,760.976
62,9 Jun 2027 07:30:46.139,9 Jun 2027 07:38:27.213,461.073
63,9 Jun 2027 17:30:15.486,9 Jun 2027 17:42:01.339,705.853
64,9 Jun 2027 19:05:52.033,9 Jun 2027 19:18:32.779,760.746
65,9 Jun 2027 20:42:25.302,9 Jun 2027 20:51:40.551,555.249
66,10 Jun 2027 02:55:43.240,10 Jun 2027 03:03:17.849,454.610
67,10 Jun 2027 04:27:56.168,10 Jun 2027 04:40:09.109,732.941
68,10 Jun 2027 06:03:33.820,10 Jun 2027 06:16:01.863,748.043
69,10 Jun 2027 07:43:50.687,10 Jun 2027 07:49:51.951,361.264
70,10 Jun 2027 16:09:22.581,10 Jun 2027 16:12:37.883,195.302
71,10 Jun 2027 17:42:10.082,10 Jun 2027 17:54:19.708,729.626
72,10 Jun 2027 19:17:55.089,10 Jun 2027 19:30:23.990,748.901
73,10 Jun 2027 20:54:36.520,10 Jun 2027 21:03:05.317,508.797
74,11 Jun 2027 03:07:03.454,11 Jun 2027 03:15:31.334,507.880
75,11 Jun 2027 04:39:44.283,11 Jun 2027 04:52:12.932,748.649
76,11 Jun 2027 06:15:48.072,11 Jun 2027 06:27:58.083,730.011
77,11 Jun 2027 07:57:27.670,11 Jun 2027 08:00:47.409,199.738
78,11 Jun 2027 16:20:16.951,11 Jun 2027 16:26:16.005,359.054
79,11 Jun 2027 17:54:06.276,11 Jun 2027 18:06:34.032,747.756
80,11 Jun 2027 19:29:58.897,11 Jun 2027 19:42:12.160,733.263
81,11 Jun 2027 21:06:49.954,11 Jun 2027 21:14:25.619,455.665
82,12 Jun 2027 03:18:28.146,12 Jun 2027 03:27:42.591,554.445
83,12 Jun 2027 04:51:35.438,12 Jun 2027 05:04:15.996,760.558
84,12 Jun 2027 06:28:06.367,12 Jun 2027 06:39:52.714,706.348
85,12 Jun 2027 16:31:41.398,12 Jun 2027 16:39:20.906,459.508
86,12 Jun 2027 18:06:03.820,12 Jun 2027 18:18:44.608,760.789
87,12 Jun 2027 19:42:03.463,12 Jun 2027 19:53:57.281,713.819
88,12 Jun 2027 21:19:06.596,12 Jun 2027 21:25:40.499,393.903
89,13 Jun 2027 03:29:56.776,13 Jun 2027 03:39:52.187,595.411
90,13 Jun 2027 05:03:29.647,13 Jun 2027 05:16:18.298,768.651
91,13 Jun 2027 06:40:29.113,13 Jun 2027 06:51:45.409,676.295
92,13 Jun 2027 16:43:17.421,13 Jun 2027 16:52:11.218,533.797
93,13 Jun 2027 18:18:02.526,13 Jun 2027 18:30:51.651,769.125
94,13 Jun 2027 19:54:08.831,13 Jun 2027 20:05:39.324,690.493
95,13 Jun 2027 21:31:28.456,13 Jun 2027 21:36:47.968,319.513
