dataset/facility_timing/facility_Facility-Irkutsk/Irkutsk-To-KinoSat_110204.csv

Acces,Start Time (UTCG),Stop Time (UTCG),Duration (sec)
1,1 Jun 2027 01:00:51.575,1 Jun 2027 01:03:59.309,187.735
2,1 Jun 2027 02:31:00.674,1 Jun 2027 02:41:56.088,655.414
3,1 Jun 2027 04:05:17.205,1 Jun 2027 04:18:10.634,773.429
4,1 Jun 2027 05:43:11.726,1 Jun 2027 05:53:16.679,604.953
5,1 Jun 2027 15:44:40.095,1 Jun 2027 15:55:08.277,628.182
6,1 Jun 2027 17:19:52.914,1 Jun 2027 17:32:46.225,773.311
7,1 Jun 2027 18:56:10.720,1 Jun 2027 19:06:50.351,639.630
8,1 Jun 2027 20:34:41.444,1 Jun 2027 20:36:16.661,95.217
9,2 Jun 2027 01:11:40.301,2 Jun 2027 01:16:37.278,296.977
10,2 Jun 2027 02:42:38.749,2 Jun 2027 02:54:02.578,683.828
11,2 Jun 2027 04:17:20.084,2 Jun 2027 04:30:10.643,770.559
12,2 Jun 2027 05:55:50.578,2 Jun 2027 06:05:00.651,550.073
13,2 Jun 2027 15:56:29.671,2 Jun 2027 16:07:37.442,667.771
14,2 Jun 2027 17:31:54.246,2 Jun 2027 17:44:44.320,770.074
15,2 Jun 2027 19:08:18.750,2 Jun 2027 19:18:23.451,604.701
16,3 Jun 2027 01:22:45.202,3 Jun 2027 01:29:01.198,375.996
17,3 Jun 2027 02:54:20.003,3 Jun 2027 03:06:08.198,708.195
18,3 Jun 2027 04:29:26.286,3 Jun 2027 04:42:09.656,763.370
19,3 Jun 2027 06:08:38.188,3 Jun 2027 06:16:38.711,480.523
20,3 Jun 2027 16:08:21.840,3 Jun 2027 16:20:01.413,699.573
21,3 Jun 2027 17:43:56.389,3 Jun 2027 17:56:39.307,762.918
22,3 Jun 2027 19:20:28.042,3 Jun 2027 19:29:52.994,564.952
23,4 Jun 2027 01:33:58.397,4 Jun 2027 01:41:18.989,440.591
24,4 Jun 2027 03:06:04.358,4 Jun 2027 03:18:13.005,728.647
25,4 Jun 2027 04:41:35.976,4 Jun 2027 04:54:07.550,751.574
26,4 Jun 2027 06:21:38.602,4 Jun 2027 06:28:06.948,388.346
27,4 Jun 2027 14:47:57.276,4 Jun 2027 14:50:04.951,127.675
28,4 Jun 2027 16:20:16.058,4 Jun 2027 16:32:20.804,724.746
29,4 Jun 2027 17:55:59.309,4 Jun 2027 18:08:31.241,751.932
30,4 Jun 2027 19:32:38.902,4 Jun 2027 19:41:18.694,519.792
31,5 Jun 2027 01:45:17.410,5 Jun 2027 01:53:33.182,495.772
32,5 Jun 2027 03:17:51.775,5 Jun 2027 03:30:17.042,745.268
33,5 Jun 2027 04:53:49.356,5 Jun 2027 05:06:04.143,734.787
34,5 Jun 2027 06:35:03.968,5 Jun 2027 06:39:13.349,249.381
35,5 Jun 2027 14:58:32.641,5 Jun 2027 15:04:02.913,330.272
36,5 Jun 2027 16:32:11.951,5 Jun 2027 16:44:36.065,744.114
37,5 Jun 2027 18:08:02.978,5 Jun 2027 18:20:20.127,737.149
38,5 Jun 2027 19:44:51.830,5 Jun 2027 19:52:40.062,468.232
39,6 Jun 2027 01:56:41.096,6 Jun 2027 02:05:44.959,543.863
40,6 Jun 2027 03:29:42.233,6 Jun 2027 03:42:20.323,758.090
41,6 Jun 2027 05:06:06.704,6 Jun 2027 05:17:59.208,712.504
42,6 Jun 2027 15:09:53.023,6 Jun 2027 15:17:12.667,439.644
43,6 Jun 2027 16:44:09.233,6 Jun 2027 16:56:47.507,758.273
44,6 Jun 2027 18:20:07.411,6 Jun 2027 18:32:05.959,718.548
45,6 Jun 2027 19:57:07.688,6 Jun 2027 20:03:56.258,408.570
46,7 Jun 2027 02:08:08.835,7 Jun 2027 02:17:54.956,586.120
47,7 Jun 2027 03:41:35.746,7 Jun 2027 03:54:22.842,767.096
48,7 Jun 2027 05:18:28.398,7 Jun 2027 05:29:52.430,684.032
49,7 Jun 2027 15:21:27.052,7 Jun 2027 15:30:05.726,518.674
50,7 Jun 2027 16:56:07.722,7 Jun 2027 17:08:55.369,767.647
51,7 Jun 2027 18:32:12.632,7 Jun 2027 18:43:48.720,696.088
52,7 Jun 2027 20:09:28.186,7 Jun 2027 20:15:05.621,337.435
53,8 Jun 2027 02:19:40.246,8 Jun 2027 02:30:03.556,623.310
54,8 Jun 2027 03:53:32.333,8 Jun 2027 04:06:24.570,772.237
55,8 Jun 2027 05:30:54.958,8 Jun 2027 05:41:43.346,648.388
56,8 Jun 2027 15:33:08.483,8 Jun 2027 15:42:48.482,579.999
57,8 Jun 2027 17:08:07.264,8 Jun 2027 17:20:59.842,772.578
58,8 Jun 2027 18:44:18.694,8 Jun 2027 18:55:28.341,669.647
59,8 Jun 2027 20:21:57.565,8 Jun 2027 20:26:03.956,246.391
60,9 Jun 2027 01:01:04.979,9 Jun 2027 01:04:14.964,189.985
61,9 Jun 2027 02:31:15.100,9 Jun 2027 02:42:11.022,655.922
62,9 Jun 2027 04:05:32.048,9 Jun 2027 04:18:25.472,773.423
63,9 Jun 2027 05:43:27.147,9 Jun 2027 05:53:31.285,604.138
64,9 Jun 2027 15:44:54.699,9 Jun 2027 15:55:23.654,628.955
65,9 Jun 2027 17:20:07.753,9 Jun 2027 17:33:01.043,773.290
66,9 Jun 2027 18:56:25.684,9 Jun 2027 19:07:04.738,639.055
67,9 Jun 2027 20:34:58.494,9 Jun 2027 20:36:28.665,90.170
68,10 Jun 2027 01:11:54.123,10 Jun 2027 01:16:52.551,298.428
69,10 Jun 2027 02:42:53.234,10 Jun 2027 02:54:17.500,684.266
70,10 Jun 2027 04:17:34.983,10 Jun 2027 04:30:25.462,770.479
71,10 Jun 2027 05:56:06.124,10 Jun 2027 06:05:15.175,549.052
72,10 Jun 2027 15:56:44.332,10 Jun 2027 16:07:52.722,668.390
73,10 Jun 2027 17:32:09.101,10 Jun 2027 17:44:59.085,769.983
74,10 Jun 2027 19:08:33.733,10 Jun 2027 19:18:37.778,604.045
75,11 Jun 2027 01:22:59.193,11 Jun 2027 01:29:16.341,377.148
76,11 Jun 2027 02:54:34.539,11 Jun 2027 03:06:23.105,708.566
77,11 Jun 2027 04:29:41.246,11 Jun 2027 04:42:24.458,763.212
78,11 Jun 2027 06:08:53.907,11 Jun 2027 06:16:53.113,479.207
79,11 Jun 2027 16:08:36.543,11 Jun 2027 16:20:16.609,700.066
80,11 Jun 2027 17:44:11.259,11 Jun 2027 17:56:54.019,762.760
81,11 Jun 2027 19:20:43.051,11 Jun 2027 19:30:07.263,564.212
82,12 Jun 2027 01:34:12.496,12 Jun 2027 01:41:34.062,441.566
83,12 Jun 2027 03:06:18.946,12 Jun 2027 03:18:27.901,728.955
84,12 Jun 2027 04:41:50.996,12 Jun 2027 04:54:22.333,751.337
85,12 Jun 2027 06:21:54.595,12 Jun 2027 06:28:21.127,386.531
86,12 Jun 2027 14:48:09.169,12 Jun 2027 14:50:23.297,134.128
87,12 Jun 2027 16:20:30.794,12 Jun 2027 16:32:35.925,725.131
88,12 Jun 2027 17:56:14.193,12 Jun 2027 18:08:45.900,751.707
89,12 Jun 2027 19:32:53.941,12 Jun 2027 19:41:32.887,518.947
90,13 Jun 2027 01:45:31.595,13 Jun 2027 01:53:48.214,496.619
91,13 Jun 2027 03:18:06.414,13 Jun 2027 03:30:31.924,745.511
92,13 Jun 2027 04:54:04.445,13 Jun 2027 05:06:18.902,734.457
93,13 Jun 2027 06:35:20.650,13 Jun 2027 06:39:26.895,246.245
94,13 Jun 2027 14:58:46.573,13 Jun 2027 15:04:19.167,332.594
95,13 Jun 2027 16:32:26.710,13 Jun 2027 16:44:51.118,744.408
96,13 Jun 2027 18:08:17.875,13 Jun 2027 18:20:34.734,736.859
97,13 Jun 2027 19:45:06.914,13 Jun 2027 19:52:54.175,467.261
