dataset/facility_timing/facility_Facility-Irkutsk/Irkutsk-To-KinoSat_111706.csv

Acces,Start Time (UTCG),Stop Time (UTCG),Duration (sec)
1,1 Jun 2027 01:22:51.424,1 Jun 2027 01:35:25.536,754.112
2,1 Jun 2027 02:59:31.105,1 Jun 2027 03:08:17.626,526.521
3,1 Jun 2027 09:12:21.216,1 Jun 2027 09:20:19.876,478.660
4,1 Jun 2027 10:44:47.372,1 Jun 2027 10:57:08.180,740.808
5,1 Jun 2027 12:20:38.207,1 Jun 2027 12:32:58.536,740.329
6,1 Jun 2027 14:01:28.977,1 Jun 2027 14:06:27.425,298.448
7,1 Jun 2027 22:25:32.295,1 Jun 2027 22:30:40.069,307.775
8,1 Jun 2027 23:59:04.604,2 Jun 2027 00:11:26.043,741.439
9,2 Jun 2027 01:34:55.431,2 Jun 2027 01:47:15.235,739.804
10,2 Jun 2027 03:11:44.360,2 Jun 2027 03:19:39.615,475.256
11,2 Jun 2027 09:23:43.490,2 Jun 2027 09:32:32.994,529.504
12,2 Jun 2027 10:56:37.259,2 Jun 2027 11:09:12.146,754.887
13,2 Jun 2027 12:32:54.931,2 Jun 2027 12:44:54.453,719.522
14,2 Jun 2027 22:36:49.439,2 Jun 2027 22:43:54.689,425.250
15,3 Jun 2027 00:11:02.078,3 Jun 2027 00:23:38.597,756.519
16,3 Jun 2027 01:47:00.212,3 Jun 2027 01:59:01.822,721.610
17,3 Jun 2027 03:24:00.506,3 Jun 2027 03:30:56.425,415.919
18,3 Jun 2027 09:35:10.090,3 Jun 2027 09:44:44.095,574.005
19,3 Jun 2027 11:08:30.251,3 Jun 2027 11:21:15.329,765.079
20,3 Jun 2027 12:45:15.950,3 Jun 2027 12:56:48.604,692.653
21,3 Jun 2027 22:48:22.239,3 Jun 2027 22:56:50.533,508.295
22,4 Jun 2027 00:23:00.805,4 Jun 2027 00:35:47.480,766.675
23,4 Jun 2027 01:59:05.798,4 Jun 2027 02:10:45.284,699.487
24,4 Jun 2027 03:36:21.182,4 Jun 2027 03:42:06.455,345.273
25,4 Jun 2027 09:46:40.556,4 Jun 2027 09:56:53.652,613.097
26,4 Jun 2027 11:20:26.361,4 Jun 2027 11:33:17.716,771.355
27,4 Jun 2027 12:57:41.750,4 Jun 2027 13:08:40.563,658.813
28,4 Jun 2027 23:00:03.115,4 Jun 2027 23:09:35.325,572.211
29,5 Jun 2027 00:35:00.613,5 Jun 2027 00:47:52.885,772.273
30,5 Jun 2027 02:11:12.243,5 Jun 2027 02:22:25.554,673.311
31,5 Jun 2027 03:48:50.396,5 Jun 2027 03:53:05.755,255.359
32,5 Jun 2027 08:28:28.053,5 Jun 2027 08:30:45.692,137.639
33,5 Jun 2027 09:58:14.608,5 Jun 2027 10:09:01.958,647.350
34,5 Jun 2027 11:32:25.639,5 Jun 2027 11:45:19.274,773.635
35,5 Jun 2027 13:10:13.015,5 Jun 2027 13:20:29.718,616.703
36,5 Jun 2027 23:11:49.108,5 Jun 2027 23:22:12.138,623.030
37,6 Jun 2027 00:47:01.398,6 Jun 2027 00:59:54.958,773.559
38,6 Jun 2027 02:23:19.620,6 Jun 2027 02:34:02.547,642.927
39,6 Jun 2027 04:01:47.265,6 Jun 2027 04:03:35.266,108.000
40,6 Jun 2027 08:39:05.464,6 Jun 2027 08:43:34.953,269.488
41,6 Jun 2027 10:09:52.053,6 Jun 2027 10:21:09.208,677.155
42,6 Jun 2027 11:44:28.166,6 Jun 2027 11:57:19.924,771.758
43,6 Jun 2027 13:22:50.812,6 Jun 2027 13:32:15.114,564.303
44,6 Jun 2027 23:23:38.700,6 Jun 2027 23:34:42.601,663.900
45,7 Jun 2027 00:59:03.066,7 Jun 2027 01:11:53.804,770.738
46,7 Jun 2027 02:35:28.076,7 Jun 2027 02:45:36.127,608.051
47,7 Jun 2027 08:50:06.669,7 Jun 2027 08:56:02.563,355.893
48,7 Jun 2027 10:21:32.763,7 Jun 2027 10:33:15.533,702.770
49,7 Jun 2027 11:56:34.038,7 Jun 2027 12:09:19.591,765.553
50,7 Jun 2027 13:35:36.895,7 Jun 2027 13:43:55.092,498.198
51,7 Jun 2027 23:35:31.000,7 Jun 2027 23:47:07.705,696.705
52,8 Jun 2027 01:11:05.566,8 Jun 2027 01:23:49.481,763.915
53,8 Jun 2027 02:47:37.812,8 Jun 2027 02:57:06.090,568.278
54,8 Jun 2027 09:01:17.777,8 Jun 2027 09:08:22.473,424.695
55,8 Jun 2027 10:33:16.654,8 Jun 2027 10:45:21.008,724.354
56,8 Jun 2027 12:08:43.413,8 Jun 2027 12:21:18.153,754.740
57,8 Jun 2027 13:48:34.683,8 Jun 2027 13:55:26.356,411.673
58,8 Jun 2027 22:15:24.712,8 Jun 2027 22:16:49.716,85.004
59,8 Jun 2027 23:47:25.414,8 Jun 2027 23:59:28.110,722.696
60,9 Jun 2027 01:23:08.855,9 Jun 2027 01:35:42.049,753.194
61,9 Jun 2027 02:59:49.143,9 Jun 2027 03:08:32.141,522.998
62,9 Jun 2027 09:12:35.363,9 Jun 2027 09:20:38.162,482.799
63,9 Jun 2027 10:45:03.669,9 Jun 2027 10:57:25.684,742.015
64,9 Jun 2027 12:20:56.486,9 Jun 2027 12:33:15.439,738.952
65,9 Jun 2027 14:01:53.314,9 Jun 2027 14:06:39.917,286.603
66,9 Jun 2027 22:25:45.415,9 Jun 2027 22:31:03.791,318.376
67,9 Jun 2027 23:59:21.549,10 Jun 2027 00:11:44.278,742.729
68,10 Jun 2027 01:35:12.914,10 Jun 2027 01:47:31.514,738.599
69,10 Jun 2027 03:12:02.570,10 Jun 2027 03:19:53.786,471.216
70,10 Jun 2027 09:23:57.982,10 Jun 2027 09:32:51.094,533.112
71,10 Jun 2027 10:56:53.789,10 Jun 2027 11:09:29.584,755.795
72,10 Jun 2027 12:33:13.523,10 Jun 2027 12:45:11.228,717.706
73,10 Jun 2027 22:37:04.239,10 Jun 2027 22:44:16.490,432.251
74,11 Jun 2027 00:11:19.118,11 Jun 2027 00:23:56.547,757.429
75,11 Jun 2027 01:47:17.753,11 Jun 2027 01:59:17.869,720.116
76,11 Jun 2027 03:24:18.972,11 Jun 2027 03:31:10.169,411.197
77,11 Jun 2027 09:35:24.894,11 Jun 2027 09:45:02.058,577.164
78,11 Jun 2027 11:08:47.014,11 Jun 2027 11:21:32.706,765.693
79,11 Jun 2027 12:45:34.882,11 Jun 2027 12:57:05.227,690.345
80,11 Jun 2027 22:48:37.788,11 Jun 2027 22:57:11.351,513.562
81,12 Jun 2027 00:23:17.924,12 Jun 2027 00:36:05.161,767.238
82,12 Jun 2027 01:59:23.399,12 Jun 2027 02:11:01.097,697.698
83,12 Jun 2027 03:36:40.083,12 Jun 2027 03:42:19.600,339.516
84,12 Jun 2027 09:46:55.639,12 Jun 2027 09:57:11.506,615.867
85,12 Jun 2027 11:20:43.360,12 Jun 2027 11:33:35.027,771.667
86,12 Jun 2027 12:58:01.066,12 Jun 2027 13:08:56.995,655.929
87,12 Jun 2027 23:00:19.117,12 Jun 2027 23:09:55.470,576.353
88,13 Jun 2027 00:35:17.808,13 Jun 2027 00:48:10.316,772.509
89,13 Jun 2027 02:11:29.904,13 Jun 2027 02:22:41.128,671.223
90,13 Jun 2027 03:49:10.233,13 Jun 2027 03:53:17.797,247.564
91,13 Jun 2027 08:28:36.866,13 Jun 2027 08:31:08.657,151.790
92,13 Jun 2027 09:58:29.954,13 Jun 2027 10:09:19.722,649.768
93,13 Jun 2027 11:32:42.877,13 Jun 2027 11:45:36.516,773.638
94,13 Jun 2027 13:10:32.779,13 Jun 2027 13:20:45.901,613.122
95,13 Jun 2027 23:12:05.413,13 Jun 2027 23:22:31.767,626.353
