dataset/facility_timing/facility_Facility-Irkutsk/Irkutsk-To-KinoSat_110210.csv

Acces,Start Time (UTCG),Stop Time (UTCG),Duration (sec)
1,1 Jun 2027 01:36:08.134,1 Jun 2027 01:43:40.043,451.909
2,1 Jun 2027 03:08:19.758,1 Jun 2027 03:20:31.916,732.158
3,1 Jun 2027 04:43:56.336,1 Jun 2027 04:56:25.067,748.731
4,1 Jun 2027 06:24:10.521,1 Jun 2027 06:30:17.051,366.530
5,1 Jun 2027 14:49:49.159,1 Jun 2027 14:52:55.908,186.748
6,1 Jun 2027 16:22:33.216,1 Jun 2027 16:34:42.129,728.913
7,1 Jun 2027 17:58:18.028,1 Jun 2027 18:10:47.402,749.374
8,1 Jun 2027 19:34:59.278,1 Jun 2027 19:43:29.663,510.384
9,2 Jun 2027 01:47:28.117,2 Jun 2027 01:55:53.697,505.579
10,2 Jun 2027 03:20:07.767,2 Jun 2027 03:32:35.806,748.039
11,2 Jun 2027 04:56:10.459,2 Jun 2027 05:08:21.385,730.926
12,2 Jun 2027 06:37:45.026,2 Jun 2027 06:41:14.936,209.910
13,2 Jun 2027 15:00:41.405,2 Jun 2027 15:06:36.361,354.956
14,2 Jun 2027 16:34:29.397,2 Jun 2027 16:46:56.633,747.236
15,2 Jun 2027 18:10:21.842,2 Jun 2027 18:22:35.700,733.858
16,2 Jun 2027 19:47:12.689,2 Jun 2027 19:54:50.116,457.427
17,3 Jun 2027 01:58:52.627,3 Jun 2027 02:08:05.087,552.460
18,3 Jun 2027 03:31:58.810,3 Jun 2027 03:44:38.940,760.130
19,3 Jun 2027 05:08:28.614,3 Jun 2027 05:20:16.120,707.506
20,3 Jun 2027 15:12:05.309,3 Jun 2027 15:19:41.991,456.682
21,3 Jun 2027 16:46:26.925,3 Jun 2027 16:59:07.368,760.443
22,3 Jun 2027 18:22:26.424,3 Jun 2027 18:34:20.941,714.517
23,3 Jun 2027 19:59:29.270,3 Jun 2027 20:06:05.164,395.895
24,4 Jun 2027 02:10:21.097,4 Jun 2027 02:20:14.793,593.696
25,4 Jun 2027 03:43:52.915,4 Jun 2027 03:56:41.306,768.391
26,4 Jun 2027 05:20:51.204,4 Jun 2027 05:32:08.937,677.734
27,4 Jun 2027 15:23:41.073,4 Jun 2027 15:32:32.743,531.670
28,4 Jun 2027 16:58:25.627,4 Jun 2027 17:11:14.562,768.935
29,4 Jun 2027 18:34:31.808,4 Jun 2027 18:46:03.102,691.294
30,4 Jun 2027 20:11:51.004,4 Jun 2027 20:17:12.871,321.867
31,5 Jun 2027 02:21:53.193,5 Jun 2027 02:32:23.156,629.962
32,5 Jun 2027 03:55:50.102,5 Jun 2027 04:08:42.882,772.779
33,5 Jun 2027 05:33:18.781,5 Jun 2027 05:43:59.339,640.558
34,5 Jun 2027 15:35:23.578,5 Jun 2027 15:45:13.877,590.299
35,5 Jun 2027 17:10:25.358,5 Jun 2027 17:23:18.396,773.037
36,5 Jun 2027 18:46:38.036,5 Jun 2027 18:57:42.109,664.073
37,5 Jun 2027 20:24:23.232,5 Jun 2027 20:28:07.953,224.721
38,6 Jun 2027 01:03:07.169,6 Jun 2027 01:06:42.328,215.159
39,6 Jun 2027 02:33:28.692,6 Jun 2027 02:44:30.420,661.728
40,6 Jun 2027 04:07:50.432,6 Jun 2027 04:20:43.613,773.182
41,6 Jun 2027 05:45:52.175,6 Jun 2027 05:55:46.597,594.421
42,6 Jun 2027 15:47:10.535,6 Jun 2027 15:57:47.777,637.242
43,6 Jun 2027 17:22:26.020,6 Jun 2027 17:35:18.979,772.958
44,6 Jun 2027 18:58:45.218,6 Jun 2027 19:09:17.870,632.651
45,7 Jun 2027 01:14:00.716,7 Jun 2027 01:19:15.914,315.198
46,7 Jun 2027 02:45:07.446,7 Jun 2027 02:56:36.722,689.276
47,7 Jun 2027 04:19:53.999,7 Jun 2027 04:32:43.419,769.419
48,7 Jun 2027 05:58:32.660,7 Jun 2027 06:07:29.521,536.860
49,7 Jun 2027 15:59:00.717,7 Jun 2027 16:10:15.788,675.070
50,7 Jun 2027 17:34:27.526,7 Jun 2027 17:47:16.415,768.889
51,7 Jun 2027 19:10:53.496,7 Jun 2027 19:20:50.241,596.745
52,8 Jun 2027 01:25:07.699,8 Jun 2027 01:31:38.206,390.507
53,8 Jun 2027 02:56:49.355,8 Jun 2027 03:08:42.161,712.806
54,8 Jun 2027 04:32:00.925,8 Jun 2027 04:44:42.208,761.284
55,8 Jun 2027 06:11:22.507,8 Jun 2027 06:19:05.959,463.452
56,8 Jun 2027 16:10:53.363,8 Jun 2027 16:22:38.750,705.387
57,8 Jun 2027 17:46:29.834,8 Jun 2027 17:59:10.761,760.927
58,8 Jun 2027 19:23:03.086,8 Jun 2027 19:32:19.008,555.922
59,9 Jun 2027 01:36:22.253,9 Jun 2027 01:43:55.102,452.849
60,9 Jun 2027 03:08:34.356,9 Jun 2027 03:20:46.805,732.449
61,9 Jun 2027 04:44:11.367,9 Jun 2027 04:56:39.845,748.478
62,9 Jun 2027 06:24:26.592,9 Jun 2027 06:30:31.165,364.573
63,9 Jun 2027 14:50:02.067,9 Jun 2027 14:53:13.231,191.164
64,9 Jun 2027 16:22:47.959,9 Jun 2027 16:34:57.238,729.279
65,9 Jun 2027 17:58:32.913,9 Jun 2027 18:11:02.050,749.137
66,9 Jun 2027 19:35:14.328,9 Jun 2027 19:43:43.838,509.510
67,10 Jun 2027 01:47:42.319,10 Jun 2027 01:56:08.714,506.395
68,10 Jun 2027 03:20:22.412,10 Jun 2027 03:32:50.688,748.276
69,10 Jun 2027 04:56:25.560,10 Jun 2027 05:08:36.137,730.578
70,10 Jun 2027 06:38:02.033,10 Jun 2027 06:41:28.168,206.134
71,10 Jun 2027 15:00:55.422,10 Jun 2027 15:06:52.512,357.090
72,10 Jun 2027 16:34:44.159,10 Jun 2027 16:47:11.671,747.512
73,10 Jun 2027 18:10:36.747,10 Jun 2027 18:22:50.293,733.546
74,10 Jun 2027 19:47:27.782,10 Jun 2027 19:55:04.202,456.420
75,11 Jun 2027 01:59:06.893,11 Jun 2027 02:08:20.076,553.183
76,11 Jun 2027 03:32:13.510,11 Jun 2027 03:44:53.806,760.296
77,11 Jun 2027 05:08:43.786,11 Jun 2027 05:20:30.847,707.061
78,11 Jun 2027 15:12:19.623,11 Jun 2027 15:19:57.798,458.175
79,11 Jun 2027 16:46:41.714,11 Jun 2027 16:59:22.346,760.632
80,11 Jun 2027 18:22:41.340,11 Jun 2027 18:34:35.484,714.145
81,11 Jun 2027 19:59:44.438,11 Jun 2027 20:06:19.148,394.710
82,12 Jun 2027 02:10:35.425,12 Jun 2027 02:20:29.760,594.335
83,12 Jun 2027 03:44:07.667,12 Jun 2027 03:56:56.164,768.497
84,12 Jun 2027 05:21:06.452,12 Jun 2027 05:32:23.630,677.178
85,12 Jun 2027 15:23:55.537,12 Jun 2027 15:32:48.350,532.813
86,12 Jun 2027 16:58:40.437,12 Jun 2027 17:11:29.481,769.044
87,12 Jun 2027 18:34:46.736,12 Jun 2027 18:46:17.592,690.856
88,12 Jun 2027 20:12:06.294,12 Jun 2027 20:17:26.696,320.402
89,13 Jun 2027 02:22:07.579,13 Jun 2027 02:32:38.105,630.526
90,13 Jun 2027 03:56:04.907,13 Jun 2027 04:08:57.727,772.820
91,13 Jun 2027 05:33:34.119,13 Jun 2027 05:44:13.986,639.867
92,13 Jun 2027 15:35:38.137,13 Jun 2027 15:45:29.342,591.205
93,13 Jun 2027 17:10:40.187,13 Jun 2027 17:23:33.258,773.072
94,13 Jun 2027 18:46:52.982,13 Jun 2027 18:57:56.544,663.562
95,13 Jun 2027 20:24:38.817,13 Jun 2027 20:28:21.448,222.631
