dataset/facility_timing/facility_Facility-Irkutsk/Irkutsk-To-KinoSat_110710.csv

Acces,Start Time (UTCG),Stop Time (UTCG),Duration (sec)
1,1 Jun 2027 04:26:20.805,1 Jun 2027 04:32:34.500,373.696
2,1 Jun 2027 05:57:54.489,1 Jun 2027 06:09:41.910,707.421
3,1 Jun 2027 07:32:59.859,1 Jun 2027 07:45:43.548,763.689
4,1 Jun 2027 09:12:10.138,1 Jun 2027 09:20:13.393,483.255
5,1 Jun 2027 19:11:56.023,1 Jun 2027 19:23:34.411,698.388
6,1 Jun 2027 20:47:30.135,1 Jun 2027 21:00:13.422,763.287
7,1 Jun 2027 22:24:01.406,1 Jun 2027 22:33:28.164,566.758
8,2 Jun 2027 04:37:33.781,2 Jun 2027 04:44:52.409,438.628
9,2 Jun 2027 06:09:38.725,2 Jun 2027 06:21:46.724,727.999
10,2 Jun 2027 07:45:09.401,2 Jun 2027 07:57:41.464,752.063
11,2 Jun 2027 09:25:09.952,2 Jun 2027 09:31:42.068,392.116
12,2 Jun 2027 17:51:39.068,2 Jun 2027 17:53:29.579,110.510
13,2 Jun 2027 19:23:50.149,2 Jun 2027 19:35:53.955,723.806
14,2 Jun 2027 20:59:33.001,2 Jun 2027 21:12:05.468,752.466
15,2 Jun 2027 22:36:12.156,2 Jun 2027 22:44:54.037,521.880
16,3 Jun 2027 04:48:52.621,3 Jun 2027 04:57:06.670,494.049
17,3 Jun 2027 06:21:26.020,3 Jun 2027 06:33:50.766,744.745
18,3 Jun 2027 07:57:22.627,3 Jun 2027 08:09:38.086,735.459
19,3 Jun 2027 09:38:33.895,3 Jun 2027 09:42:49.724,255.829
20,3 Jun 2027 18:02:08.765,3 Jun 2027 18:07:33.293,324.527
21,3 Jun 2027 19:35:45.960,3 Jun 2027 19:48:09.357,743.397
22,3 Jun 2027 21:11:36.615,3 Jun 2027 21:23:54.469,737.853
23,3 Jun 2027 22:48:24.942,3 Jun 2027 22:56:15.615,470.673
24,4 Jun 2027 05:00:16.158,4 Jun 2027 05:09:18.490,542.332
25,4 Jun 2027 06:33:16.356,4 Jun 2027 06:45:54.053,757.697
26,4 Jun 2027 08:09:39.799,4 Jun 2027 08:21:33.189,713.389
27,4 Jun 2027 18:13:28.276,4 Jun 2027 18:20:44.000,435.724
28,4 Jun 2027 19:47:43.170,4 Jun 2027 20:00:20.931,757.761
29,4 Jun 2027 21:23:40.992,4 Jun 2027 21:35:40.419,719.428
30,4 Jun 2027 23:00:40.600,4 Jun 2027 23:07:32.079,411.479
31,5 Jun 2027 05:11:43.760,5 Jun 2027 05:21:28.515,584.755
32,5 Jun 2027 06:45:09.743,5 Jun 2027 06:57:56.578,766.835
33,5 Jun 2027 08:22:01.303,5 Jun 2027 08:33:26.463,685.160
34,5 Jun 2027 18:25:01.883,5 Jun 2027 18:33:37.559,515.676
35,5 Jun 2027 19:59:41.591,5 Jun 2027 20:12:28.919,767.328
36,5 Jun 2027 21:35:46.153,5 Jun 2027 21:47:23.304,697.151
37,5 Jun 2027 23:13:00.777,5 Jun 2027 23:18:41.829,341.052
38,6 Jun 2027 05:23:15.040,6 Jun 2027 05:33:37.134,622.094
39,6 Jun 2027 06:57:06.200,6 Jun 2027 07:09:58.314,772.113
40,6 Jun 2027 08:34:27.654,6 Jun 2027 08:45:17.451,649.797
41,6 Jun 2027 18:36:43.048,6 Jun 2027 18:46:20.655,577.607
42,6 Jun 2027 20:11:41.071,6 Jun 2027 20:24:33.514,772.444
43,6 Jun 2027 21:47:52.154,6 Jun 2027 21:59:03.055,670.901
44,6 Jun 2027 23:25:29.488,6 Jun 2027 23:29:40.899,251.411
45,7 Jun 2027 04:04:41.727,7 Jun 2027 04:07:47.193,185.466
46,7 Jun 2027 05:34:49.766,7 Jun 2027 05:45:44.612,654.846
47,7 Jun 2027 07:09:05.782,7 Jun 2027 07:21:59.225,773.443
48,7 Jun 2027 08:46:59.586,7 Jun 2027 08:57:05.492,605.906
49,7 Jun 2027 18:48:29.074,7 Jun 2027 18:58:56.086,627.012
50,7 Jun 2027 20:23:41.498,7 Jun 2027 20:36:34.835,773.337
51,7 Jun 2027 21:59:59.067,7 Jun 2027 22:10:39.591,640.524
52,7 Jun 2027 23:38:26.451,7 Jun 2027 23:40:09.633,103.182
53,8 Jun 2027 04:15:30.040,8 Jun 2027 04:20:25.514,295.475
54,8 Jun 2027 05:46:27.774,8 Jun 2027 05:57:51.097,683.323
55,8 Jun 2027 07:21:08.579,8 Jun 2027 07:33:59.228,770.649
56,8 Jun 2027 08:59:38.258,8 Jun 2027 09:08:49.535,551.277
57,8 Jun 2027 19:00:18.562,8 Jun 2027 19:11:25.370,666.808
58,8 Jun 2027 20:35:42.788,8 Jun 2027 20:48:32.996,770.208
59,8 Jun 2027 22:12:07.034,8 Jun 2027 22:22:12.781,605.747
60,9 Jun 2027 04:26:34.768,9 Jun 2027 04:32:49.541,374.773
61,9 Jun 2027 05:58:08.953,9 Jun 2027 06:09:56.707,707.753
62,9 Jun 2027 07:33:14.693,9 Jun 2027 07:45:58.241,763.548
63,9 Jun 2027 09:12:25.633,9 Jun 2027 09:20:27.721,482.087
64,9 Jun 2027 19:12:10.651,9 Jun 2027 19:23:49.440,698.789
65,9 Jun 2027 20:47:44.887,9 Jun 2027 21:00:28.048,763.161
66,9 Jun 2027 22:24:16.254,9 Jun 2027 22:33:42.427,566.173
67,10 Jun 2027 04:37:47.847,10 Jun 2027 04:45:07.378,439.531
68,10 Jun 2027 06:09:53.234,10 Jun 2027 06:22:01.510,728.277
69,10 Jun 2027 07:45:24.286,10 Jun 2027 07:57:56.137,751.852
70,10 Jun 2027 09:25:25.684,10 Jun 2027 09:31:56.198,390.513
71,10 Jun 2027 17:51:51.041,10 Jun 2027 17:53:47.560,116.518
72,10 Jun 2027 19:24:04.802,10 Jun 2027 19:36:08.921,724.119
73,10 Jun 2027 20:59:47.763,10 Jun 2027 21:12:20.050,752.287
74,10 Jun 2027 22:36:27.026,10 Jun 2027 22:45:08.243,521.217
75,11 Jun 2027 04:49:06.764,11 Jun 2027 04:57:21.593,494.829
76,11 Jun 2027 06:21:40.574,11 Jun 2027 06:34:05.540,744.967
77,11 Jun 2027 07:57:37.562,11 Jun 2027 08:09:52.737,735.174
78,11 Jun 2027 09:38:50.208,11 Jun 2027 09:43:03.317,253.109
79,11 Jun 2027 18:02:22.763,11 Jun 2027 18:07:49.199,326.436
80,11 Jun 2027 19:36:00.633,11 Jun 2027 19:48:24.265,743.632
81,11 Jun 2027 21:11:51.385,11 Jun 2027 21:24:09.007,737.622
82,11 Jun 2027 22:48:39.841,11 Jun 2027 22:56:29.759,469.918
83,12 Jun 2027 05:00:30.365,12 Jun 2027 05:09:33.380,543.016
84,12 Jun 2027 06:33:30.953,12 Jun 2027 06:46:08.814,757.861
85,12 Jun 2027 08:09:54.799,12 Jun 2027 08:21:47.813,713.014
86,12 Jun 2027 18:13:42.563,12 Jun 2027 18:20:59.571,437.008
87,12 Jun 2027 19:47:57.860,12 Jun 2027 20:00:35.786,757.926
88,12 Jun 2027 21:23:55.771,12 Jun 2027 21:35:54.914,719.144
89,12 Jun 2027 23:00:55.542,12 Jun 2027 23:07:46.145,410.603
90,13 Jun 2027 05:11:58.024,13 Jun 2027 05:21:43.380,585.357
91,13 Jun 2027 06:45:24.384,13 Jun 2027 06:58:11.327,766.942
92,13 Jun 2027 08:22:16.370,13 Jun 2027 08:33:41.055,684.685
93,13 Jun 2027 18:25:16.304,13 Jun 2027 18:33:52.950,516.646
94,13 Jun 2027 19:59:56.296,13 Jun 2027 20:12:43.724,767.428
95,13 Jun 2027 21:36:00.943,13 Jun 2027 21:47:37.755,696.812
96,13 Jun 2027 23:13:15.794,13 Jun 2027 23:18:55.789,339.995
