dataset/facility_timing/facility_Facility-Irkutsk/Irkutsk-To-KinoSat_111910.csv

Acces,Start Time (UTCG),Stop Time (UTCG),Duration (sec)
1,1 Jun 2027 00:37:02.986,1 Jun 2027 00:49:01.624,718.638
2,1 Jun 2027 02:12:45.206,1 Jun 2027 02:25:20.563,755.358
3,1 Jun 2027 03:49:24.378,1 Jun 2027 03:58:15.391,531.013
4,1 Jun 2027 10:02:20.506,1 Jun 2027 10:10:11.679,471.173
5,1 Jun 2027 11:34:42.953,1 Jun 2027 11:47:01.677,738.724
6,1 Jun 2027 13:10:30.611,1 Jun 2027 13:22:53.238,742.628
7,1 Jun 2027 14:51:11.921,1 Jun 2027 14:56:29.266,317.345
8,1 Jun 2027 23:15:31.863,1 Jun 2027 23:20:24.705,292.842
9,2 Jun 2027 00:48:58.940,2 Jun 2027 01:01:18.630,739.690
10,2 Jun 2027 02:24:49.241,2 Jun 2027 02:37:10.637,741.395
11,2 Jun 2027 04:01:37.561,2 Jun 2027 04:09:37.812,480.252
12,2 Jun 2027 10:13:42.137,2 Jun 2027 10:22:25.266,523.130
13,2 Jun 2027 11:46:32.512,2 Jun 2027 11:59:05.842,753.330
14,2 Jun 2027 13:22:46.944,2 Jun 2027 13:34:49.442,722.498
15,2 Jun 2027 15:05:28.331,2 Jun 2027 15:06:47.934,79.603
16,2 Jun 2027 23:26:46.576,2 Jun 2027 23:33:42.326,415.749
17,3 Jun 2027 01:00:56.371,3 Jun 2027 01:13:31.672,755.301
18,3 Jun 2027 02:36:54.052,3 Jun 2027 02:48:57.591,723.539
19,3 Jun 2027 04:13:53.561,3 Jun 2027 04:20:55.117,421.556
20,3 Jun 2027 10:25:08.212,3 Jun 2027 10:34:36.737,568.525
21,3 Jun 2027 11:58:25.189,3 Jun 2027 12:11:09.225,764.036
22,3 Jun 2027 13:35:07.537,3 Jun 2027 13:46:43.918,696.381
23,3 Jun 2027 23:38:18.386,3 Jun 2027 23:46:39.710,501.323
24,4 Jun 2027 01:12:55.073,4 Jun 2027 01:25:41.007,765.934
25,4 Jun 2027 02:48:59.670,4 Jun 2027 03:00:41.410,701.740
26,4 Jun 2027 04:26:13.930,4 Jun 2027 04:32:05.790,351.860
27,4 Jun 2027 10:36:38.220,4 Jun 2027 10:46:46.605,608.385
28,4 Jun 2027 12:10:20.992,4 Jun 2027 12:23:11.813,770.821
29,4 Jun 2027 13:47:32.848,4 Jun 2027 13:58:36.266,663.418
30,4 Jun 2027 23:49:58.723,4 Jun 2027 23:59:25.552,566.829
31,5 Jun 2027 01:24:54.880,5 Jun 2027 01:37:46.847,771.967
32,5 Jun 2027 03:01:06.146,5 Jun 2027 03:12:22.029,675.883
33,5 Jun 2027 04:38:42.361,5 Jun 2027 04:43:06.191,263.830
34,5 Jun 2027 09:18:39.031,5 Jun 2027 09:20:27.072,108.040
35,5 Jun 2027 10:48:11.865,5 Jun 2027 10:58:55.179,643.314
36,5 Jun 2027 12:22:19.968,5 Jun 2027 12:35:13.574,773.606
37,5 Jun 2027 14:00:03.545,5 Jun 2027 14:10:25.886,622.341
38,6 Jun 2027 00:01:44.395,6 Jun 2027 00:12:03.190,618.794
39,6 Jun 2027 01:36:55.676,6 Jun 2027 01:49:49.322,773.646
40,6 Jun 2027 03:13:13.555,6 Jun 2027 03:23:59.361,645.806
41,6 Jun 2027 04:51:34.793,6 Jun 2027 04:53:40.441,125.648
42,6 Jun 2027 09:29:08.390,6 Jun 2027 09:33:24.239,255.849
43,6 Jun 2027 10:59:48.939,6 Jun 2027 11:11:02.668,673.729
44,6 Jun 2027 12:34:22.194,6 Jun 2027 12:47:14.433,772.238
45,6 Jun 2027 14:12:40.639,6 Jun 2027 14:22:11.881,571.242
46,7 Jun 2027 00:13:33.780,7 Jun 2027 00:24:34.337,660.557
47,7 Jun 2027 01:48:57.362,7 Jun 2027 02:01:48.550,771.188
48,7 Jun 2027 03:25:22.029,7 Jun 2027 03:35:33.285,611.256
49,7 Jun 2027 09:40:07.670,7 Jun 2027 09:45:53.619,345.949
50,7 Jun 2027 11:11:29.307,7 Jun 2027 11:23:09.215,699.909
51,7 Jun 2027 12:46:27.764,7 Jun 2027 12:59:14.317,766.553
52,7 Jun 2027 14:25:25.776,7 Jun 2027 14:33:52.700,506.923
53,8 Jun 2027 00:25:25.945,8 Jun 2027 00:37:00.035,694.090
54,8 Jun 2027 02:00:59.887,8 Jun 2027 02:13:44.593,764.706
55,8 Jun 2027 03:37:31.777,8 Jun 2027 03:47:03.590,571.812
56,8 Jun 2027 09:51:17.731,8 Jun 2027 09:58:14.442,416.712
57,8 Jun 2027 11:23:12.878,8 Jun 2027 11:35:14.899,722.020
58,8 Jun 2027 12:58:36.834,8 Jun 2027 13:11:13.104,756.271
59,8 Jun 2027 14:38:22.092,8 Jun 2027 14:45:25.324,423.232
60,9 Jun 2027 00:37:20.272,9 Jun 2027 00:49:20.968,720.695
61,9 Jun 2027 02:13:03.213,9 Jun 2027 02:25:37.511,754.298
62,9 Jun 2027 03:49:43.095,9 Jun 2027 03:58:29.992,526.897
63,9 Jun 2027 10:02:34.591,9 Jun 2027 10:10:30.715,476.124
64,9 Jun 2027 11:34:59.594,9 Jun 2027 11:47:19.774,740.180
65,9 Jun 2027 13:10:49.580,9 Jun 2027 13:23:10.642,741.062
66,9 Jun 2027 14:51:37.537,9 Jun 2027 14:56:41.953,304.416
67,9 Jun 2027 23:15:44.452,9 Jun 2027 23:20:50.487,306.035
68,10 Jun 2027 00:49:16.363,10 Jun 2027 01:01:37.614,741.252
69,10 Jun 2027 02:25:07.313,10 Jun 2027 02:37:27.313,740.000
70,10 Jun 2027 04:01:56.479,10 Jun 2027 04:09:52.010,475.530
71,10 Jun 2027 10:13:56.649,10 Jun 2027 10:22:44.079,527.430
72,10 Jun 2027 11:46:49.428,10 Jun 2027 11:59:23.867,754.439
73,10 Jun 2027 13:23:06.273,10 Jun 2027 13:35:06.704,720.431
74,10 Jun 2027 23:27:01.363,10 Jun 2027 23:34:05.625,424.262
75,11 Jun 2027 01:01:13.908,11 Jun 2027 01:13:50.322,756.414
76,11 Jun 2027 02:37:12.189,11 Jun 2027 02:49:13.993,721.804
77,11 Jun 2027 04:14:12.773,11 Jun 2027 04:21:08.819,416.045
78,11 Jun 2027 10:25:23.089,11 Jun 2027 10:34:55.384,572.294
79,11 Jun 2027 11:58:42.379,11 Jun 2027 12:11:27.179,764.800
80,11 Jun 2027 13:35:27.257,11 Jun 2027 13:47:01.004,693.747
81,11 Jun 2027 23:38:34.117,11 Jun 2027 23:47:01.792,507.676
82,12 Jun 2027 01:13:12.709,12 Jun 2027 01:25:59.343,766.634
83,12 Jun 2027 02:49:17.876,12 Jun 2027 03:00:57.536,699.660
84,12 Jun 2027 04:26:33.633,12 Jun 2027 04:32:18.803,345.169
85,12 Jun 2027 10:36:53.431,12 Jun 2027 10:47:05.116,611.686
86,12 Jun 2027 12:10:38.460,12 Jun 2027 12:23:29.690,771.230
87,12 Jun 2027 13:47:53.017,12 Jun 2027 13:58:53.135,660.118
88,12 Jun 2027 23:50:15.007,12 Jun 2027 23:59:46.820,571.813
89,13 Jun 2027 01:25:12.603,13 Jun 2027 01:38:04.884,772.280
90,13 Jun 2027 03:01:24.421,13 Jun 2027 03:12:37.872,673.451
91,13 Jun 2027 04:39:03.107,13 Jun 2027 04:43:17.968,254.862
92,13 Jun 2027 09:18:45.068,13 Jun 2027 09:20:53.396,128.329
93,13 Jun 2027 10:48:27.387,13 Jun 2027 10:59:13.588,646.201
94,13 Jun 2027 12:22:37.717,13 Jun 2027 12:35:31.371,773.654
95,13 Jun 2027 14:00:24.231,13 Jun 2027 14:10:42.473,618.242
