dataset/facility_timing/facility_Facility-Irkutsk/Irkutsk-To-KinoSat_110609.csv

Acces,Start Time (UTCG),Stop Time (UTCG),Duration (sec)
1,1 Jun 2027 04:37:34.358,1 Jun 2027 04:47:15.917,581.558
2,1 Jun 2027 06:10:58.282,1 Jun 2027 06:23:44.522,766.239
3,1 Jun 2027 07:47:47.505,1 Jun 2027 07:59:15.178,687.673
4,1 Jun 2027 17:50:51.905,1 Jun 2027 17:59:21.677,509.773
5,1 Jun 2027 19:25:29.807,1 Jun 2027 19:38:16.504,766.697
6,1 Jun 2027 21:01:33.787,1 Jun 2027 21:13:12.960,699.173
7,1 Jun 2027 22:38:46.877,1 Jun 2027 22:44:34.495,347.619
8,2 Jun 2027 04:49:05.351,2 Jun 2027 04:59:24.629,619.279
9,2 Jun 2027 06:22:54.484,2 Jun 2027 06:35:46.313,771.829
10,2 Jun 2027 08:00:13.418,2 Jun 2027 08:11:06.361,652.943
11,2 Jun 2027 18:02:32.558,2 Jun 2027 18:12:05.495,572.937
12,2 Jun 2027 19:37:29.191,2 Jun 2027 19:50:21.362,772.170
13,2 Jun 2027 21:13:39.701,2 Jun 2027 21:24:52.972,673.271
14,2 Jun 2027 22:51:14.529,2 Jun 2027 22:55:34.786,260.256
15,3 Jun 2027 03:30:37.056,3 Jun 2027 03:33:30.932,173.876
16,3 Jun 2027 05:00:39.804,3 Jun 2027 05:11:32.170,652.366
17,3 Jun 2027 06:34:53.799,3 Jun 2027 06:47:47.282,773.483
18,3 Jun 2027 08:12:44.845,3 Jun 2027 08:22:54.662,609.817
19,3 Jun 2027 18:14:18.229,3 Jun 2027 18:24:41.481,623.252
20,3 Jun 2027 19:49:29.528,3 Jun 2027 20:02:22.945,773.417
21,3 Jun 2027 21:25:46.517,3 Jun 2027 21:36:29.778,643.261
22,3 Jun 2027 23:04:06.100,3 Jun 2027 23:06:09.078,122.978
23,4 Jun 2027 03:41:23.114,4 Jun 2027 03:46:11.326,288.212
24,4 Jun 2027 05:12:17.546,4 Jun 2027 05:23:38.721,681.175
25,4 Jun 2027 06:46:56.319,4 Jun 2027 06:59:47.348,771.029
26,4 Jun 2027 08:25:22.889,4 Jun 2027 08:34:39.077,556.187
27,4 Jun 2027 18:26:07.454,4 Jun 2027 18:37:11.223,663.769
28,4 Jun 2027 20:01:30.737,4 Jun 2027 20:14:21.359,770.622
29,4 Jun 2027 21:37:54.375,4 Jun 2027 21:48:03.253,608.878
30,5 Jun 2027 03:52:26.979,5 Jun 2027 03:58:36.025,369.046
31,5 Jun 2027 05:23:58.465,5 Jun 2027 05:35:44.381,705.915
32,5 Jun 2027 06:59:02.143,5 Jun 2027 07:11:46.435,764.292
33,5 Jun 2027 08:38:09.427,5 Jun 2027 08:46:17.836,488.409
34,5 Jun 2027 18:37:59.336,5 Jun 2027 18:49:35.688,696.352
35,5 Jun 2027 20:13:32.757,5 Jun 2027 20:26:16.661,763.904
36,5 Jun 2027 21:50:03.463,5 Jun 2027 21:59:33.207,569.744
37,6 Jun 2027 04:03:39.515,6 Jun 2027 04:10:54.212,434.696
38,6 Jun 2027 05:35:42.489,6 Jun 2027 05:47:49.235,726.746
39,6 Jun 2027 07:11:11.432,6 Jun 2027 07:23:44.418,752.986
40,6 Jun 2027 08:51:08.165,6 Jun 2027 08:57:47.346,399.181
41,6 Jun 2027 17:17:59.550,6 Jun 2027 17:19:12.301,72.751
42,6 Jun 2027 18:49:53.318,6 Jun 2027 19:01:55.522,722.204
43,6 Jun 2027 20:25:35.556,6 Jun 2027 20:38:08.911,753.355
44,6 Jun 2027 22:02:14.070,6 Jun 2027 22:10:59.365,525.295
45,7 Jun 2027 04:14:58.016,7 Jun 2027 04:23:08.643,490.627
46,7 Jun 2027 05:47:29.571,7 Jun 2027 05:59:53.313,743.742
47,7 Jun 2027 07:23:24.387,7 Jun 2027 07:35:41.120,736.733
48,7 Jun 2027 09:04:29.609,7 Jun 2027 09:08:57.251,267.642
49,7 Jun 2027 17:28:15.416,7 Jun 2027 17:33:30.042,314.625
50,7 Jun 2027 19:01:49.007,7 Jun 2027 19:14:11.185,742.178
51,7 Jun 2027 20:37:39.105,7 Jun 2027 20:49:58.118,739.012
52,7 Jun 2027 22:14:26.669,7 Jun 2027 22:22:21.272,474.603
53,8 Jun 2027 04:26:21.264,8 Jun 2027 04:35:20.581,539.316
54,8 Jun 2027 05:59:19.693,8 Jun 2027 06:11:56.636,756.943
55,8 Jun 2027 07:35:41.265,8 Jun 2027 07:47:36.322,715.056
56,8 Jun 2027 17:39:33.387,8 Jun 2027 17:46:42.474,429.087
57,8 Jun 2027 19:13:46.111,8 Jun 2027 19:26:23.009,756.898
58,8 Jun 2027 20:49:43.408,8 Jun 2027 21:01:44.277,720.868
59,8 Jun 2027 22:26:42.055,8 Jun 2027 22:33:38.146,416.091
60,9 Jun 2027 04:37:48.607,9 Jun 2027 04:47:30.692,582.085
61,9 Jun 2027 06:11:12.863,9 Jun 2027 06:23:59.198,766.336
62,9 Jun 2027 07:48:02.448,9 Jun 2027 07:59:29.720,687.271
63,9 Jun 2027 17:51:06.275,9 Jun 2027 17:59:36.928,510.653
64,9 Jun 2027 19:25:44.439,9 Jun 2027 19:38:31.230,766.791
65,9 Jun 2027 21:01:48.496,9 Jun 2027 21:13:27.374,698.878
66,9 Jun 2027 22:39:01.790,9 Jun 2027 22:44:48.476,346.686
67,10 Jun 2027 04:49:19.645,10 Jun 2027 04:59:39.378,619.733
68,10 Jun 2027 06:23:09.099,10 Jun 2027 06:36:00.974,771.875
69,10 Jun 2027 08:00:28.427,10 Jun 2027 08:11:20.869,652.442
70,10 Jun 2027 18:02:47.004,10 Jun 2027 18:12:20.633,573.629
71,10 Jun 2027 19:37:43.834,10 Jun 2027 19:50:36.046,772.211
72,10 Jun 2027 21:13:54.419,10 Jun 2027 21:25:07.346,672.927
73,10 Jun 2027 22:51:29.579,10 Jun 2027 22:55:48.601,259.023
74,11 Jun 2027 03:30:50.489,11 Jun 2027 03:33:46.352,175.863
75,11 Jun 2027 05:00:54.140,11 Jun 2027 05:11:46.909,652.769
76,11 Jun 2027 06:35:08.453,11 Jun 2027 06:48:01.931,773.477
77,11 Jun 2027 08:12:59.931,11 Jun 2027 08:23:09.126,609.195
78,11 Jun 2027 18:14:32.726,11 Jun 2027 18:24:56.532,623.806
79,11 Jun 2027 19:49:44.182,11 Jun 2027 20:02:37.588,773.406
80,11 Jun 2027 21:26:01.245,11 Jun 2027 21:36:44.111,642.866
81,11 Jun 2027 23:04:21.803,11 Jun 2027 23:06:22.210,120.407
82,12 Jun 2027 03:41:36.944,12 Jun 2027 03:46:26.373,289.429
83,12 Jun 2027 05:12:31.923,12 Jun 2027 05:23:53.446,681.523
84,12 Jun 2027 06:47:11.015,12 Jun 2027 07:00:01.984,770.969
85,12 Jun 2027 08:25:38.069,12 Jun 2027 08:34:53.478,555.408
86,12 Jun 2027 18:26:21.987,12 Jun 2027 18:37:26.202,664.215
87,12 Jun 2027 20:01:45.399,12 Jun 2027 20:14:35.962,770.562
88,12 Jun 2027 21:38:09.114,12 Jun 2027 21:48:17.545,608.431
89,13 Jun 2027 03:52:40.955,13 Jun 2027 03:58:50.953,369.997
90,13 Jun 2027 05:24:12.883,13 Jun 2027 05:35:59.095,706.212
91,13 Jun 2027 06:59:16.882,13 Jun 2027 07:12:01.056,764.174
92,13 Jun 2027 08:38:24.735,13 Jun 2027 08:46:32.144,487.409
93,13 Jun 2027 18:38:13.898,13 Jun 2027 18:49:50.606,696.708
94,13 Jun 2027 20:13:47.429,13 Jun 2027 20:26:31.225,763.797
95,13 Jun 2027 21:50:18.217,13 Jun 2027 21:59:47.455,569.238
