dataset/facility_timing/facility_Facility-Irkutsk/Irkutsk-To-KinoSat_110706.csv

Acces,Start Time (UTCG),Stop Time (UTCG),Duration (sec)
1,1 Jun 2027 05:02:27.677,1 Jun 2027 05:11:38.668,550.992
2,1 Jun 2027 06:35:32.949,1 Jun 2027 06:48:12.711,759.762
3,1 Jun 2027 08:12:01.738,1 Jun 2027 08:23:50.152,708.414
4,1 Jun 2027 18:15:40.454,1 Jun 2027 18:23:13.558,453.104
5,1 Jun 2027 19:50:00.888,1 Jun 2027 20:02:40.865,759.977
6,1 Jun 2027 21:26:00.045,1 Jun 2027 21:37:55.448,715.403
7,1 Jun 2027 23:03:02.216,1 Jun 2027 23:09:41.022,398.806
8,2 Jun 2027 05:13:56.015,2 Jun 2027 05:23:48.397,592.382
9,2 Jun 2027 06:47:26.925,2 Jun 2027 07:00:15.087,768.161
10,2 Jun 2027 08:24:24.137,2 Jun 2027 08:35:43.024,678.888
11,2 Jun 2027 18:27:15.850,2 Jun 2027 18:36:04.748,528.898
12,2 Jun 2027 20:01:59.522,2 Jun 2027 20:14:48.184,768.662
13,2 Jun 2027 21:38:05.369,2 Jun 2027 21:49:37.728,692.360
14,2 Jun 2027 23:15:23.601,2 Jun 2027 23:20:49.141,325.540
15,3 Jun 2027 05:25:27.983,3 Jun 2027 05:35:56.778,628.795
16,3 Jun 2027 06:59:23.985,3 Jun 2027 07:12:16.670,772.685
17,3 Jun 2027 08:36:51.496,3 Jun 2027 08:47:33.502,642.006
18,3 Jun 2027 18:38:58.116,3 Jun 2027 18:48:46.191,588.075
19,3 Jun 2027 20:13:59.194,3 Jun 2027 20:26:52.136,772.942
20,3 Jun 2027 21:50:11.533,3 Jun 2027 22:01:16.863,665.330
21,3 Jun 2027 23:27:55.040,3 Jun 2027 23:31:45.076,230.036
22,4 Jun 2027 04:06:43.652,4 Jun 2027 04:10:14.851,211.198
23,4 Jun 2027 05:37:03.357,4 Jun 2027 05:48:04.054,660.697
24,4 Jun 2027 07:11:24.183,4 Jun 2027 07:24:17.413,773.230
25,4 Jun 2027 08:49:24.636,4 Jun 2027 08:59:20.866,596.230
26,4 Jun 2027 18:50:44.901,4 Jun 2027 19:01:20.332,635.431
27,4 Jun 2027 20:25:59.797,4 Jun 2027 20:38:52.835,773.038
28,4 Jun 2027 22:02:18.644,4 Jun 2027 22:12:52.761,634.117
29,4 Jun 2027 23:41:21.046,4 Jun 2027 23:41:44.373,23.327
30,5 Jun 2027 04:17:36.554,5 Jun 2027 04:22:48.985,312.431
31,5 Jun 2027 05:48:41.988,5 Jun 2027 06:00:10.366,688.378
32,5 Jun 2027 07:23:27.613,5 Jun 2027 07:36:17.232,769.619
33,5 Jun 2027 09:02:04.807,5 Jun 2027 09:11:03.954,539.147
34,5 Jun 2027 19:02:34.948,5 Jun 2027 19:13:48.544,673.597
35,5 Jun 2027 20:38:01.248,5 Jun 2027 20:50:50.385,769.138
36,5 Jun 2027 22:14:26.837,5 Jun 2027 22:24:25.280,598.444
37,6 Jun 2027 04:28:43.236,6 Jun 2027 04:35:11.479,388.243
38,6 Jun 2027 06:00:23.775,6 Jun 2027 06:12:15.812,712.037
39,6 Jun 2027 07:35:34.394,6 Jun 2027 07:48:16.039,761.646
40,6 Jun 2027 09:14:54.225,6 Jun 2027 09:22:40.661,466.436
41,6 Jun 2027 19:14:27.483,6 Jun 2027 19:26:11.682,704.200
42,6 Jun 2027 20:50:03.500,6 Jun 2027 21:02:44.849,761.349
43,6 Jun 2027 22:26:36.333,6 Jun 2027 22:35:54.213,557.880
44,7 Jun 2027 04:39:57.580,7 Jun 2027 04:47:28.478,450.898
45,7 Jun 2027 06:12:08.652,7 Jun 2027 06:24:20.464,731.812
46,7 Jun 2027 07:47:44.681,7 Jun 2027 08:00:13.700,749.019
47,7 Jun 2027 09:27:57.607,7 Jun 2027 09:34:06.404,368.796
48,7 Jun 2027 17:53:40.882,7 Jun 2027 17:56:40.684,179.802
49,7 Jun 2027 19:26:21.983,7 Jun 2027 19:38:30.332,728.348
50,7 Jun 2027 21:02:06.520,7 Jun 2027 21:14:36.256,749.736
51,7 Jun 2027 22:38:47.454,7 Jun 2027 22:47:19.232,511.778
52,8 Jun 2027 04:51:17.473,8 Jun 2027 04:59:42.151,504.678
53,8 Jun 2027 06:23:56.586,8 Jun 2027 06:36:24.348,747.761
54,8 Jun 2027 07:59:58.703,8 Jun 2027 08:12:10.026,731.324
55,8 Jun 2027 09:41:31.002,8 Jun 2027 09:45:05.276,214.274
56,8 Jun 2027 18:04:31.333,8 Jun 2027 18:10:22.963,351.630
57,8 Jun 2027 19:38:18.104,8 Jun 2027 19:50:44.908,746.804
58,8 Jun 2027 21:14:10.293,8 Jun 2027 21:26:24.622,734.329
59,8 Jun 2027 22:51:00.754,8 Jun 2027 22:58:39.829,459.076
60,9 Jun 2027 05:02:41.900,9 Jun 2027 05:11:53.550,551.649
61,9 Jun 2027 06:35:47.553,9 Jun 2027 06:48:27.475,759.922
62,9 Jun 2027 08:12:16.748,9 Jun 2027 08:24:04.774,708.027
63,9 Jun 2027 18:15:54.771,9 Jun 2027 18:23:29.087,454.316
64,9 Jun 2027 19:50:15.579,9 Jun 2027 20:02:55.717,760.138
65,9 Jun 2027 21:26:14.829,9 Jun 2027 21:38:09.935,715.105
66,9 Jun 2027 23:03:17.174,9 Jun 2027 23:09:55.069,397.895
67,10 Jun 2027 05:14:10.292,10 Jun 2027 05:24:03.258,592.966
68,10 Jun 2027 06:47:41.578,10 Jun 2027 07:00:29.838,768.260
69,10 Jun 2027 08:24:39.215,10 Jun 2027 08:35:57.613,678.398
70,10 Jun 2027 18:27:30.288,10 Jun 2027 18:36:20.116,529.828
71,10 Jun 2027 20:02:14.231,10 Jun 2027 20:15:02.982,768.751
72,10 Jun 2027 21:38:20.161,10 Jun 2027 21:49:52.172,692.011
73,10 Jun 2027 23:15:38.648,10 Jun 2027 23:21:03.069,324.421
74,11 Jun 2027 05:25:42.312,11 Jun 2027 05:36:11.619,629.307
75,11 Jun 2027 06:59:38.682,11 Jun 2027 07:12:31.404,772.722
76,11 Jun 2027 08:37:06.655,11 Jun 2027 08:47:48.047,641.392
77,11 Jun 2027 18:39:12.630,11 Jun 2027 18:49:01.441,588.811
78,11 Jun 2027 20:14:13.915,11 Jun 2027 20:27:06.886,772.971
79,11 Jun 2027 21:50:26.336,11 Jun 2027 22:01:31.261,664.925
80,11 Jun 2027 23:28:10.293,11 Jun 2027 23:31:58.765,228.473
81,12 Jun 2027 04:06:57.169,12 Jun 2027 04:10:30.280,213.111
82,12 Jun 2027 05:37:17.735,12 Jun 2027 05:48:18.879,661.144
83,12 Jun 2027 07:11:38.926,12 Jun 2027 07:24:32.132,773.206
84,12 Jun 2027 08:49:39.888,12 Jun 2027 08:59:35.356,595.468
85,12 Jun 2027 18:50:59.466,12 Jun 2027 19:01:35.489,636.023
86,12 Jun 2027 20:26:14.529,12 Jun 2027 20:39:07.539,773.009
87,12 Jun 2027 22:02:33.459,12 Jun 2027 22:13:07.112,633.654
88,13 Jun 2027 04:17:50.390,13 Jun 2027 04:23:04.125,313.736
89,13 Jun 2027 05:48:56.413,13 Jun 2027 06:00:25.175,688.763
90,13 Jun 2027 07:23:42.404,13 Jun 2027 07:36:31.935,769.531
91,13 Jun 2027 09:02:20.176,13 Jun 2027 09:11:18.364,538.188
92,13 Jun 2027 19:02:49.552,13 Jun 2027 19:14:03.624,674.072
93,13 Jun 2027 20:38:15.990,13 Jun 2027 20:51:05.046,769.057
94,13 Jun 2027 22:14:41.669,13 Jun 2027 22:24:39.584,597.915
