dataset/facility_timing/facility_Facility-Irkutsk/Irkutsk-To-KinoSat_111703.csv

Acces,Start Time (UTCG),Stop Time (UTCG),Duration (sec)
1,1 Jun 2027 00:15:44.305,1 Jun 2027 00:28:25.220,760.915
2,1 Jun 2027 01:51:45.078,1 Jun 2027 02:03:38.793,713.715
3,1 Jun 2027 03:28:50.518,1 Jun 2027 03:35:21.319,390.801
4,1 Jun 2027 09:39:41.356,1 Jun 2027 09:49:30.707,589.351
5,1 Jun 2027 11:13:11.264,1 Jun 2027 11:25:59.177,767.913
6,1 Jun 2027 12:50:07.943,1 Jun 2027 13:01:28.710,680.767
7,1 Jun 2027 22:52:57.107,1 Jun 2027 23:01:51.390,534.282
8,2 Jun 2027 00:27:43.456,2 Jun 2027 00:40:32.767,769.311
9,2 Jun 2027 02:03:50.985,2 Jun 2027 02:15:21.059,690.074
10,2 Jun 2027 03:41:13.709,2 Jun 2027 03:46:28.003,314.294
11,2 Jun 2027 09:51:13.210,2 Jun 2027 10:01:39.759,626.549
12,2 Jun 2027 11:25:08.564,2 Jun 2027 11:38:01.253,772.690
13,2 Jun 2027 13:02:35.708,2 Jun 2027 13:13:19.698,643.990
14,2 Jun 2027 23:04:40.160,2 Jun 2027 23:14:32.910,592.749
15,3 Jun 2027 00:39:43.647,3 Jun 2027 00:52:36.906,773.259
16,3 Jun 2027 02:15:57.765,3 Jun 2027 02:27:00.103,662.338
17,3 Jun 2027 03:53:48.801,3 Jun 2027 03:57:20.614,211.813
18,3 Jun 2027 08:32:34.450,3 Jun 2027 08:35:52.162,197.712
19,3 Jun 2027 10:02:48.556,3 Jun 2027 10:13:47.655,659.099
20,3 Jun 2027 11:37:09.054,3 Jun 2027 11:50:02.481,773.427
21,3 Jun 2027 13:15:09.293,3 Jun 2027 13:25:07.574,598.281
22,3 Jun 2027 23:16:27.652,3 Jun 2027 23:27:07.177,639.525
23,4 Jun 2027 00:51:44.779,4 Jun 2027 01:04:37.745,772.966
24,4 Jun 2027 02:28:05.539,4 Jun 2027 02:38:35.825,630.286
25,4 Jun 2027 08:43:24.569,4 Jun 2027 08:48:29.510,304.942
26,4 Jun 2027 10:14:27.245,4 Jun 2027 10:25:54.545,687.300
27,4 Jun 2027 11:49:12.830,4 Jun 2027 12:02:02.772,769.942
28,4 Jun 2027 13:27:49.951,4 Jun 2027 13:36:51.175,541.224
29,4 Jun 2027 23:28:18.357,4 Jun 2027 23:39:35.521,677.164
30,5 Jun 2027 01:03:46.767,5 Jun 2027 01:16:35.391,768.624
31,5 Jun 2027 02:40:14.447,5 Jun 2027 02:50:08.068,593.622
32,5 Jun 2027 08:54:30.167,5 Jun 2027 09:00:53.557,383.390
33,5 Jun 2027 10:26:09.162,5 Jun 2027 10:38:00.538,711.376
34,5 Jun 2027 12:01:20.008,5 Jun 2027 12:14:02.037,762.029
35,5 Jun 2027 13:40:39.896,5 Jun 2027 13:48:28.406,468.510
36,5 Jun 2027 23:40:11.506,5 Jun 2027 23:51:58.786,707.280
37,6 Jun 2027 01:15:49.566,6 Jun 2027 01:28:29.887,760.322
38,6 Jun 2027 02:52:24.744,6 Jun 2027 03:01:36.598,551.855
39,6 Jun 2027 09:05:43.960,6 Jun 2027 09:13:11.628,447.667
40,6 Jun 2027 10:37:54.237,6 Jun 2027 10:50:05.713,731.476
41,6 Jun 2027 12:13:30.751,6 Jun 2027 12:26:00.142,749.391
42,6 Jun 2027 13:53:43.827,6 Jun 2027 13:59:54.696,370.869
43,6 Jun 2027 22:19:12.157,6 Jun 2027 22:22:41.488,209.331
44,6 Jun 2027 23:52:06.611,7 Jun 2027 00:04:17.541,730.930
45,7 Jun 2027 01:27:53.152,7 Jun 2027 01:40:21.284,748.132
46,7 Jun 2027 03:04:36.793,7 Jun 2027 03:13:01.049,504.257
47,7 Jun 2027 09:17:03.566,7 Jun 2027 09:25:26.155,502.590
48,7 Jun 2027 10:49:42.431,7 Jun 2027 11:02:10.096,747.665
49,7 Jun 2027 12:25:45.285,7 Jun 2027 12:37:56.895,731.610
50,7 Jun 2027 14:07:17.643,7 Jun 2027 14:10:54.303,216.660
51,7 Jun 2027 22:30:10.098,7 Jun 2027 22:36:17.087,366.989
52,8 Jun 2027 00:04:03.324,8 Jun 2027 00:16:32.206,748.883
53,8 Jun 2027 01:39:57.503,8 Jun 2027 01:52:09.574,732.071
54,8 Jun 2027 03:16:51.214,8 Jun 2027 03:24:20.835,449.621
55,8 Jun 2027 09:28:27.873,8 Jun 2027 09:37:38.275,550.402
56,8 Jun 2027 11:01:33.716,8 Jun 2027 11:14:13.704,759.988
57,8 Jun 2027 12:38:03.905,8 Jun 2027 12:49:52.049,708.144
58,8 Jun 2027 22:41:35.892,8 Jun 2027 22:49:21.622,465.730
59,9 Jun 2027 00:16:01.380,9 Jun 2027 00:28:43.071,761.691
60,9 Jun 2027 01:52:02.643,9 Jun 2027 02:03:54.754,712.111
61,9 Jun 2027 03:29:09.115,9 Jun 2027 03:35:34.868,385.753
62,9 Jun 2027 09:39:56.270,9 Jun 2027 09:49:48.629,592.359
63,9 Jun 2027 11:13:28.118,9 Jun 2027 11:26:16.530,768.412
64,9 Jun 2027 12:50:27.017,9 Jun 2027 13:01:45.269,678.251
65,9 Jun 2027 22:53:12.858,9 Jun 2027 23:02:11.929,539.072
66,10 Jun 2027 00:28:00.609,10 Jun 2027 00:40:50.359,769.750
67,10 Jun 2027 02:04:08.608,10 Jun 2027 02:15:36.784,688.177
68,10 Jun 2027 03:41:32.864,10 Jun 2027 03:46:40.832,307.968
69,10 Jun 2027 09:51:28.396,10 Jun 2027 10:01:57.583,629.187
70,10 Jun 2027 11:25:25.654,10 Jun 2027 11:38:18.541,772.886
71,10 Jun 2027 13:02:55.186,10 Jun 2027 13:13:36.046,640.860
72,10 Jun 2027 23:04:56.293,10 Jun 2027 23:14:52.848,596.555
73,11 Jun 2027 00:40:00.870,11 Jun 2027 00:52:54.247,773.378
74,11 Jun 2027 02:16:15.454,11 Jun 2027 02:27:15.587,660.132
75,11 Jun 2027 03:54:09.420,11 Jun 2027 03:57:31.816,202.396
76,11 Jun 2027 08:32:45.289,11 Jun 2027 08:36:13.156,207.867
77,11 Jun 2027 10:03:03.999,11 Jun 2027 10:14:05.391,661.392
78,11 Jun 2027 11:37:26.388,11 Jun 2027 11:50:19.699,773.311
79,11 Jun 2027 13:15:29.252,11 Jun 2027 13:25:23.644,594.392
80,11 Jun 2027 23:16:44.052,11 Jun 2027 23:27:26.639,642.587
81,12 Jun 2027 00:52:02.064,12 Jun 2027 01:04:54.845,772.780
82,12 Jun 2027 02:28:23.302,12 Jun 2027 02:38:51.057,627.755
83,12 Jun 2027 08:43:37.206,12 Jun 2027 08:48:48.866,311.660
84,12 Jun 2027 10:14:42.935,12 Jun 2027 10:26:12.206,689.271
85,12 Jun 2027 11:49:30.413,12 Jun 2027 12:02:19.912,769.499
86,12 Jun 2027 13:28:10.515,12 Jun 2027 13:37:06.849,536.334
87,12 Jun 2027 23:28:34.956,12 Jun 2027 23:39:54.580,679.624
88,13 Jun 2027 01:04:04.111,13 Jun 2027 01:16:52.255,768.144
89,13 Jun 2027 02:40:32.297,13 Jun 2027 02:50:23.035,590.738
90,13 Jun 2027 08:54:43.583,13 Jun 2027 09:01:12.300,388.717
91,13 Jun 2027 10:26:25.092,13 Jun 2027 10:38:18.131,713.039
92,13 Jun 2027 12:01:37.853,13 Jun 2027 12:14:19.091,761.238
93,13 Jun 2027 13:41:01.302,13 Jun 2027 13:48:43.458,462.156
94,13 Jun 2027 23:40:28.261,13 Jun 2027 23:52:17.492,709.231
