dataset/facility_timing/facility_Facility-Murmansk1/Murmansk1-To-KinoSat_111502.csv

Acces,Start Time (UTCG),Stop Time (UTCG),Duration (sec)
1,1 Jun 2027 02:07:14.535,1 Jun 2027 02:16:18.467,543.932
2,1 Jun 2027 03:43:02.225,1 Jun 2027 03:55:12.502,730.277
3,1 Jun 2027 05:19:01.088,1 Jun 2027 05:31:58.335,777.246
4,1 Jun 2027 06:54:52.749,1 Jun 2027 07:07:09.920,737.171
5,1 Jun 2027 08:30:21.214,1 Jun 2027 08:41:24.094,662.880
6,1 Jun 2027 10:05:08.448,1 Jun 2027 10:15:32.704,624.256
7,1 Jun 2027 11:39:17.228,1 Jun 2027 11:50:19.592,662.365
8,1 Jun 2027 13:13:31.143,1 Jun 2027 13:25:47.807,736.664
9,1 Jun 2027 14:48:42.143,1 Jun 2027 15:01:39.350,777.208
10,1 Jun 2027 16:25:27.143,1 Jun 2027 16:37:38.212,731.069
11,1 Jun 2027 18:04:20.020,1 Jun 2027 18:13:26.112,546.092
12,2 Jun 2027 02:19:13.225,2 Jun 2027 02:28:51.262,578.037
13,2 Jun 2027 03:55:04.067,2 Jun 2027 04:07:26.600,742.533
14,2 Jun 2027 05:31:02.820,2 Jun 2027 05:43:58.868,776.048
15,2 Jun 2027 07:06:52.517,2 Jun 2027 07:19:00.916,728.399
16,2 Jun 2027 08:42:16.705,2 Jun 2027 08:53:11.285,654.580
17,2 Jun 2027 10:16:58.094,2 Jun 2027 10:27:22.996,624.902
18,2 Jun 2027 11:51:04.489,2 Jun 2027 12:02:15.732,671.243
19,2 Jun 2027 13:25:23.010,2 Jun 2027 13:37:47.919,744.909
20,2 Jun 2027 15:00:44.086,2 Jun 2027 15:13:41.184,777.098
21,2 Jun 2027 16:37:43.118,2 Jun 2027 16:49:39.917,716.799
22,2 Jun 2027 18:16:55.753,2 Jun 2027 18:25:23.800,508.047
23,3 Jun 2027 00:56:29.812,3 Jun 2027 00:59:46.436,196.624
24,3 Jun 2027 02:31:12.714,3 Jun 2027 02:41:21.210,608.496
25,3 Jun 2027 04:07:05.998,3 Jun 2027 04:19:38.779,752.781
26,3 Jun 2027 05:43:04.404,3 Jun 2027 05:55:57.967,773.564
27,3 Jun 2027 07:18:51.895,3 Jun 2027 07:30:51.063,719.167
28,3 Jun 2027 08:54:11.490,3 Jun 2027 09:04:58.510,647.020
29,3 Jun 2027 10:28:47.118,3 Jun 2027 10:39:14.010,626.892
30,3 Jun 2027 12:02:51.947,3 Jun 2027 12:14:12.509,680.561
31,3 Jun 2027 13:37:15.899,3 Jun 2027 13:49:48.364,752.464
32,3 Jun 2027 15:12:47.589,3 Jun 2027 15:25:43.109,775.520
33,3 Jun 2027 16:50:01.161,3 Jun 2027 17:01:41.438,700.277
34,3 Jun 2027 18:29:34.984,3 Jun 2027 18:37:20.077,465.093
35,4 Jun 2027 01:08:05.223,4 Jun 2027 01:12:54.873,289.649
36,4 Jun 2027 02:43:12.825,4 Jun 2027 02:53:48.502,635.677
37,4 Jun 2027 04:19:07.993,4 Jun 2027 04:31:49.099,761.106
38,4 Jun 2027 05:55:05.825,4 Jun 2027 06:07:55.684,769.859
39,4 Jun 2027 07:30:50.829,4 Jun 2027 07:42:40.459,709.630
40,4 Jun 2027 09:06:05.539,4 Jun 2027 09:16:45.891,640.352
41,4 Jun 2027 10:40:35.595,4 Jun 2027 10:51:05.776,630.181
42,4 Jun 2027 12:14:39.725,4 Jun 2027 12:26:09.897,690.172
43,4 Jun 2027 13:49:09.879,4 Jun 2027 14:01:49.097,759.218
44,4 Jun 2027 15:24:52.709,4 Jun 2027 15:37:45.092,772.383
45,4 Jun 2027 17:02:21.365,4 Jun 2027 17:13:42.726,681.360
46,4 Jun 2027 18:42:18.297,4 Jun 2027 18:49:14.369,416.072
47,5 Jun 2027 01:19:51.471,5 Jun 2027 01:25:50.415,358.943
48,5 Jun 2027 02:55:13.422,5 Jun 2027 03:06:13.312,659.889
49,5 Jun 2027 04:31:10.019,5 Jun 2027 04:43:57.622,767.603
50,5 Jun 2027 06:07:07.043,5 Jun 2027 06:19:52.089,765.046
51,5 Jun 2027 07:42:49.288,5 Jun 2027 07:54:29.208,699.920
52,5 Jun 2027 09:17:58.829,5 Jun 2027 09:28:33.535,634.707
53,5 Jun 2027 10:52:23.601,5 Jun 2027 11:02:58.302,634.701
54,5 Jun 2027 12:26:27.928,5 Jun 2027 12:38:07.838,699.910
55,5 Jun 2027 14:01:05.041,5 Jun 2027 14:13:50.084,765.043
56,5 Jun 2027 15:36:59.502,5 Jun 2027 15:49:47.108,767.606
57,5 Jun 2027 17:14:43.816,5 Jun 2027 17:25:43.704,659.888
58,5 Jun 2027 18:55:06.705,5 Jun 2027 19:01:05.652,358.948
59,6 Jun 2027 01:31:42.773,6 Jun 2027 01:38:38.808,416.035
60,6 Jun 2027 03:07:14.407,6 Jun 2027 03:18:35.754,681.347
61,6 Jun 2027 04:43:12.033,6 Jun 2027 04:56:04.414,772.380
62,6 Jun 2027 06:19:08.030,6 Jun 2027 06:31:47.253,759.223
63,6 Jun 2027 07:54:47.228,6 Jun 2027 08:06:17.412,690.184
64,6 Jun 2027 09:29:51.348,6 Jun 2027 09:40:21.546,630.197
65,6 Jun 2027 11:04:11.235,6 Jun 2027 11:14:51.598,640.363
66,6 Jun 2027 12:38:16.669,6 Jun 2027 12:50:06.304,709.636
67,6 Jun 2027 14:13:01.441,6 Jun 2027 14:25:51.304,769.863
68,6 Jun 2027 15:49:08.028,6 Jun 2027 16:01:49.131,761.103
69,6 Jun 2027 17:27:08.626,6 Jun 2027 17:37:44.295,635.669
70,6 Jun 2027 19:08:02.269,6 Jun 2027 19:12:51.872,289.603
71,7 Jun 2027 01:43:37.076,7 Jun 2027 01:51:22.107,465.032
72,7 Jun 2027 03:19:15.695,7 Jun 2027 03:30:55.955,700.260
73,7 Jun 2027 04:55:14.022,7 Jun 2027 05:08:09.533,775.511
74,7 Jun 2027 06:31:08.760,7 Jun 2027 06:43:41.238,752.477
75,7 Jun 2027 08:06:44.611,7 Jun 2027 08:18:05.194,680.584
76,7 Jun 2027 09:41:43.105,7 Jun 2027 09:52:10.027,626.922
77,7 Jun 2027 11:15:58.610,7 Jun 2027 11:26:45.650,647.040
78,7 Jun 2027 12:50:06.066,7 Jun 2027 13:02:05.244,719.178
79,7 Jun 2027 14:24:59.158,7 Jun 2027 14:37:52.721,773.562
80,7 Jun 2027 16:01:18.354,7 Jun 2027 16:13:51.122,752.768
81,7 Jun 2027 17:39:35.928,7 Jun 2027 17:49:44.396,608.468
82,7 Jun 2027 19:21:10.761,7 Jun 2027 19:24:27.228,196.467
83,8 Jun 2027 01:55:33.360,8 Jun 2027 02:04:01.333,507.972
84,8 Jun 2027 03:31:17.221,8 Jun 2027 03:43:13.995,716.775
85,8 Jun 2027 05:07:15.945,8 Jun 2027 05:20:13.037,777.092
86,8 Jun 2027 06:43:09.198,8 Jun 2027 06:55:34.122,744.924
87,8 Jun 2027 08:18:41.385,8 Jun 2027 08:29:52.658,671.272
88,8 Jun 2027 09:53:34.111,8 Jun 2027 10:03:59.053,624.942
89,8 Jun 2027 11:27:45.829,8 Jun 2027 11:38:40.443,654.614
90,8 Jun 2027 13:01:56.206,8 Jun 2027 13:14:04.617,728.411
91,8 Jun 2027 14:36:58.259,8 Jun 2027 14:49:54.307,776.048
92,8 Jun 2027 16:13:30.532,8 Jun 2027 16:25:53.049,742.518
93,8 Jun 2027 17:52:05.882,8 Jun 2027 18:01:43.871,577.989
94,9 Jun 2027 02:07:31.055,9 Jun 2027 02:16:37.070,546.014
95,9 Jun 2027 03:43:18.932,9 Jun 2027 03:55:29.974,731.042
96,9 Jun 2027 05:19:17.777,9 Jun 2027 05:32:14.985,777.208
97,9 Jun 2027 06:55:09.309,9 Jun 2027 07:07:25.997,736.689
98,9 Jun 2027 08:30:37.514,9 Jun 2027 08:41:39.925,662.411
99,9 Jun 2027 10:05:24.396,9 Jun 2027 10:15:48.708,624.313
100,9 Jun 2027 11:39:33.016,9 Jun 2027 11:50:35.940,662.924
101,9 Jun 2027 13:13:47.199,9 Jun 2027 13:26:04.392,737.193
102,9 Jun 2027 14:48:58.796,9 Jun 2027 15:01:56.033,777.237
103,9 Jun 2027 16:25:44.635,9 Jun 2027 16:37:54.884,730.249
104,9 Jun 2027 18:04:38.688,9 Jun 2027 18:13:42.542,543.854
105,10 Jun 2027 02:19:29.794,10 Jun 2027 02:29:09.693,579.900
106,10 Jun 2027 03:55:20.770,10 Jun 2027 04:07:43.958,743.188
107,10 Jun 2027 05:31:19.495,10 Jun 2027 05:44:15.438,775.944
108,10 Jun 2027 07:07:09.061,10 Jun 2027 07:19:16.932,727.871
109,10 Jun 2027 08:42:32.967,10 Jun 2027 08:53:27.113,654.146
110,10 Jun 2027 10:17:14.002,10 Jun 2027 10:27:39.041,625.038
111,10 Jun 2027 11:51:20.291,10 Jun 2027 12:02:32.120,671.829
112,10 Jun 2027 13:25:39.122,10 Jun 2027 13:38:04.528,745.406
113,10 Jun 2027 15:01:00.831,10 Jun 2027 15:13:57.877,777.046
114,10 Jun 2027 16:38:00.733,10 Jun 2027 16:49:56.576,715.843
115,10 Jun 2027 18:17:14.633,10 Jun 2027 18:25:40.145,505.512
116,11 Jun 2027 00:56:44.494,11 Jun 2027 01:00:07.612,203.118
117,11 Jun 2027 02:31:29.319,11 Jun 2027 02:41:39.474,610.155
118,11 Jun 2027 04:07:22.711,11 Jun 2027 04:19:56.022,753.311
119,11 Jun 2027 05:43:21.073,11 Jun 2027 05:56:14.447,773.374
120,11 Jun 2027 07:19:08.403,11 Jun 2027 07:31:07.033,718.630
121,11 Jun 2027 08:54:27.710,11 Jun 2027 09:05:14.345,646.635
122,11 Jun 2027 10:29:02.990,11 Jun 2027 10:39:30.096,627.106
123,11 Jun 2027 12:03:07.761,11 Jun 2027 12:14:28.937,681.176
124,11 Jun 2027 13:37:32.071,11 Jun 2027 13:50:04.986,752.915
125,11 Jun 2027 15:13:04.434,11 Jun 2027 15:25:59.798,775.364
126,11 Jun 2027 16:50:18.910,11 Jun 2027 17:01:58.079,699.169
127,11 Jun 2027 18:29:54.092,11 Jun 2027 18:37:36.318,462.227
128,12 Jun 2027 01:08:20.868,12 Jun 2027 01:13:14.964,294.096
129,12 Jun 2027 02:43:29.459,12 Jun 2027 02:54:06.617,637.158
130,12 Jun 2027 04:19:24.706,12 Jun 2027 04:32:06.232,761.526
131,12 Jun 2027 05:55:22.473,12 Jun 2027 06:08:12.084,769.612
132,12 Jun 2027 07:31:07.315,12 Jun 2027 07:42:56.387,709.072
133,12 Jun 2027 09:06:21.708,12 Jun 2027 09:17:01.738,640.029
134,12 Jun 2027 10:40:51.432,12 Jun 2027 10:51:21.903,630.471
135,12 Jun 2027 12:14:55.561,12 Jun 2027 12:26:26.353,690.792
136,12 Jun 2027 13:49:26.123,12 Jun 2027 14:02:05.732,759.609
137,12 Jun 2027 15:25:09.649,12 Jun 2027 15:38:01.782,772.133
138,12 Jun 2027 17:02:39.244,12 Jun 2027 17:13:59.344,680.100
139,12 Jun 2027 18:42:37.686,12 Jun 2027 18:49:30.448,412.763
140,13 Jun 2027 01:20:07.494,13 Jun 2027 01:26:10.001,362.507
141,13 Jun 2027 02:55:30.076,13 Jun 2027 03:06:31.283,661.208
142,13 Jun 2027 04:31:26.725,13 Jun 2027 04:44:14.648,767.923
143,13 Jun 2027 06:07:23.680,13 Jun 2027 06:20:08.413,764.733
144,13 Jun 2027 07:43:05.737,13 Jun 2027 07:54:45.105,699.368
145,13 Jun 2027 09:18:14.949,13 Jun 2027 09:28:49.403,634.454
146,13 Jun 2027 10:52:39.417,13 Jun 2027 11:03:14.479,635.062
147,13 Jun 2027 12:26:43.794,13 Jun 2027 12:38:24.325,700.530
148,13 Jun 2027 14:01:21.357,13 Jun 2027 14:14:06.732,765.375
149,13 Jun 2027 15:37:16.545,13 Jun 2027 15:50:03.796,767.251
150,13 Jun 2027 17:15:01.835,13 Jun 2027 17:26:00.297,658.462
151,13 Jun 2027 18:55:26.464,13 Jun 2027 19:01:21.486,355.022
