dataset/facility_timing/facility_Facility-Murmansk1/Murmansk1-To-KinoSat_111503.csv

Acces,Start Time (UTCG),Stop Time (UTCG),Duration (sec)
1,1 Jun 2027 01:57:41.983,1 Jun 2027 02:06:15.865,513.881
2,1 Jun 2027 03:33:26.520,1 Jun 2027 03:45:25.545,719.025
3,1 Jun 2027 05:09:25.295,1 Jun 2027 05:22:22.496,777.201
4,1 Jun 2027 06:45:18.323,1 Jun 2027 06:57:42.069,743.746
5,1 Jun 2027 08:20:49.959,1 Jun 2027 08:31:59.870,669.911
6,1 Jun 2027 09:55:41.841,1 Jun 2027 10:06:06.559,624.717
7,1 Jun 2027 11:29:53.058,1 Jun 2027 11:40:48.798,655.740
8,1 Jun 2027 13:04:03.925,1 Jun 2027 13:16:13.627,729.702
9,1 Jun 2027 14:39:07.325,1 Jun 2027 14:52:03.629,776.303
10,1 Jun 2027 16:15:41.537,1 Jun 2027 16:28:02.416,740.878
11,1 Jun 2027 17:54:19.530,1 Jun 2027 18:03:52.849,573.318
12,2 Jun 2027 02:09:39.851,2 Jun 2027 02:18:51.124,551.273
13,2 Jun 2027 03:45:28.256,2 Jun 2027 03:57:41.224,732.968
14,2 Jun 2027 05:21:27.113,2 Jun 2027 05:34:24.220,777.107
15,2 Jun 2027 06:57:18.385,2 Jun 2027 07:09:33.801,735.416
16,2 Jun 2027 08:32:45.993,2 Jun 2027 08:43:47.118,661.125
17,2 Jun 2027 10:07:32.029,2 Jun 2027 10:17:56.308,624.280
18,2 Jun 2027 11:41:40.249,2 Jun 2027 11:52:44.400,664.151
19,2 Jun 2027 13:15:55.049,2 Jun 2027 13:28:13.459,738.410
20,2 Jun 2027 14:51:08.076,2 Jun 2027 15:04:05.376,777.300
21,2 Jun 2027 16:27:55.928,2 Jun 2027 16:40:04.236,728.307
22,2 Jun 2027 18:06:52.774,2 Jun 2027 18:15:51.387,538.613
23,3 Jun 2027 00:47:49.110,3 Jun 2027 00:48:42.178,53.068
24,3 Jun 2027 02:21:38.724,3 Jun 2027 02:31:23.315,584.591
25,3 Jun 2027 03:57:30.114,3 Jun 2027 04:09:54.923,744.809
26,3 Jun 2027 05:33:28.814,3 Jun 2027 05:46:24.460,775.646
27,3 Jun 2027 07:09:18.084,3 Jun 2027 07:21:24.607,726.524
28,3 Jun 2027 08:44:41.346,3 Jun 2027 08:55:34.305,652.959
29,3 Jun 2027 10:19:21.537,3 Jun 2027 10:29:46.746,625.209
30,3 Jun 2027 11:53:27.546,3 Jun 2027 12:04:40.678,673.132
31,3 Jun 2027 13:27:47.116,3 Jun 2027 13:40:13.647,746.531
32,3 Jun 2027 15:03:10.336,3 Jun 2027 15:16:07.236,776.900
33,3 Jun 2027 16:40:12.321,3 Jun 2027 16:52:05.907,713.586
34,3 Jun 2027 18:19:29.201,3 Jun 2027 18:27:48.815,499.614
35,4 Jun 2027 00:58:48.870,4 Jun 2027 01:02:27.893,219.022
36,4 Jun 2027 02:33:38.354,4 Jun 2027 02:43:52.697,614.344
37,4 Jun 2027 04:09:32.065,4 Jun 2027 04:22:06.712,754.648
38,4 Jun 2027 05:45:30.372,4 Jun 2027 05:58:23.264,772.892
39,4 Jun 2027 07:21:17.367,4 Jun 2027 07:33:14.593,717.226
40,4 Jun 2027 08:56:35.985,4 Jun 2027 09:07:21.553,645.568
41,4 Jun 2027 10:31:10.441,4 Jun 2027 10:41:37.910,627.469
42,4 Jun 2027 12:05:15.059,4 Jun 2027 12:16:37.587,682.527
43,4 Jun 2027 13:39:40.221,4 Jun 2027 13:52:14.151,753.930
44,4 Jun 2027 15:15:14.172,4 Jun 2027 15:28:09.170,774.998
45,4 Jun 2027 16:52:30.807,4 Jun 2027 17:04:07.384,696.577
46,4 Jun 2027 18:32:09.211,4 Jun 2027 18:39:44.743,455.532
47,5 Jun 2027 01:10:27.468,5 Jun 2027 01:15:32.722,305.255
48,5 Jun 2027 02:45:38.574,5 Jun 2027 02:56:19.468,640.894
49,5 Jun 2027 04:21:34.072,5 Jun 2027 04:34:16.653,762.581
50,5 Jun 2027 05:57:31.747,5 Jun 2027 06:10:20.707,768.960
51,5 Jun 2027 07:33:16.208,5 Jun 2027 07:45:03.847,707.639
52,5 Jun 2027 09:08:29.875,5 Jun 2027 09:19:08.978,639.103
53,5 Jun 2027 10:42:58.810,5 Jun 2027 10:53:29.830,631.020
54,5 Jun 2027 12:17:02.912,5 Jun 2027 12:28:35.086,692.174
55,5 Jun 2027 13:51:34.443,5 Jun 2027 14:04:14.939,760.497
56,5 Jun 2027 15:27:19.627,5 Jun 2027 15:40:11.163,771.535
57,5 Jun 2027 17:04:51.463,5 Jun 2027 17:16:08.610,677.147
58,5 Jun 2027 18:44:53.471,5 Jun 2027 18:51:38.511,405.040
59,6 Jun 2027 01:22:15.023,6 Jun 2027 01:28:26.524,371.501
60,6 Jun 2027 02:57:39.260,6 Jun 2027 03:08:43.780,664.520
61,6 Jun 2027 04:33:36.091,6 Jun 2027 04:46:24.817,768.727
62,6 Jun 2027 06:09:32.921,6 Jun 2027 06:22:16.850,763.929
63,6 Jun 2027 07:45:14.564,6 Jun 2027 07:56:52.479,697.915
64,6 Jun 2027 09:20:23.004,6 Jun 2027 09:30:56.692,633.688
65,6 Jun 2027 10:54:46.733,6 Jun 2027 11:05:22.521,635.788
66,6 Jun 2027 12:28:51.213,6 Jun 2027 12:40:33.143,701.930
67,6 Jun 2027 14:03:29.850,6 Jun 2027 14:16:15.980,766.131
68,6 Jun 2027 15:39:26.773,6 Jun 2027 15:52:13.186,766.413
69,6 Jun 2027 17:17:14.390,6 Jun 2027 17:28:09.510,655.121
70,6 Jun 2027 18:57:43.130,6 Jun 2027 19:03:28.981,345.851
71,7 Jun 2027 01:34:07.061,7 Jun 2027 01:41:13.756,426.695
72,7 Jun 2027 03:09:40.311,7 Jun 2027 03:21:05.756,685.445
73,7 Jun 2027 04:45:38.108,7 Jun 2027 04:58:31.261,773.153
74,7 Jun 2027 06:21:33.860,7 Jun 2027 06:34:11.766,757.906
75,7 Jun 2027 07:57:12.391,7 Jun 2027 08:08:40.585,688.194
76,7 Jun 2027 09:32:15.368,7 Jun 2027 09:42:44.790,629.422
77,7 Jun 2027 11:06:34.307,7 Jun 2027 11:17:15.970,641.664
78,7 Jun 2027 12:40:40.084,7 Jun 2027 12:52:31.708,711.624
79,7 Jun 2027 14:15:26.518,7 Jun 2027 14:28:17.239,770.721
80,7 Jun 2027 15:51:35.665,7 Jun 2027 16:04:15.201,759.537
81,7 Jun 2027 17:29:39.702,7 Jun 2027 17:40:10.015,630.313
82,7 Jun 2027 19:10:40.648,7 Jun 2027 19:15:13.672,273.024
83,8 Jun 2027 01:46:01.836,8 Jun 2027 01:53:56.151,474.315
84,8 Jun 2027 03:21:41.657,8 Jun 2027 03:33:25.502,703.845
85,8 Jun 2027 04:57:40.082,8 Jun 2027 05:10:36.043,775.960
86,8 Jun 2027 06:33:34.532,8 Jun 2027 06:46:05.517,750.985
87,8 Jun 2027 08:09:09.653,8 Jun 2027 08:20:28.293,678.640
88,8 Jun 2027 09:44:06.968,8 Jun 2027 09:54:33.380,626.412
89,8 Jun 2027 11:18:21.643,8 Jun 2027 11:29:10.178,648.534
90,8 Jun 2027 12:52:29.628,8 Jun 2027 13:04:30.741,721.113
91,8 Jun 2027 14:27:24.515,8 Jun 2027 14:40:18.697,774.182
92,8 Jun 2027 16:03:46.368,8 Jun 2027 16:16:17.182,750.815
93,8 Jun 2027 17:42:07.536,8 Jun 2027 17:52:09.998,602.463
94,8 Jun 2027 19:23:53.762,8 Jun 2027 19:26:44.826,171.064
95,9 Jun 2027 01:57:58.452,9 Jun 2027 02:06:34.618,516.166
96,9 Jun 2027 03:33:43.219,9 Jun 2027 03:45:43.110,719.891
97,9 Jun 2027 05:09:41.989,9 Jun 2027 05:22:39.221,777.232
98,9 Jun 2027 06:45:34.905,9 Jun 2027 06:57:58.188,743.283
99,9 Jun 2027 08:21:06.298,9 Jun 2027 08:32:15.704,669.406
100,9 Jun 2027 09:55:57.822,9 Jun 2027 10:06:22.530,624.708
101,9 Jun 2027 11:30:08.844,9 Jun 2027 11:41:05.119,656.275
102,9 Jun 2027 13:04:19.933,9 Jun 2027 13:16:30.200,730.266
103,9 Jun 2027 14:39:23.907,9 Jun 2027 14:52:20.309,776.403
104,9 Jun 2027 16:15:58.938,9 Jun 2027 16:28:19.092,740.154
105,9 Jun 2027 17:54:38.056,9 Jun 2027 18:04:09.324,571.268
106,10 Jun 2027 02:09:56.381,10 Jun 2027 02:19:09.689,553.308
107,10 Jun 2027 03:45:44.960,10 Jun 2027 03:57:58.672,733.711
108,10 Jun 2027 05:21:43.800,10 Jun 2027 05:34:40.855,777.055
109,10 Jun 2027 06:57:34.944,10 Jun 2027 07:09:49.863,734.919
110,10 Jun 2027 08:33:02.289,10 Jun 2027 08:44:02.948,660.659
111,10 Jun 2027 10:07:47.967,10 Jun 2027 10:18:12.319,624.352
112,10 Jun 2027 11:41:56.038,10 Jun 2027 11:53:00.758,664.720
113,10 Jun 2027 13:16:11.113,10 Jun 2027 13:28:30.048,738.936
114,10 Jun 2027 14:51:24.748,10 Jun 2027 15:04:22.061,777.313
115,10 Jun 2027 16:28:13.445,10 Jun 2027 16:40:20.901,727.455
116,10 Jun 2027 18:07:11.486,10 Jun 2027 18:16:07.798,536.312
117,11 Jun 2027 00:47:56.909,11 Jun 2027 00:49:10.339,73.430
118,11 Jun 2027 02:21:55.299,11 Jun 2027 02:31:41.709,586.410
119,11 Jun 2027 03:57:46.822,11 Jun 2027 04:10:12.254,745.433
120,11 Jun 2027 05:33:45.489,11 Jun 2027 05:46:41.008,775.519
121,11 Jun 2027 07:09:34.616,11 Jun 2027 07:21:40.621,726.005
122,11 Jun 2027 08:44:57.597,11 Jun 2027 08:55:50.135,652.538
123,11 Jun 2027 10:19:37.437,11 Jun 2027 10:30:02.798,625.361
124,11 Jun 2027 11:53:43.345,11 Jun 2027 12:04:57.073,673.728
125,11 Jun 2027 13:28:03.240,11 Jun 2027 13:40:30.252,747.012
126,11 Jun 2027 15:03:27.104,11 Jun 2027 15:16:23.924,776.820
127,11 Jun 2027 16:40:29.963,11 Jun 2027 16:52:22.558,712.595
128,11 Jun 2027 18:19:48.120,11 Jun 2027 18:28:05.141,497.020
129,12 Jun 2027 00:59:03.862,12 Jun 2027 01:02:48.736,224.874
130,12 Jun 2027 02:33:54.959,12 Jun 2027 02:44:10.933,615.973
131,12 Jun 2027 04:09:48.778,12 Jun 2027 04:22:23.931,755.154
132,12 Jun 2027 05:45:47.031,12 Jun 2027 05:58:39.728,772.696
133,12 Jun 2027 07:21:33.871,12 Jun 2027 07:33:30.556,716.685
134,12 Jun 2027 08:56:52.190,12 Jun 2027 09:07:37.390,645.200
135,12 Jun 2027 10:31:26.305,12 Jun 2027 10:41:54.006,627.701
136,12 Jun 2027 12:05:30.872,12 Jun 2027 12:16:54.016,683.145
137,12 Jun 2027 13:39:56.409,12 Jun 2027 13:52:30.775,754.366
138,12 Jun 2027 15:15:31.032,12 Jun 2027 15:28:25.859,774.827
139,12 Jun 2027 16:52:48.579,12 Jun 2027 17:04:24.018,695.440
140,12 Jun 2027 18:32:28.371,12 Jun 2027 18:40:00.952,452.581
141,13 Jun 2027 01:10:43.213,13 Jun 2027 01:15:52.686,309.472
142,13 Jun 2027 02:45:55.209,13 Jun 2027 02:56:37.553,642.344
143,13 Jun 2027 04:21:50.779,13 Jun 2027 04:34:33.764,762.984
144,13 Jun 2027 05:57:48.395,13 Jun 2027 06:10:37.091,768.696
145,13 Jun 2027 07:33:32.682,13 Jun 2027 07:45:19.770,707.088
146,13 Jun 2027 09:08:46.033,13 Jun 2027 09:19:24.833,638.800
147,13 Jun 2027 10:43:14.645,13 Jun 2027 10:53:45.970,631.325
148,13 Jun 2027 12:17:18.753,13 Jun 2027 12:28:51.548,692.795
149,13 Jun 2027 13:51:50.703,13 Jun 2027 14:04:31.577,760.874
150,13 Jun 2027 15:27:36.588,13 Jun 2027 15:40:27.851,771.264
151,13 Jun 2027 17:05:09.369,13 Jun 2027 17:16:25.223,675.853
152,13 Jun 2027 18:45:12.926,13 Jun 2027 18:51:54.548,401.621
