dataset/facility_timing/facility_Facility-Murmansk1/Murmansk1-To-KinoSat_110106.csv

Acces,Start Time (UTCG),Stop Time (UTCG),Duration (sec)
1,1 Jun 2027 00:51:12.918,1 Jun 2027 01:02:29.750,676.832
2,1 Jun 2027 02:26:07.881,1 Jun 2027 02:36:35.668,627.787
3,1 Jun 2027 04:00:21.312,1 Jun 2027 04:11:14.460,653.147
4,1 Jun 2027 05:34:30.735,1 Jun 2027 05:46:36.279,725.545
5,1 Jun 2027 07:09:29.268,1 Jun 2027 07:22:24.522,775.254
6,1 Jun 2027 08:45:56.269,1 Jun 2027 08:58:22.516,746.247
7,1 Jun 2027 10:24:24.652,1 Jun 2027 10:34:13.476,588.824
8,1 Jun 2027 12:06:48.902,1 Jun 2027 12:08:16.181,87.279
9,1 Jun 2027 18:40:04.622,1 Jun 2027 18:48:51.326,526.704
10,1 Jun 2027 20:15:49.684,1 Jun 2027 20:27:53.616,723.932
11,1 Jun 2027 21:51:47.838,1 Jun 2027 22:04:45.074,777.236
12,1 Jun 2027 23:27:39.603,1 Jun 2027 23:40:00.762,741.159
13,2 Jun 2027 01:03:09.110,2 Jun 2027 01:14:16.999,667.889
14,2 Jun 2027 02:37:58.321,2 Jun 2027 02:48:24.903,626.582
15,2 Jun 2027 04:12:08.413,2 Jun 2027 04:23:09.435,661.022
16,2 Jun 2027 05:46:21.249,2 Jun 2027 05:58:35.626,734.377
17,2 Jun 2027 07:21:29.023,2 Jun 2027 07:34:25.912,776.889
18,2 Jun 2027 08:58:09.334,2 Jun 2027 09:10:24.096,734.762
19,2 Jun 2027 10:36:56.012,2 Jun 2027 10:46:12.134,556.122
20,2 Jun 2027 18:52:02.512,2 Jun 2027 19:01:25.111,562.599
21,2 Jun 2027 20:27:51.159,2 Jun 2027 20:40:08.254,737.095
22,2 Jun 2027 22:03:49.330,2 Jun 2027 22:16:46.012,776.682
23,2 Jun 2027 23:39:39.254,2 Jun 2027 23:51:51.987,732.733
24,3 Jun 2027 01:15:04.642,3 Jun 2027 01:26:04.112,659.470
25,3 Jun 2027 02:49:48.078,3 Jun 2027 03:00:14.780,626.702
26,3 Jun 2027 04:23:55.547,3 Jun 2027 04:35:05.091,669.544
27,3 Jun 2027 05:58:12.652,3 Jun 2027 06:10:35.342,742.690
28,3 Jun 2027 07:33:30.237,3 Jun 2027 07:46:27.429,777.193
29,3 Jun 2027 09:10:24.341,3 Jun 2027 09:22:25.555,721.214
30,3 Jun 2027 10:49:30.384,3 Jun 2027 10:58:09.826,519.442
31,3 Jun 2027 17:29:43.103,3 Jun 2027 17:31:50.299,127.196
32,3 Jun 2027 19:04:01.324,3 Jun 2027 19:13:55.937,594.613
33,3 Jun 2027 20:39:52.756,3 Jun 2027 20:52:20.953,748.197
34,3 Jun 2027 22:15:50.694,3 Jun 2027 22:28:45.496,774.802
35,3 Jun 2027 23:51:38.521,4 Jun 2027 00:03:42.341,723.820
36,4 Jun 2027 01:26:59.491,4 Jun 2027 01:37:51.216,651.725
37,4 Jun 2027 03:01:37.201,4 Jun 2027 03:12:05.351,628.150
38,4 Jun 2027 04:35:42.834,4 Jun 2027 04:47:01.394,678.560
39,4 Jun 2027 06:10:05.029,4 Jun 2027 06:22:35.389,750.360
40,4 Jun 2027 07:45:32.976,4 Jun 2027 07:58:29.034,776.058
41,4 Jun 2027 09:22:41.380,4 Jun 2027 09:34:26.839,705.459
42,4 Jun 2027 11:02:08.103,4 Jun 2027 11:10:06.228,478.125
43,4 Jun 2027 17:41:04.740,4 Jun 2027 17:45:12.679,247.939
44,4 Jun 2027 19:16:00.838,4 Jun 2027 19:26:24.043,623.205
45,4 Jun 2027 20:51:54.431,4 Jun 2027 21:04:31.785,757.354
46,4 Jun 2027 22:27:51.898,4 Jun 2027 22:40:43.597,771.698
47,5 Jun 2027 00:03:37.381,5 Jun 2027 00:15:31.921,714.540
48,5 Jun 2027 01:38:53.617,5 Jun 2027 01:49:38.423,644.806
49,5 Jun 2027 03:13:25.758,5 Jun 2027 03:23:56.648,630.890
50,5 Jun 2027 04:47:30.389,5 Jun 2027 04:58:58.306,687.917
51,5 Jun 2027 06:21:58.466,5 Jun 2027 06:34:35.742,757.276
52,5 Jun 2027 07:57:37.287,5 Jun 2027 08:10:30.712,773.425
53,5 Jun 2027 09:35:00.520,5 Jun 2027 09:46:27.907,687.388
54,5 Jun 2027 11:14:49.693,5 Jun 2027 11:22:00.839,431.145
55,5 Jun 2027 17:52:46.410,5 Jun 2027 17:58:12.981,326.571
56,5 Jun 2027 19:28:00.901,5 Jun 2027 19:38:49.602,648.701
57,5 Jun 2027 21:03:56.153,5 Jun 2027 21:16:40.813,764.660
58,5 Jun 2027 22:39:52.923,5 Jun 2027 22:52:40.364,767.441
59,6 Jun 2027 00:15:35.777,6 Jun 2027 00:27:20.811,705.033
60,6 Jun 2027 01:50:47.014,6 Jun 2027 02:01:25.843,638.829
61,6 Jun 2027 03:25:13.829,6 Jun 2027 03:35:48.689,634.859
62,6 Jun 2027 04:59:18.330,6 Jun 2027 05:10:55.787,697.457
63,6 Jun 2027 06:33:53.032,6 Jun 2027 06:46:36.368,763.336
64,6 Jun 2027 08:09:43.241,6 Jun 2027 08:22:32.435,769.194
65,6 Jun 2027 09:47:21.866,6 Jun 2027 09:58:28.687,666.821
66,6 Jun 2027 11:27:36.007,6 Jun 2027 11:33:52.798,376.792
67,6 Jun 2027 18:04:35.179,6 Jun 2027 18:11:04.123,388.944
68,6 Jun 2027 19:40:01.399,6 Jun 2027 19:51:12.759,671.360
69,6 Jun 2027 21:15:57.883,6 Jun 2027 21:28:48.103,770.220
70,6 Jun 2027 22:51:53.736,6 Jun 2027 23:04:35.880,762.143
71,7 Jun 2027 00:27:33.682,7 Jun 2027 00:39:09.125,695.443
72,7 Jun 2027 02:02:39.652,7 Jun 2027 02:13:13.579,633.926
73,7 Jun 2027 03:37:01.493,7 Jun 2027 03:47:41.488,639.995
74,7 Jun 2027 05:11:06.756,7 Jun 2027 05:22:53.797,707.041
75,7 Jun 2027 06:45:48.800,7 Jun 2027 06:58:37.222,768.422
76,7 Jun 2027 08:21:50.883,7 Jun 2027 08:34:34.167,763.284
77,7 Jun 2027 09:59:45.514,7 Jun 2027 10:10:29.106,643.592
78,7 Jun 2027 11:40:28.680,7 Jun 2027 11:45:40.469,311.788
79,7 Jun 2027 18:16:27.789,7 Jun 2027 18:23:49.351,441.562
80,7 Jun 2027 19:52:02.242,7 Jun 2027 20:03:33.634,691.391
81,7 Jun 2027 21:27:59.592,7 Jun 2027 21:40:53.705,774.113
82,7 Jun 2027 23:03:54.308,7 Jun 2027 23:16:30.200,755.892
83,8 Jun 2027 00:39:31.050,8 Jun 2027 00:50:56.974,685.924
84,8 Jun 2027 02:14:31.541,8 Jun 2027 02:25:01.739,630.198
85,8 Jun 2027 03:48:48.862,8 Jun 2027 03:59:35.035,646.173
86,8 Jun 2027 05:22:55.786,8 Jun 2027 05:34:52.294,716.508
87,8 Jun 2027 06:57:45.844,8 Jun 2027 07:10:38.292,772.448
88,8 Jun 2027 08:34:00.288,8 Jun 2027 08:46:35.881,755.593
89,8 Jun 2027 10:12:11.590,8 Jun 2027 10:22:29.076,617.486
90,8 Jun 2027 11:53:31.764,8 Jun 2027 11:57:19.798,228.034
91,8 Jun 2027 18:28:22.817,8 Jun 2027 18:36:30.079,487.262
92,8 Jun 2027 20:04:03.359,8 Jun 2027 20:15:52.328,708.969
93,8 Jun 2027 21:40:01.260,8 Jun 2027 21:52:57.679,776.419
94,8 Jun 2027 23:15:54.598,8 Jun 2027 23:28:23.402,748.804
95,9 Jun 2027 00:51:27.845,9 Jun 2027 01:02:44.460,676.615
96,9 Jun 2027 02:26:22.692,9 Jun 2027 02:36:50.407,627.715
97,9 Jun 2027 04:00:36.042,9 Jun 2027 04:11:29.311,653.269
98,9 Jun 2027 05:34:45.522,9 Jun 2027 05:46:51.235,725.713
99,9 Jun 2027 07:09:44.227,9 Jun 2027 07:22:39.536,775.308
100,9 Jun 2027 08:46:11.501,9 Jun 2027 08:58:37.545,746.044
101,9 Jun 2027 10:24:40.241,9 Jun 2027 10:34:28.458,588.218
102,9 Jun 2027 12:07:06.917,9 Jun 2027 12:08:29.088,82.171
103,9 Jun 2027 18:40:19.524,9 Jun 2027 18:49:07.066,527.542
104,9 Jun 2027 20:16:04.681,9 Jun 2027 20:28:08.931,724.250
105,9 Jun 2027 21:52:02.852,9 Jun 2027 22:05:00.092,777.240
106,9 Jun 2027 23:27:54.586,9 Jun 2027 23:40:15.565,740.980
107,10 Jun 2027 01:03:24.018,10 Jun 2027 01:14:31.701,667.683
108,10 Jun 2027 02:38:13.112,10 Jun 2027 02:48:39.652,626.539
109,10 Jun 2027 04:12:23.138,10 Jun 2027 04:23:24.306,661.169
110,10 Jun 2027 05:46:36.049,10 Jun 2027 05:58:50.592,734.543
111,10 Jun 2027 07:21:44.016,10 Jun 2027 07:34:40.925,776.909
112,10 Jun 2027 08:58:24.605,10 Jun 2027 09:10:39.120,734.515
113,10 Jun 2027 10:37:11.663,10 Jun 2027 10:46:27.106,555.443
114,10 Jun 2027 18:52:17.437,10 Jun 2027 19:01:40.785,563.348
115,10 Jun 2027 20:28:06.170,10 Jun 2027 20:40:23.526,737.356
116,10 Jun 2027 22:04:04.341,10 Jun 2027 22:17:00.996,776.654
117,10 Jun 2027 23:39:54.228,10 Jun 2027 23:52:06.775,732.547
118,11 Jun 2027 01:15:19.535,11 Jun 2027 01:26:18.816,659.281
119,11 Jun 2027 02:50:02.854,11 Jun 2027 03:00:29.545,626.690
120,11 Jun 2027 04:24:10.274,11 Jun 2027 04:35:19.975,669.702
121,11 Jun 2027 05:58:27.475,11 Jun 2027 06:10:50.316,742.842
122,11 Jun 2027 07:33:45.264,11 Jun 2027 07:46:42.442,777.178
123,11 Jun 2027 09:10:39.657,11 Jun 2027 09:22:40.577,720.920
124,11 Jun 2027 10:49:46.100,11 Jun 2027 10:58:24.775,518.675
125,11 Jun 2027 17:29:56.583,11 Jun 2027 17:32:07.719,131.136
126,11 Jun 2027 19:04:16.270,11 Jun 2027 19:14:11.548,595.278
127,11 Jun 2027 20:40:07.766,11 Jun 2027 20:52:36.187,748.422
128,11 Jun 2027 22:16:05.705,11 Jun 2027 22:29:00.452,774.747
129,11 Jun 2027 23:51:53.492,12 Jun 2027 00:03:57.108,723.616
130,12 Jun 2027 01:27:14.371,12 Jun 2027 01:38:05.917,651.545
131,12 Jun 2027 03:01:51.965,12 Jun 2027 03:12:20.130,628.165
132,12 Jun 2027 04:35:57.564,12 Jun 2027 04:47:16.296,678.732
133,12 Jun 2027 06:10:19.868,12 Jun 2027 06:22:50.372,750.504
134,12 Jun 2027 07:45:48.033,12 Jun 2027 07:58:44.054,776.022
135,12 Jun 2027 09:22:56.734,12 Jun 2027 09:34:41.859,705.124
136,12 Jun 2027 11:02:23.891,12 Jun 2027 11:10:21.149,477.258
137,12 Jun 2027 17:41:19.154,12 Jun 2027 17:45:29.124,249.970
138,12 Jun 2027 19:16:15.800,12 Jun 2027 19:26:39.599,623.799
139,12 Jun 2027 20:52:09.444,12 Jun 2027 21:04:46.979,757.535
140,12 Jun 2027 22:28:06.907,12 Jun 2027 22:40:58.525,771.617
141,13 Jun 2027 00:03:52.344,13 Jun 2027 00:15:46.672,714.328
142,13 Jun 2027 01:39:08.483,13 Jun 2027 01:49:53.129,644.646
143,13 Jun 2027 03:13:40.510,13 Jun 2027 03:24:11.444,630.934
144,13 Jun 2027 04:47:45.125,13 Jun 2027 04:59:13.221,688.097
145,13 Jun 2027 06:22:13.328,13 Jun 2027 06:34:50.732,757.404
146,13 Jun 2027 07:57:52.377,13 Jun 2027 08:10:45.735,773.358
147,13 Jun 2027 09:35:15.919,13 Jun 2027 09:46:42.923,687.004
148,13 Jun 2027 11:15:05.567,13 Jun 2027 11:22:15.719,430.152
149,13 Jun 2027 17:53:01.058,13 Jun 2027 17:58:29.153,328.095
150,13 Jun 2027 19:28:15.876,13 Jun 2027 19:39:05.105,649.229
151,13 Jun 2027 21:04:11.169,13 Jun 2027 21:16:55.970,764.801
152,13 Jun 2027 22:40:07.929,13 Jun 2027 22:52:55.265,767.336
