dataset/facility_timing/facility_Facility-Murmansk1/Murmansk1-To-KinoSat_110808.csv

Acces,Start Time (UTCG),Stop Time (UTCG),Duration (sec)
1,1 Jun 2027 00:00:45.465,1 Jun 2027 00:12:02.271,676.805
2,1 Jun 2027 01:36:42.127,1 Jun 2027 01:49:33.507,771.380
3,1 Jun 2027 03:12:37.640,1 Jun 2027 03:25:18.242,760.602
4,1 Jun 2027 04:48:16.698,1 Jun 2027 04:59:49.728,693.030
5,1 Jun 2027 06:23:21.181,1 Jun 2027 06:33:54.215,633.034
6,1 Jun 2027 07:57:41.767,1 Jun 2027 08:08:23.542,641.775
7,1 Jun 2027 09:31:47.429,1 Jun 2027 09:43:37.166,709.737
8,1 Jun 2027 11:06:31.606,1 Jun 2027 11:19:21.252,769.646
9,1 Jun 2027 12:42:37.005,1 Jun 2027 12:55:18.328,761.323
10,1 Jun 2027 14:20:36.116,1 Jun 2027 14:31:12.750,636.634
11,1 Jun 2027 16:01:28.483,1 Jun 2027 16:06:19.291,290.807
12,1 Jun 2027 22:37:10.267,1 Jun 2027 22:44:44.203,453.936
13,2 Jun 2027 00:12:46.362,2 Jun 2027 00:24:22.531,696.169
14,2 Jun 2027 01:48:43.806,2 Jun 2027 02:01:38.655,774.849
15,2 Jun 2027 03:24:38.113,2 Jun 2027 03:37:12.251,754.138
16,2 Jun 2027 05:00:13.890,2 Jun 2027 05:11:37.460,683.570
17,2 Jun 2027 06:35:12.850,2 Jun 2027 06:45:42.494,629.644
18,2 Jun 2027 08:09:29.062,2 Jun 2027 08:20:17.271,648.209
19,2 Jun 2027 09:43:36.629,2 Jun 2027 09:55:35.761,719.132
20,2 Jun 2027 11:18:28.992,2 Jun 2027 11:31:22.347,773.356
21,2 Jun 2027 12:54:46.877,2 Jun 2027 13:07:20.003,753.126
22,2 Jun 2027 14:33:02.858,2 Jun 2027 14:43:12.538,609.680
23,2 Jun 2027 16:14:36.247,2 Jun 2027 16:17:54.432,198.185
24,2 Jun 2027 22:49:05.757,2 Jun 2027 22:57:23.865,498.108
25,3 Jun 2027 00:24:47.506,3 Jun 2027 00:36:40.636,713.130
26,3 Jun 2027 02:00:45.429,3 Jun 2027 02:13:42.189,776.760
27,3 Jun 2027 03:36:38.297,3 Jun 2027 03:49:05.157,746.860
28,3 Jun 2027 05:12:10.499,3 Jun 2027 05:23:24.866,674.366
29,3 Jun 2027 06:47:03.784,3 Jun 2027 06:57:31.302,627.518
30,3 Jun 2027 08:21:16.197,3 Jun 2027 08:32:11.728,655.531
31,3 Jun 2027 09:55:26.557,3 Jun 2027 10:07:34.798,728.242
32,3 Jun 2027 11:30:27.737,3 Jun 2027 11:43:23.604,775.867
33,3 Jun 2027 13:06:58.578,3 Jun 2027 13:19:21.614,743.036
34,3 Jun 2027 14:45:32.225,3 Jun 2027 14:55:11.699,579.475
35,3 Jun 2027 23:01:02.782,3 Jun 2027 23:09:59.930,537.149
36,4 Jun 2027 00:36:48.855,4 Jun 2027 00:48:56.679,727.824
37,4 Jun 2027 02:12:46.967,4 Jun 2027 02:25:44.183,777.217
38,4 Jun 2027 03:48:38.173,4 Jun 2027 04:00:57.050,738.877
39,4 Jun 2027 05:24:06.477,4 Jun 2027 05:35:12.056,665.578
40,4 Jun 2027 06:58:54.002,4 Jun 2027 07:09:20.706,626.703
41,4 Jun 2027 08:33:03.285,4 Jun 2027 08:44:06.887,663.602
42,4 Jun 2027 10:07:17.308,4 Jun 2027 10:19:34.234,736.925
43,4 Jun 2027 11:42:27.895,4 Jun 2027 11:55:25.010,777.116
44,4 Jun 2027 13:19:12.178,4 Jun 2027 13:31:23.131,730.953
45,4 Jun 2027 14:58:04.417,4 Jun 2027 15:07:10.058,545.641
46,4 Jun 2027 23:13:00.932,4 Jun 2027 23:22:32.816,571.884
47,5 Jun 2027 00:48:50.346,5 Jun 2027 01:01:10.731,740.386
48,5 Jun 2027 02:24:48.402,5 Jun 2027 02:37:44.678,776.276
49,5 Jun 2027 04:00:37.687,5 Jun 2027 04:12:48.011,730.324
50,5 Jun 2027 05:36:01.788,5 Jun 2027 05:46:59.150,657.362
51,5 Jun 2027 07:10:43.554,5 Jun 2027 07:21:10.770,627.216
52,5 Jun 2027 08:44:50.441,5 Jun 2027 08:56:02.713,672.272
53,5 Jun 2027 10:19:08.977,5 Jun 2027 10:31:34.027,745.050
54,5 Jun 2027 11:54:29.530,5 Jun 2027 12:07:26.524,776.994
55,5 Jun 2027 13:31:27.749,5 Jun 2027 13:43:24.514,716.766
56,5 Jun 2027 15:10:39.706,5 Jun 2027 15:19:07.373,507.667
57,5 Jun 2027 21:50:27.200,5 Jun 2027 21:53:16.421,169.221
58,5 Jun 2027 23:24:59.929,5 Jun 2027 23:35:02.821,602.892
59,6 Jun 2027 01:00:51.937,6 Jun 2027 01:13:22.870,750.933
60,6 Jun 2027 02:36:49.697,6 Jun 2027 02:49:43.746,774.049
61,6 Jun 2027 04:12:36.817,6 Jun 2027 04:24:38.121,721.304
62,6 Jun 2027 05:47:56.413,6 Jun 2027 05:58:46.265,649.853
63,6 Jun 2027 07:22:32.492,6 Jun 2027 07:33:01.535,629.044
64,6 Jun 2027 08:56:37.783,6 Jun 2027 09:07:59.179,681.395
65,6 Jun 2027 10:31:01.635,6 Jun 2027 10:43:34.145,752.509
66,6 Jun 2027 12:06:32.700,6 Jun 2027 12:19:28.127,775.427
67,6 Jun 2027 13:43:45.366,6 Jun 2027 13:55:25.707,700.341
68,6 Jun 2027 15:23:18.482,6 Jun 2027 15:31:03.258,464.776
69,6 Jun 2027 22:01:57.548,6 Jun 2027 22:06:29.454,271.906
70,6 Jun 2027 23:36:59.586,6 Jun 2027 23:47:30.161,630.575
71,7 Jun 2027 01:12:53.605,7 Jun 2027 01:25:33.163,759.559
72,7 Jun 2027 02:48:50.825,7 Jun 2027 03:01:41.444,770.618
73,7 Jun 2027 04:24:35.520,7 Jun 2027 04:36:27.485,711.966
74,7 Jun 2027 05:59:50.309,7 Jun 2027 06:10:33.518,643.209
75,7 Jun 2027 07:34:20.884,7 Jun 2027 07:44:53.032,632.147
76,7 Jun 2027 09:08:25.431,7 Jun 2027 09:19:56.235,690.804
77,7 Jun 2027 10:42:55.375,7 Jun 2027 10:55:34.553,759.178
78,7 Jun 2027 12:18:37.461,7 Jun 2027 12:31:29.791,772.330
79,7 Jun 2027 13:56:05.117,7 Jun 2027 14:07:26.665,681.548
80,7 Jun 2027 15:36:01.336,7 Jun 2027 15:42:57.147,415.810
81,7 Jun 2027 22:13:41.697,7 Jun 2027 22:19:26.632,344.936
82,7 Jun 2027 23:48:59.752,7 Jun 2027 23:59:54.999,655.247
83,8 Jun 2027 01:24:55.303,8 Jun 2027 01:37:41.664,766.361
84,8 Jun 2027 03:00:51.765,8 Jun 2027 03:13:37.836,766.071
85,8 Jun 2027 04:36:33.760,8 Jun 2027 04:48:16.201,702.441
86,8 Jun 2027 06:11:43.466,8 Jun 2027 06:22:21.017,637.551
87,8 Jun 2027 07:46:08.819,8 Jun 2027 07:56:45.279,636.460
88,8 Jun 2027 09:20:13.489,8 Jun 2027 09:31:53.854,700.365
89,8 Jun 2027 10:54:50.272,8 Jun 2027 11:07:35.220,764.948
90,8 Jun 2027 12:30:43.878,8 Jun 2027 12:43:31.492,767.614
91,8 Jun 2027 14:08:27.096,8 Jun 2027 14:19:27.310,660.214
92,8 Jun 2027 15:48:49.289,8 Jun 2027 15:54:48.006,358.717
93,8 Jun 2027 22:25:31.697,8 Jun 2027 22:32:15.899,404.202
94,9 Jun 2027 00:01:00.328,9 Jun 2027 00:12:17.472,677.144
95,9 Jun 2027 01:36:57.003,9 Jun 2027 01:49:48.450,771.447
96,9 Jun 2027 03:12:52.483,9 Jun 2027 03:25:32.994,760.511
97,9 Jun 2027 04:48:31.484,9 Jun 2027 05:00:04.365,692.881
98,9 Jun 2027 06:23:35.867,9 Jun 2027 06:34:08.859,632.991
99,9 Jun 2027 07:57:56.373,9 Jun 2027 08:08:38.277,641.904
100,9 Jun 2027 09:32:02.067,9 Jun 2027 09:43:51.985,709.918
101,9 Jun 2027 11:06:46.386,9 Jun 2027 11:19:36.110,769.724
102,9 Jun 2027 12:42:52.004,9 Jun 2027 12:55:33.191,761.187
103,9 Jun 2027 14:20:51.412,9 Jun 2027 14:31:27.576,636.164
104,9 Jun 2027 16:01:44.417,9 Jun 2027 16:06:33.759,289.342
105,9 Jun 2027 22:37:25.042,9 Jun 2027 22:44:59.740,454.698
106,10 Jun 2027 00:13:01.229,10 Jun 2027 00:24:37.695,696.467
107,10 Jun 2027 01:48:58.676,10 Jun 2027 02:01:53.567,774.892
108,10 Jun 2027 03:24:52.953,10 Jun 2027 03:37:26.979,754.026
109,10 Jun 2027 05:00:28.664,10 Jun 2027 05:11:52.091,683.428
110,10 Jun 2027 06:35:27.522,10 Jun 2027 06:45:57.147,629.625
111,10 Jun 2027 08:09:43.665,10 Jun 2027 08:20:32.020,648.355
112,10 Jun 2027 09:43:51.278,10 Jun 2027 09:55:50.587,719.309
113,10 Jun 2027 11:18:43.795,10 Jun 2027 11:31:37.207,773.413
114,10 Jun 2027 12:55:01.907,10 Jun 2027 13:07:34.862,752.955
115,10 Jun 2027 14:33:18.198,10 Jun 2027 14:43:27.347,609.149
116,10 Jun 2027 16:14:52.552,10 Jun 2027 16:18:08.561,196.009
117,10 Jun 2027 22:49:20.561,10 Jun 2027 22:57:39.337,498.777
118,11 Jun 2027 00:25:02.377,11 Jun 2027 00:36:55.763,713.387
119,11 Jun 2027 02:01:00.296,11 Jun 2027 02:13:57.074,776.778
120,11 Jun 2027 03:36:53.130,11 Jun 2027 03:49:19.867,746.737
121,11 Jun 2027 05:12:25.260,11 Jun 2027 05:23:39.492,674.232
122,11 Jun 2027 06:47:18.442,11 Jun 2027 06:57:45.965,627.523
123,11 Jun 2027 08:21:30.797,11 Jun 2027 08:32:26.489,655.691
124,11 Jun 2027 09:55:41.219,11 Jun 2027 10:07:49.630,728.411
125,11 Jun 2027 11:30:42.564,11 Jun 2027 11:43:38.464,775.900
126,11 Jun 2027 13:07:13.638,11 Jun 2027 13:19:36.470,742.832
127,11 Jun 2027 14:45:47.614,11 Jun 2027 14:55:26.493,578.879
128,11 Jun 2027 23:01:17.604,11 Jun 2027 23:10:15.346,537.742
129,12 Jun 2027 00:37:03.727,12 Jun 2027 00:49:11.772,728.046
130,12 Jun 2027 02:13:01.830,12 Jun 2027 02:25:59.041,777.211
131,12 Jun 2027 03:48:52.998,12 Jun 2027 04:01:11.743,738.745
132,12 Jun 2027 05:24:21.225,12 Jun 2027 05:35:26.680,665.454
133,12 Jun 2027 06:59:08.647,12 Jun 2027 07:09:35.379,626.732
134,12 Jun 2027 08:33:17.885,12 Jun 2027 08:44:21.658,663.773
135,12 Jun 2027 10:07:31.986,12 Jun 2027 10:19:49.070,737.085
136,12 Jun 2027 11:42:42.747,12 Jun 2027 11:55:39.872,777.125
137,12 Jun 2027 13:19:27.275,12 Jun 2027 13:31:37.983,730.708
138,12 Jun 2027 14:58:19.861,12 Jun 2027 15:07:24.831,544.970
139,12 Jun 2027 23:13:15.769,12 Jun 2027 23:22:48.180,572.412
140,13 Jun 2027 00:49:05.218,13 Jun 2027 01:01:25.789,740.572
141,13 Jun 2027 02:25:03.262,13 Jun 2027 02:37:59.511,776.249
142,13 Jun 2027 04:00:52.504,13 Jun 2027 04:13:02.689,730.185
143,13 Jun 2027 05:36:16.522,13 Jun 2027 05:47:13.774,657.252
144,13 Jun 2027 07:10:58.187,13 Jun 2027 07:21:25.455,627.269
145,13 Jun 2027 08:45:05.043,13 Jun 2027 08:56:17.495,672.452
146,13 Jun 2027 10:19:23.671,13 Jun 2027 10:31:48.868,745.197
147,13 Jun 2027 11:54:44.408,13 Jun 2027 12:07:41.385,776.977
148,13 Jun 2027 13:31:42.881,13 Jun 2027 13:43:39.360,716.479
149,13 Jun 2027 15:10:55.210,13 Jun 2027 15:19:22.120,506.909
150,13 Jun 2027 21:50:41.384,13 Jun 2027 21:53:32.688,171.304
151,13 Jun 2027 23:25:14.777,13 Jun 2027 23:35:18.139,603.362
