dataset/facility_timing/facility_Facility-Murmansk1/Murmansk1-To-KinoSat_110906.csv

Acces,Start Time (UTCG),Stop Time (UTCG),Duration (sec)
1,1 Jun 2027 00:15:52.575,1 Jun 2027 00:26:42.362,649.788
2,1 Jun 2027 01:51:47.883,1 Jun 2027 02:04:32.842,764.959
3,1 Jun 2027 03:27:44.619,1 Jun 2027 03:40:31.843,767.224
4,1 Jun 2027 05:03:27.342,1 Jun 2027 05:15:11.946,704.604
5,1 Jun 2027 06:38:38.341,1 Jun 2027 06:49:16.931,638.590
6,1 Jun 2027 08:13:04.918,1 Jun 2027 08:23:40.006,635.088
7,1 Jun 2027 09:47:09.437,1 Jun 2027 09:58:47.340,697.903
8,1 Jun 2027 11:21:44.460,1 Jun 2027 11:34:28.054,763.594
9,1 Jun 2027 12:57:35.207,1 Jun 2027 13:10:24.163,768.956
10,1 Jun 2027 14:35:14.562,1 Jun 2027 14:46:20.361,665.799
11,1 Jun 2027 16:15:29.945,1 Jun 2027 16:21:43.975,374.030
12,1 Jun 2027 22:52:26.453,1 Jun 2027 22:58:57.956,391.503
13,2 Jun 2027 00:27:53.095,2 Jun 2027 00:39:05.418,672.323
14,2 Jun 2027 02:03:49.621,2 Jun 2027 02:16:40.051,770.431
15,2 Jun 2027 03:39:45.422,2 Jun 2027 03:52:27.302,761.880
16,2 Jun 2027 05:15:25.223,2 Jun 2027 05:27:00.238,695.015
17,2 Jun 2027 06:50:30.942,2 Jun 2027 07:01:04.690,633.747
18,2 Jun 2027 08:24:52.565,2 Jun 2027 08:35:32.840,640.275
19,2 Jun 2027 09:58:57.888,2 Jun 2027 10:10:45.381,707.493
20,2 Jun 2027 11:33:40.291,2 Jun 2027 11:46:28.925,768.635
21,2 Jun 2027 13:09:42.936,2 Jun 2027 13:22:25.899,762.963
22,2 Jun 2027 14:47:38.326,2 Jun 2027 14:58:20.760,642.434
23,2 Jun 2027 16:28:23.002,2 Jun 2027 16:33:31.364,308.362
24,2 Jun 2027 23:04:19.203,2 Jun 2027 23:11:42.952,443.750
25,3 Jun 2027 00:39:53.958,3 Jun 2027 00:51:26.193,692.235
26,3 Jun 2027 02:15:51.332,3 Jun 2027 02:28:45.581,774.250
27,3 Jun 2027 03:51:45.983,3 Jun 2027 04:04:21.574,755.590
28,3 Jun 2027 05:27:22.564,3 Jun 2027 05:38:48.073,685.509
29,3 Jun 2027 07:02:22.795,3 Jun 2027 07:12:52.878,630.083
30,3 Jun 2027 08:36:39.922,3 Jun 2027 08:47:26.428,646.506
31,3 Jun 2027 10:10:46.949,3 Jun 2027 10:22:43.904,716.955
32,3 Jun 2027 11:45:37.397,3 Jun 2027 11:58:30.002,772.605
33,3 Jun 2027 13:21:52.428,3 Jun 2027 13:34:27.612,755.184
34,3 Jun 2027 15:00:04.527,3 Jun 2027 15:10:20.702,616.175
35,3 Jun 2027 16:41:26.817,3 Jun 2027 16:45:10.063,223.246
36,3 Jun 2027 23:16:14.327,3 Jun 2027 23:24:23.498,489.170
37,4 Jun 2027 00:51:55.089,4 Jun 2027 01:03:44.790,709.700
38,4 Jun 2027 02:27:53.000,4 Jun 2027 02:40:49.485,776.486
39,4 Jun 2027 04:03:46.260,4 Jun 2027 04:16:14.730,748.470
40,4 Jun 2027 05:39:19.331,4 Jun 2027 05:50:35.550,676.219
41,4 Jun 2027 07:14:13.910,4 Jun 2027 07:24:41.577,627.667
42,4 Jun 2027 08:48:27.095,4 Jun 2027 08:59:20.743,653.648
43,4 Jun 2027 10:22:36.721,4 Jun 2027 10:34:42.868,726.147
44,4 Jun 2027 11:57:35.847,4 Jun 2027 12:10:31.260,775.413
45,4 Jun 2027 13:34:03.732,4 Jun 2027 13:46:29.272,745.540
46,4 Jun 2027 15:12:33.311,4 Jun 2027 15:22:20.049,586.737
47,4 Jun 2027 16:55:06.891,4 Jun 2027 16:56:14.534,67.644
48,4 Jun 2027 23:28:11.104,4 Jun 2027 23:37:00.328,529.225
49,5 Jun 2027 01:03:56.424,5 Jun 2027 01:16:01.304,724.879
50,5 Jun 2027 02:39:54.589,5 Jun 2027 02:52:51.831,777.242
51,5 Jun 2027 04:15:46.233,5 Jun 2027 04:28:06.851,740.618
52,5 Jun 2027 05:51:15.472,5 Jun 2027 06:02:22.788,667.316
53,5 Jun 2027 07:26:04.296,5 Jun 2027 07:36:30.856,626.560
54,5 Jun 2027 09:00:14.189,5 Jun 2027 09:11:15.775,661.586
55,5 Jun 2027 10:34:27.288,5 Jun 2027 10:46:42.246,734.958
56,5 Jun 2027 12:09:35.706,5 Jun 2027 12:22:32.659,776.953
57,5 Jun 2027 13:46:16.931,5 Jun 2027 13:58:30.841,733.911
58,5 Jun 2027 15:25:04.880,5 Jun 2027 15:34:18.650,553.770
59,5 Jun 2027 23:40:09.069,5 Jun 2027 23:49:33.908,564.840
60,6 Jun 2027 01:15:57.923,6 Jun 2027 01:28:15.811,737.888
61,6 Jun 2027 02:51:56.075,6 Jun 2027 03:04:52.670,776.595
62,6 Jun 2027 04:27:45.857,6 Jun 2027 04:39:58.023,732.166
63,6 Jun 2027 06:03:10.956,6 Jun 2027 06:14:09.905,658.949
64,6 Jun 2027 07:37:54.006,6 Jun 2027 07:48:20.785,626.780
65,6 Jun 2027 09:12:01.329,6 Jun 2027 09:23:11.479,670.149
66,6 Jun 2027 10:46:18.759,6 Jun 2027 10:58:41.989,743.231
67,6 Jun 2027 12:21:37.026,6 Jun 2027 12:34:34.179,777.153
68,6 Jun 2027 13:58:32.081,6 Jun 2027 14:10:32.289,720.208
69,6 Jun 2027 15:37:39.478,6 Jun 2027 15:46:16.257,516.779
70,6 Jun 2027 22:17:45.661,6 Jun 2027 22:20:04.073,138.412
71,6 Jun 2027 23:52:07.941,7 Jun 2027 00:02:04.545,596.604
72,7 Jun 2027 01:27:59.524,7 Jun 2027 01:40:28.385,748.861
73,7 Jun 2027 03:03:57.431,7 Jun 2027 03:16:52.064,774.632
74,7 Jun 2027 04:39:45.102,7 Jun 2027 04:51:48.323,723.221
75,7 Jun 2027 06:15:05.758,7 Jun 2027 06:25:57.013,651.256
76,7 Jun 2027 07:49:43.087,7 Jun 2027 08:00:11.409,628.322
77,7 Jun 2027 09:23:48.629,7 Jun 2027 09:35:07.832,679.202
78,7 Jun 2027 10:58:11.201,7 Jun 2027 11:10:42.065,750.864
79,7 Jun 2027 12:33:39.869,7 Jun 2027 12:46:35.795,775.925
80,7 Jun 2027 14:10:49.261,7 Jun 2027 14:22:33.558,704.297
81,7 Jun 2027 15:50:17.452,7 Jun 2027 15:58:12.547,475.095
82,7 Jun 2027 22:29:09.882,7 Jun 2027 22:33:23.739,253.857
83,8 Jun 2027 00:04:07.501,8 Jun 2027 00:14:32.479,624.978
84,8 Jun 2027 01:40:01.207,8 Jun 2027 01:52:39.097,757.891
85,8 Jun 2027 03:15:58.625,8 Jun 2027 03:28:50.076,771.451
86,8 Jun 2027 04:51:43.931,8 Jun 2027 05:03:37.857,713.926
87,8 Jun 2027 06:26:59.832,8 Jun 2027 06:37:44.239,644.407
88,8 Jun 2027 08:01:31.605,8 Jun 2027 08:12:02.762,631.157
89,8 Jun 2027 09:35:36.205,8 Jun 2027 09:47:04.787,688.582
90,8 Jun 2027 11:10:04.713,8 Jun 2027 11:22:42.435,757.722
91,8 Jun 2027 12:45:44.292,8 Jun 2027 12:58:37.477,773.185
92,8 Jun 2027 14:23:08.553,8 Jun 2027 14:34:34.606,686.053
93,8 Jun 2027 16:02:59.347,8 Jun 2027 16:10:06.997,427.650
94,8 Jun 2027 22:40:52.216,8 Jun 2027 22:46:23.249,331.033
95,9 Jun 2027 00:16:07.600,9 Jun 2027 00:26:57.874,650.274
96,9 Jun 2027 01:52:02.933,9 Jun 2027 02:04:48.009,765.076
97,9 Jun 2027 03:27:59.637,9 Jun 2027 03:40:46.760,767.123
98,9 Jun 2027 05:03:42.294,9 Jun 2027 05:15:26.713,704.419
99,9 Jun 2027 06:38:53.175,9 Jun 2027 06:49:31.683,638.508
100,9 Jun 2027 08:13:19.644,9 Jun 2027 08:23:54.858,635.214
101,9 Jun 2027 09:47:24.176,9 Jun 2027 09:59:02.309,698.133
102,9 Jun 2027 11:21:59.360,9 Jun 2027 11:34:43.080,763.720
103,9 Jun 2027 12:57:50.363,9 Jun 2027 13:10:39.201,768.838
104,9 Jun 2027 14:35:30.060,9 Jun 2027 14:46:35.358,665.298
105,9 Jun 2027 16:15:46.050,9 Jun 2027 16:21:58.711,372.660
106,9 Jun 2027 22:52:41.312,9 Jun 2027 22:59:13.932,392.620
107,10 Jun 2027 00:28:08.129,10 Jun 2027 00:39:20.876,672.747
108,10 Jun 2027 02:04:04.664,10 Jun 2027 02:16:55.186,770.522
109,10 Jun 2027 03:40:00.434,10 Jun 2027 03:52:42.197,761.763
110,10 Jun 2027 05:15:40.161,10 Jun 2027 05:27:14.998,694.837
111,10 Jun 2027 06:50:45.760,10 Jun 2027 07:01:19.450,633.690
112,10 Jun 2027 08:25:07.283,10 Jun 2027 08:35:47.714,640.431
113,10 Jun 2027 09:59:12.639,10 Jun 2027 10:11:00.356,707.717
114,10 Jun 2027 11:33:55.213,10 Jun 2027 11:46:43.950,768.737
115,10 Jun 2027 13:09:58.125,10 Jun 2027 13:22:40.931,762.806
116,10 Jun 2027 14:47:53.876,10 Jun 2027 14:58:35.744,641.868
117,10 Jun 2027 16:28:39.291,10 Jun 2027 16:33:45.958,306.667
118,10 Jun 2027 23:04:34.120,10 Jun 2027 23:11:58.830,444.710
119,11 Jun 2027 00:40:08.996,11 Jun 2027 00:51:41.604,692.608
120,11 Jun 2027 02:16:06.373,11 Jun 2027 02:29:00.681,774.308
121,11 Jun 2027 03:52:00.988,11 Jun 2027 04:04:36.444,755.456
122,11 Jun 2027 05:27:37.488,11 Jun 2027 05:39:02.820,685.332
123,11 Jun 2027 07:02:37.595,11 Jun 2027 07:13:07.648,630.053
124,11 Jun 2027 08:36:54.633,11 Jun 2027 08:47:41.316,646.682
125,11 Jun 2027 10:11:01.714,11 Jun 2027 10:22:58.887,717.174
126,11 Jun 2027 11:45:52.348,11 Jun 2027 11:58:45.034,772.685
127,11 Jun 2027 13:22:07.656,11 Jun 2027 13:34:42.640,754.984
128,11 Jun 2027 15:00:20.132,11 Jun 2027 15:10:35.672,615.539
129,11 Jun 2027 16:41:43.465,11 Jun 2027 16:45:24.340,220.874
130,11 Jun 2027 23:16:29.280,11 Jun 2027 23:24:39.293,490.013
131,12 Jun 2027 00:52:10.128,12 Jun 2027 01:04:00.155,710.027
132,12 Jun 2027 02:28:08.037,12 Jun 2027 02:41:04.550,776.513
133,12 Jun 2027 04:04:01.256,12 Jun 2027 04:16:29.577,748.321
134,12 Jun 2027 05:39:34.240,12 Jun 2027 05:50:50.292,676.052
135,12 Jun 2027 07:14:28.693,12 Jun 2027 07:24:56.358,627.665
136,12 Jun 2027 08:48:41.801,12 Jun 2027 08:59:35.650,653.849
137,12 Jun 2027 10:22:51.500,12 Jun 2027 10:34:57.863,726.363
138,12 Jun 2027 11:57:50.828,12 Jun 2027 12:10:46.288,775.461
139,12 Jun 2027 13:34:19.004,12 Jun 2027 13:46:44.296,745.292
140,12 Jun 2027 15:12:48.979,12 Jun 2027 15:22:34.999,586.020
141,12 Jun 2027 16:55:26.525,12 Jun 2027 16:56:25.866,59.341
142,12 Jun 2027 23:28:26.081,12 Jun 2027 23:37:16.052,529.971
143,13 Jun 2027 01:04:11.467,13 Jun 2027 01:16:16.626,725.159
144,13 Jun 2027 02:40:09.622,13 Jun 2027 02:53:06.863,777.241
145,13 Jun 2027 04:16:01.220,13 Jun 2027 04:28:21.678,740.458
146,13 Jun 2027 05:51:30.366,13 Jun 2027 06:02:37.527,667.161
147,13 Jun 2027 07:26:19.063,13 Jun 2027 07:36:45.652,626.589
148,13 Jun 2027 09:00:28.897,13 Jun 2027 09:11:30.691,661.794
149,13 Jun 2027 10:34:42.087,13 Jun 2027 10:46:57.244,735.157
150,13 Jun 2027 12:09:50.716,13 Jun 2027 12:22:47.688,776.972
151,13 Jun 2027 13:46:32.240,13 Jun 2027 13:58:45.861,733.620
152,13 Jun 2027 15:25:20.610,13 Jun 2027 15:34:33.577,552.967
153,13 Jun 2027 23:40:24.065,13 Jun 2027 23:49:49.569,565.504
