dataset/facility_timing/facility_Facility-Murmansk1/Murmansk1-To-KinoSat_110204.csv

Acces,Start Time (UTCG),Stop Time (UTCG),Duration (sec)
1,1 Jun 2027 01:05:42.351,1 Jun 2027 01:17:21.055,698.704
2,1 Jun 2027 02:40:50.021,1 Jun 2027 02:51:25.639,635.618
3,1 Jun 2027 04:15:13.442,1 Jun 2027 04:25:51.858,638.416
4,1 Jun 2027 05:49:18.398,1 Jun 2027 06:01:02.462,704.064
5,1 Jun 2027 07:23:58.020,1 Jun 2027 07:36:44.941,766.921
6,1 Jun 2027 08:59:56.224,1 Jun 2027 09:12:41.560,765.335
7,1 Jun 2027 10:37:45.640,1 Jun 2027 10:48:36.882,651.242
8,1 Jun 2027 12:18:19.015,1 Jun 2027 12:23:52.716,333.701
9,1 Jun 2027 18:54:38.161,1 Jun 2027 19:01:42.915,424.754
10,1 Jun 2027 20:30:10.030,1 Jun 2027 20:41:34.996,684.966
11,1 Jun 2027 22:06:07.055,1 Jun 2027 22:19:00.032,772.976
12,1 Jun 2027 23:42:02.105,1 Jun 2027 23:54:40.190,758.085
13,2 Jun 2027 01:17:39.869,2 Jun 2027 01:29:09.036,689.167
14,2 Jun 2027 02:52:42.134,2 Jun 2027 03:03:13.636,631.502
15,2 Jun 2027 04:27:00.882,2 Jun 2027 04:37:45.145,644.262
16,2 Jun 2027 06:01:07.208,2 Jun 2027 06:13:00.780,713.572
17,2 Jun 2027 07:35:54.626,2 Jun 2027 07:48:45.913,771.287
18,2 Jun 2027 09:12:05.032,2 Jun 2027 09:24:43.253,758.221
19,2 Jun 2027 10:50:10.894,2 Jun 2027 11:00:36.976,626.082
20,2 Jun 2027 12:31:18.022,2 Jun 2027 12:35:35.389,257.367
21,2 Jun 2027 19:06:32.447,2 Jun 2027 19:14:25.006,472.559
22,2 Jun 2027 20:42:11.034,2 Jun 2027 20:53:54.371,703.337
23,2 Jun 2027 22:18:08.710,2 Jun 2027 22:31:04.515,775.805
24,2 Jun 2027 23:54:02.461,3 Jun 2027 00:06:33.737,751.275
25,3 Jun 2027 01:29:36.833,3 Jun 2027 01:40:56.619,679.785
26,3 Jun 2027 03:04:33.504,3 Jun 2027 03:15:02.120,628.617
27,3 Jun 2027 04:38:48.105,3 Jun 2027 04:49:39.166,651.061
28,3 Jun 2027 06:12:56.696,3 Jun 2027 06:24:59.557,722.861
29,3 Jun 2027 07:47:52.552,3 Jun 2027 08:00:47.077,774.524
30,3 Jun 2027 09:24:15.632,3 Jun 2027 09:36:44.907,749.275
31,3 Jun 2027 11:02:38.669,3 Jun 2027 11:12:36.530,597.861
32,3 Jun 2027 12:44:36.204,3 Jun 2027 12:47:00.927,144.723
33,3 Jun 2027 19:18:28.617,3 Jun 2027 19:27:03.144,514.527
34,3 Jun 2027 20:54:12.260,3 Jun 2027 21:06:11.626,719.366
35,3 Jun 2027 22:30:10.301,3 Jun 2027 22:43:07.416,777.115
36,4 Jun 2027 00:06:02.525,4 Jun 2027 00:18:26.220,743.695
37,4 Jun 2027 01:41:33.188,4 Jun 2027 01:52:43.917,670.728
38,4 Jun 2027 03:16:24.145,4 Jun 2027 03:26:51.153,627.008
39,4 Jun 2027 04:50:35.204,4 Jun 2027 05:01:33.909,658.705
40,4 Jun 2027 06:24:46.942,4 Jun 2027 06:36:58.755,731.814
41,4 Jun 2027 07:59:51.862,4 Jun 2027 08:12:48.393,776.530
42,4 Jun 2027 09:36:28.090,4 Jun 2027 09:48:46.485,738.394
43,4 Jun 2027 11:15:09.143,4 Jun 2027 11:24:35.397,566.254
44,4 Jun 2027 19:30:26.127,4 Jun 2027 19:39:37.880,551.754
45,4 Jun 2027 21:06:13.669,4 Jun 2027 21:18:26.854,733.185
46,4 Jun 2027 22:42:11.797,4 Jun 2027 22:55:08.792,776.995
47,5 Jun 2027 00:18:02.258,5 Jun 2027 00:30:17.723,735.465
48,5 Jun 2027 01:53:28.900,5 Jun 2027 02:04:31.054,662.154
49,5 Jun 2027 03:28:14.095,5 Jun 2027 03:38:40.817,626.723
50,5 Jun 2027 05:02:22.306,5 Jun 2027 05:13:29.336,667.030
51,5 Jun 2027 06:36:38.056,5 Jun 2027 06:48:58.332,740.276
52,5 Jun 2027 08:11:52.610,5 Jun 2027 08:24:49.843,777.233
53,5 Jun 2027 09:48:42.475,5 Jun 2027 10:00:47.956,725.480
54,5 Jun 2027 11:27:42.550,5 Jun 2027 11:36:33.372,530.823
55,5 Jun 2027 18:08:41.204,5 Jun 2027 18:09:24.126,42.922
56,5 Jun 2027 19:42:24.647,5 Jun 2027 19:52:09.567,584.920
57,5 Jun 2027 21:18:15.202,5 Jun 2027 21:30:40.117,744.915
58,5 Jun 2027 22:54:13.176,5 Jun 2027 23:07:08.700,775.524
59,6 Jun 2027 00:30:01.624,6 Jun 2027 00:42:08.321,726.697
60,6 Jun 2027 02:05:23.943,6 Jun 2027 02:16:18.138,654.195
61,6 Jun 2027 03:40:03.388,6 Jun 2027 03:50:31.155,627.767
62,6 Jun 2027 05:14:09.524,6 Jun 2027 05:25:25.425,675.902
63,6 Jun 2027 06:48:30.110,6 Jun 2027 07:00:58.259,748.149
64,6 Jun 2027 08:23:54.858,6 Jun 2027 08:36:51.399,776.541
65,6 Jun 2027 10:00:58.862,6 Jun 2027 10:12:49.264,710.402
66,6 Jun 2027 11:40:19.182,6 Jun 2027 11:48:30.168,490.985
67,6 Jun 2027 18:19:36.455,6 Jun 2027 18:23:13.451,216.997
68,6 Jun 2027 19:54:23.927,6 Jun 2027 20:04:38.466,614.539
69,6 Jun 2027 21:30:16.828,6 Jun 2027 21:42:51.499,754.672
70,6 Jun 2027 23:06:14.405,6 Jun 2027 23:19:07.206,772.801
71,7 Jun 2027 00:42:00.590,7 Jun 2027 00:53:58.119,717.529
72,7 Jun 2027 02:17:18.271,7 Jun 2027 02:28:05.289,647.019
73,7 Jun 2027 03:51:52.097,7 Jun 2027 04:02:22.211,630.115
74,7 Jun 2027 05:25:56.974,7 Jun 2027 05:37:22.131,685.157
75,7 Jun 2027 07:00:23.203,7 Jun 2027 07:12:58.496,755.294
76,7 Jun 2027 08:35:58.660,7 Jun 2027 08:48:53.031,774.371
77,7 Jun 2027 10:13:17.324,7 Jun 2027 10:24:50.374,693.050
78,7 Jun 2027 11:52:59.507,7 Jun 2027 12:00:25.348,445.840
79,7 Jun 2027 18:31:14.286,7 Jun 2027 18:36:18.162,303.876
80,7 Jun 2027 20:06:23.803,7 Jun 2027 20:17:04.766,640.963
81,7 Jun 2027 21:42:18.512,7 Jun 2027 21:55:01.052,762.540
82,7 Jun 2027 23:18:15.463,7 Jun 2027 23:31:04.360,768.897
83,8 Jun 2027 00:53:59.110,8 Jun 2027 01:05:47.199,708.089
84,8 Jun 2027 02:29:11.875,8 Jun 2027 02:39:52.622,640.747
85,8 Jun 2027 04:03:40.293,8 Jun 2027 04:14:14.004,633.711
86,8 Jun 2027 05:37:44.777,8 Jun 2027 05:49:19.417,694.641
87,8 Jun 2027 07:12:17.400,8 Jun 2027 07:24:59.012,761.613
88,8 Jun 2027 08:48:04.088,8 Jun 2027 09:00:54.713,770.625
89,8 Jun 2027 10:25:37.959,8 Jun 2027 10:36:51.221,673.262
90,8 Jun 2027 12:05:44.247,8 Jun 2027 12:12:18.182,393.935
91,8 Jun 2027 18:43:01.280,8 Jun 2027 18:49:11.659,370.379
92,8 Jun 2027 20:18:24.144,8 Jun 2027 20:29:28.628,664.484
93,8 Jun 2027 21:54:20.209,8 Jun 2027 22:07:08.849,768.640
94,8 Jun 2027 23:30:16.317,8 Jun 2027 23:43:00.243,763.926
95,9 Jun 2027 01:05:57.142,9 Jun 2027 01:17:35.676,698.534
96,9 Jun 2027 02:41:04.727,9 Jun 2027 02:51:40.244,635.518
97,9 Jun 2027 04:15:28.061,9 Jun 2027 04:26:06.555,638.493
98,9 Jun 2027 05:49:33.029,9 Jun 2027 06:01:17.247,704.218
99,9 Jun 2027 07:24:12.775,9 Jun 2027 07:36:59.775,767.000
100,9 Jun 2027 09:00:11.182,9 Jun 2027 09:12:56.418,765.235
101,9 Jun 2027 10:38:00.868,9 Jun 2027 10:48:51.726,650.857
102,9 Jun 2027 12:18:34.726,9 Jun 2027 12:24:07.353,332.627
103,9 Jun 2027 18:54:52.836,9 Jun 2027 19:01:58.523,425.687
104,9 Jun 2027 20:30:24.858,9 Jun 2027 20:41:50.176,685.318
105,9 Jun 2027 22:06:21.905,9 Jun 2027 22:19:14.950,773.044
106,9 Jun 2027 23:42:16.937,9 Jun 2027 23:54:54.912,757.974
107,10 Jun 2027 01:17:54.655,10 Jun 2027 01:29:23.642,688.986
108,10 Jun 2027 02:52:56.829,10 Jun 2027 03:03:28.251,631.422
109,10 Jun 2027 04:27:15.501,10 Jun 2027 04:37:59.850,644.350
110,10 Jun 2027 06:01:21.853,10 Jun 2027 06:13:15.573,713.720
111,10 Jun 2027 07:36:09.406,10 Jun 2027 07:49:00.754,771.348
112,10 Jun 2027 09:12:20.019,10 Jun 2027 09:24:58.111,758.092
113,10 Jun 2027 10:50:26.160,10 Jun 2027 11:00:51.812,625.651
114,10 Jun 2027 12:31:33.916,10 Jun 2027 12:35:49.877,255.960
115,10 Jun 2027 19:06:47.169,10 Jun 2027 19:14:40.530,473.361
116,10 Jun 2027 20:42:25.869,10 Jun 2027 20:54:09.513,703.644
117,10 Jun 2027 22:18:23.561,10 Jun 2027 22:31:19.403,775.842
118,10 Jun 2027 23:54:17.293,11 Jun 2027 00:06:48.439,751.146
119,11 Jun 2027 01:29:51.609,11 Jun 2027 01:41:11.222,679.612
120,11 Jun 2027 03:04:48.187,11 Jun 2027 03:15:16.743,628.557
121,11 Jun 2027 04:39:02.719,11 Jun 2027 04:49:53.886,651.167
122,11 Jun 2027 06:13:11.352,11 Jun 2027 06:25:14.359,723.007
123,11 Jun 2027 07:48:07.355,11 Jun 2027 08:01:01.922,774.568
124,11 Jun 2027 09:24:30.651,11 Jun 2027 09:36:59.765,749.114
125,11 Jun 2027 11:02:53.980,11 Jun 2027 11:12:51.356,597.376
126,11 Jun 2027 12:44:52.672,11 Jun 2027 12:47:14.878,142.206
127,11 Jun 2027 19:18:43.371,11 Jun 2027 19:27:18.604,515.233
128,11 Jun 2027 20:54:27.100,11 Jun 2027 21:06:26.732,719.632
129,11 Jun 2027 22:30:25.151,11 Jun 2027 22:43:22.277,777.126
130,12 Jun 2027 00:06:17.352,12 Jun 2027 00:18:40.905,743.553
131,12 Jun 2027 01:41:47.954,12 Jun 2027 01:52:58.517,670.563
132,12 Jun 2027 03:16:38.814,12 Jun 2027 03:27:05.786,626.972
133,12 Jun 2027 04:50:49.816,12 Jun 2027 05:01:48.642,658.825
134,12 Jun 2027 06:25:01.612,12 Jun 2027 06:37:13.565,731.954
135,12 Jun 2027 08:00:06.688,12 Jun 2027 08:13:03.241,776.553
136,12 Jun 2027 09:36:43.141,12 Jun 2027 09:49:01.341,738.201
137,12 Jun 2027 11:15:24.501,12 Jun 2027 11:24:50.211,565.709
138,12 Jun 2027 19:30:40.904,12 Jun 2027 19:39:53.282,552.378
139,12 Jun 2027 21:06:28.513,12 Jun 2027 21:18:41.925,733.412
140,12 Jun 2027 22:42:26.645,12 Jun 2027 22:55:23.627,776.983
141,13 Jun 2027 00:18:17.080,13 Jun 2027 00:30:32.392,735.312
142,13 Jun 2027 01:53:43.654,13 Jun 2027 02:04:45.652,661.998
143,13 Jun 2027 03:28:28.751,13 Jun 2027 03:38:55.463,626.712
144,13 Jun 2027 05:02:36.919,13 Jun 2027 05:13:44.082,667.163
145,13 Jun 2027 06:36:52.742,13 Jun 2027 06:49:13.150,740.408
146,13 Jun 2027 08:12:07.461,13 Jun 2027 08:25:04.695,777.234
147,13 Jun 2027 09:48:57.559,13 Jun 2027 10:01:02.811,725.252
148,13 Jun 2027 11:27:57.959,13 Jun 2027 11:36:48.169,530.210
149,13 Jun 2027 18:08:52.128,13 Jun 2027 18:09:43.626,51.498
150,13 Jun 2027 19:42:39.442,13 Jun 2027 19:52:24.917,585.475
151,13 Jun 2027 21:18:30.050,13 Jun 2027 21:30:55.155,745.105
152,13 Jun 2027 22:54:28.025,13 Jun 2027 23:07:23.511,775.487
