dataset/facility_timing/facility_Facility-Murmansk1/Murmansk1-To-KinoSat_110502.csv

Acces,Start Time (UTCG),Stop Time (UTCG),Duration (sec)
1,1 Jun 2027 01:11:13.825,1 Jun 2027 01:24:03.793,769.968
2,1 Jun 2027 02:46:58.024,1 Jun 2027 02:58:48.546,710.522
3,1 Jun 2027 04:22:11.925,1 Jun 2027 04:32:54.356,642.431
4,1 Jun 2027 05:56:41.602,1 Jun 2027 06:07:14.644,633.042
5,1 Jun 2027 07:30:46.145,1 Jun 2027 07:42:18.725,692.580
6,1 Jun 2027 09:05:17.244,1 Jun 2027 09:17:57.514,760.271
7,1 Jun 2027 10:41:01.273,1 Jun 2027 10:53:52.876,771.603
8,1 Jun 2027 12:18:31.557,1 Jun 2027 12:29:49.502,677.945
9,1 Jun 2027 13:58:32.102,1 Jun 2027 14:05:18.340,406.238
10,1 Jun 2027 20:36:02.947,1 Jun 2027 20:41:57.806,354.859
11,1 Jun 2027 22:11:22.779,1 Jun 2027 22:22:21.646,658.867
12,1 Jun 2027 23:47:18.448,2 Jun 2027 00:00:05.712,767.264
13,2 Jun 2027 01:23:14.694,2 Jun 2027 01:35:59.950,765.256
14,2 Jun 2027 02:58:56.146,2 Jun 2027 03:10:37.145,700.999
15,2 Jun 2027 04:34:04.934,2 Jun 2027 04:44:41.888,636.954
16,2 Jun 2027 06:08:29.453,2 Jun 2027 06:19:06.990,637.537
17,2 Jun 2027 07:42:34.276,2 Jun 2027 07:54:16.393,702.118
18,2 Jun 2027 09:17:12.319,2 Jun 2027 09:29:58.185,765.866
19,2 Jun 2027 10:53:07.942,2 Jun 2027 11:05:54.537,766.595
20,2 Jun 2027 12:30:53.886,2 Jun 2027 12:41:50.049,656.163
21,2 Jun 2027 14:11:21.072,2 Jun 2027 14:17:08.449,347.377
22,2 Jun 2027 20:47:53.525,2 Jun 2027 20:54:46.060,412.536
23,2 Jun 2027 22:23:23.370,2 Jun 2027 22:34:43.707,680.337
24,2 Jun 2027 23:59:20.108,3 Jun 2027 00:12:12.190,772.083
25,3 Jun 2027 01:35:15.334,3 Jun 2027 01:47:54.890,759.555
26,3 Jun 2027 03:10:53.750,3 Jun 2027 03:22:25.213,691.463
27,3 Jun 2027 04:45:57.189,3 Jun 2027 04:56:29.780,632.591
28,3 Jun 2027 06:20:16.943,3 Jun 2027 06:31:00.085,643.142
29,3 Jun 2027 07:54:22.939,3 Jun 2027 08:06:14.577,711.638
30,3 Jun 2027 09:29:08.625,3 Jun 2027 09:41:59.075,770.450
31,3 Jun 2027 11:05:16.335,3 Jun 2027 11:17:56.197,759.862
32,3 Jun 2027 12:43:18.576,3 Jun 2027 12:53:50.197,631.622
33,3 Jun 2027 14:24:17.825,3 Jun 2027 14:28:52.841,275.016
34,3 Jun 2027 20:59:47.220,3 Jun 2027 21:07:29.127,461.907
35,3 Jun 2027 22:35:24.273,3 Jun 2027 22:47:03.537,699.264
36,4 Jun 2027 00:11:21.735,4 Jun 2027 00:24:17.008,775.273
37,4 Jun 2027 01:47:15.720,4 Jun 2027 01:59:48.668,752.948
38,4 Jun 2027 03:22:50.810,4 Jun 2027 03:34:12.865,682.056
39,4 Jun 2027 04:57:48.699,4 Jun 2027 05:08:18.136,629.436
40,4 Jun 2027 06:32:04.192,4 Jun 2027 06:42:53.918,649.726
41,4 Jun 2027 08:06:12.256,4 Jun 2027 08:18:13.224,720.967
42,4 Jun 2027 09:41:06.235,4 Jun 2027 09:54:00.162,773.927
43,4 Jun 2027 11:17:26.509,4 Jun 2027 11:29:57.823,751.314
44,4 Jun 2027 12:55:45.755,4 Jun 2027 13:05:49.832,604.077
45,4 Jun 2027 14:37:29.853,4 Jun 2027 14:40:23.999,174.146
46,4 Jun 2027 21:11:42.964,4 Jun 2027 21:20:08.075,505.111
47,4 Jun 2027 22:47:25.416,4 Jun 2027 22:59:21.232,715.815
48,5 Jun 2027 00:23:23.307,5 Jun 2027 00:36:20.235,776.928
49,5 Jun 2027 01:59:15.817,5 Jun 2027 02:11:41.367,745.549
50,5 Jun 2027 03:34:47.270,5 Jun 2027 03:46:00.209,672.939
51,5 Jun 2027 05:09:39.477,5 Jun 2027 05:20:07.023,627.546
52,5 Jun 2027 06:43:51.294,5 Jun 2027 06:54:48.479,657.186
53,5 Jun 2027 08:18:02.310,5 Jun 2027 08:30:12.298,729.988
54,5 Jun 2027 09:53:05.213,5 Jun 2027 10:06:01.412,776.199
55,5 Jun 2027 11:29:38.521,5 Jun 2027 11:41:59.380,740.859
56,5 Jun 2027 13:08:15.588,5 Jun 2027 13:17:48.814,573.226
57,5 Jun 2027 21:23:40.152,5 Jun 2027 21:32:43.517,543.365
58,5 Jun 2027 22:59:26.751,5 Jun 2027 23:11:36.876,730.125
59,6 Jun 2027 00:35:24.788,6 Jun 2027 00:48:21.929,777.142
60,6 Jun 2027 02:11:15.596,6 Jun 2027 02:23:33.066,737.470
61,6 Jun 2027 03:46:43.102,6 Jun 2027 03:57:47.356,664.254
62,6 Jun 2027 05:21:29.553,6 Jun 2027 05:31:56.525,626.972
63,6 Jun 2027 06:55:38.373,6 Jun 2027 07:06:43.730,665.357
64,6 Jun 2027 08:29:53.207,6 Jun 2027 08:42:11.764,738.557
65,6 Jun 2027 10:05:05.613,6 Jun 2027 10:18:02.801,777.188
66,6 Jun 2027 11:41:52.447,6 Jun 2027 11:54:00.835,728.388
67,6 Jun 2027 13:20:48.300,6 Jun 2027 13:29:46.952,538.652
68,6 Jun 2027 21:35:38.418,6 Jun 2027 21:45:15.834,577.416
69,6 Jun 2027 23:11:28.221,6 Jun 2027 23:23:50.545,742.324
70,7 Jun 2027 00:47:26.163,7 Jun 2027 01:00:22.137,775.975
71,7 Jun 2027 02:23:15.008,7 Jun 2027 02:35:23.848,728.840
72,7 Jun 2027 03:58:38.259,7 Jun 2027 04:09:34.432,656.173
73,7 Jun 2027 05:33:18.971,7 Jun 2027 05:43:46.689,627.718
74,7 Jun 2027 07:07:25.542,7 Jun 2027 07:18:39.642,674.100
75,7 Jun 2027 08:41:45.035,7 Jun 2027 08:54:11.582,746.547
76,7 Jun 2027 10:17:07.499,7 Jun 2027 10:30:04.297,776.798
77,7 Jun 2027 11:54:08.353,7 Jun 2027 12:06:02.147,713.795
78,7 Jun 2027 13:33:24.163,7 Jun 2027 13:41:43.984,499.821
79,7 Jun 2027 20:12:58.210,7 Jun 2027 20:16:08.452,190.243
80,7 Jun 2027 21:47:37.493,7 Jun 2027 21:57:45.314,607.822
81,7 Jun 2027 23:23:29.789,7 Jun 2027 23:36:02.317,752.528
82,8 Jun 2027 00:59:27.393,8 Jun 2027 01:12:20.932,773.539
83,8 Jun 2027 02:35:14.029,8 Jun 2027 02:47:13.806,719.777
84,8 Jun 2027 04:10:32.727,8 Jun 2027 04:21:21.551,648.824
85,8 Jun 2027 05:45:07.787,8 Jun 2027 05:55:37.561,629.774
86,8 Jun 2027 07:19:12.918,8 Jun 2027 07:30:36.186,683.267
87,8 Jun 2027 08:53:37.866,8 Jun 2027 09:06:11.718,753.853
88,8 Jun 2027 10:29:10.929,8 Jun 2027 10:42:05.875,774.946
89,8 Jun 2027 12:06:26.318,8 Jun 2027 12:18:03.262,696.944
90,8 Jun 2027 13:46:03.606,8 Jun 2027 13:53:39.500,455.894
91,8 Jun 2027 20:24:32.067,8 Jun 2027 20:29:17.519,285.452
92,8 Jun 2027 21:59:37.202,8 Jun 2027 22:10:12.166,634.964
93,8 Jun 2027 23:35:31.424,8 Jun 2027 23:48:12.256,760.831
94,9 Jun 2027 01:11:28.452,9 Jun 2027 01:24:18.369,769.917
95,9 Jun 2027 02:47:12.617,9 Jun 2027 02:59:03.029,710.412
96,9 Jun 2027 04:22:26.465,9 Jun 2027 04:33:08.823,642.359
97,9 Jun 2027 05:56:56.074,9 Jun 2027 06:07:29.167,633.093
98,9 Jun 2027 07:31:00.620,9 Jun 2027 07:42:33.312,692.692
99,9 Jun 2027 09:05:31.795,9 Jun 2027 09:18:12.135,760.340
100,9 Jun 2027 10:41:15.957,9 Jun 2027 10:54:07.510,771.552
101,9 Jun 2027 12:18:46.427,9 Jun 2027 12:30:04.126,677.699
102,9 Jun 2027 13:58:47.276,9 Jun 2027 14:05:32.858,405.582
103,9 Jun 2027 20:36:17.433,9 Jun 2027 20:42:13.033,355.600
104,9 Jun 2027 22:11:37.405,9 Jun 2027 22:22:36.540,659.136
105,9 Jun 2027 23:47:33.086,10 Jun 2027 00:00:20.418,767.331
106,10 Jun 2027 01:23:29.320,10 Jun 2027 01:36:14.514,765.194
107,10 Jun 2027 02:59:10.731,10 Jun 2027 03:10:51.624,700.893
108,10 Jun 2027 04:34:19.461,10 Jun 2027 04:44:56.361,636.900
109,10 Jun 2027 06:08:43.920,10 Jun 2027 06:19:21.523,637.603
110,10 Jun 2027 07:42:48.752,10 Jun 2027 07:54:30.988,702.237
111,10 Jun 2027 09:17:26.884,10 Jun 2027 09:30:12.813,765.929
112,10 Jun 2027 10:53:22.651,10 Jun 2027 11:06:09.174,766.523
113,10 Jun 2027 12:31:08.788,10 Jun 2027 12:42:04.667,655.879
114,10 Jun 2027 14:11:36.326,10 Jun 2027 14:17:22.910,346.583
115,10 Jun 2027 20:48:08.059,10 Jun 2027 20:55:01.215,413.156
116,10 Jun 2027 22:23:38.000,10 Jun 2027 22:34:58.573,680.574
117,10 Jun 2027 23:59:34.745,11 Jun 2027 00:12:26.874,772.129
118,11 Jun 2027 01:35:29.957,11 Jun 2027 01:48:09.439,759.483
119,11 Jun 2027 03:11:08.333,11 Jun 2027 03:22:39.686,691.354
120,11 Jun 2027 04:46:11.705,11 Jun 2027 04:56:44.258,632.553
121,11 Jun 2027 06:20:31.405,11 Jun 2027 06:31:14.627,643.222
122,11 Jun 2027 07:54:37.422,11 Jun 2027 08:06:29.177,711.755
123,11 Jun 2027 09:29:23.205,11 Jun 2027 09:42:13.704,770.499
124,11 Jun 2027 11:05:31.064,11 Jun 2027 11:18:10.832,759.768
125,11 Jun 2027 12:43:33.507,11 Jun 2027 12:54:04.809,631.302
126,11 Jun 2027 14:24:33.204,11 Jun 2027 14:29:07.200,273.996
127,11 Jun 2027 21:00:01.783,11 Jun 2027 21:07:44.226,462.443
128,11 Jun 2027 22:35:38.905,11 Jun 2027 22:47:18.376,699.471
129,12 Jun 2027 00:11:36.372,12 Jun 2027 00:24:31.672,775.300
130,12 Jun 2027 01:47:30.339,12 Jun 2027 02:00:03.205,752.866
131,12 Jun 2027 03:23:05.384,12 Jun 2027 03:34:27.335,681.950
132,12 Jun 2027 04:58:03.205,12 Jun 2027 05:08:32.620,629.415
133,12 Jun 2027 06:32:18.651,12 Jun 2027 06:43:08.469,649.818
134,12 Jun 2027 08:06:26.747,12 Jun 2027 08:18:27.829,721.082
135,12 Jun 2027 09:41:20.830,12 Jun 2027 09:54:14.794,773.963
136,12 Jun 2027 11:17:41.260,12 Jun 2027 11:30:12.457,751.197
137,12 Jun 2027 12:56:00.718,12 Jun 2027 13:06:04.434,603.717
138,12 Jun 2027 14:37:45.548,12 Jun 2027 14:40:38.065,172.517
139,12 Jun 2027 21:11:57.548,12 Jun 2027 21:20:23.129,505.581
140,12 Jun 2027 22:47:40.051,12 Jun 2027 22:59:36.045,715.994
141,13 Jun 2027 00:23:37.943,13 Jun 2027 00:36:34.880,776.938
142,13 Jun 2027 01:59:30.431,13 Jun 2027 02:11:55.891,745.460
143,13 Jun 2027 03:35:01.837,13 Jun 2027 03:46:14.676,672.839
144,13 Jun 2027 05:09:53.974,13 Jun 2027 05:20:21.515,627.541
145,13 Jun 2027 06:44:05.751,13 Jun 2027 06:55:03.039,657.288
146,13 Jun 2027 08:18:16.810,13 Jun 2027 08:30:26.908,730.098
147,13 Jun 2027 09:53:19.825,13 Jun 2027 10:06:16.044,776.219
148,13 Jun 2027 11:29:53.295,13 Jun 2027 11:42:14.011,740.717
149,13 Jun 2027 13:08:30.585,13 Jun 2027 13:18:03.406,572.821
150,13 Jun 2027 21:23:54.751,13 Jun 2027 21:32:58.532,543.780
151,13 Jun 2027 22:59:41.388,13 Jun 2027 23:11:51.666,730.278
