dataset/facility_timing/facility_Facility-Murmansk1/Murmansk1-To-KinoSat_111903.csv

Acces,Start Time (UTCG),Stop Time (UTCG),Duration (sec)
1,1 Jun 2027 03:18:34.697,1 Jun 2027 03:26:01.080,446.384
2,1 Jun 2027 04:54:11.507,1 Jun 2027 05:05:44.399,692.891
3,1 Jun 2027 06:30:10.097,1 Jun 2027 06:43:04.596,774.499
4,1 Jun 2027 08:06:05.877,1 Jun 2027 08:18:41.159,755.282
5,1 Jun 2027 09:41:43.692,1 Jun 2027 09:53:07.610,683.918
6,1 Jun 2027 11:16:45.066,1 Jun 2027 11:27:11.755,626.689
7,1 Jun 2027 12:51:02.461,1 Jun 2027 13:01:44.787,642.326
8,1 Jun 2027 14:25:08.560,1 Jun 2027 14:37:02.434,713.874
9,1 Jun 2027 15:59:57.385,1 Jun 2027 16:12:49.179,771.794
10,1 Jun 2027 17:36:10.340,1 Jun 2027 17:48:47.792,757.452
11,1 Jun 2027 19:14:19.392,1 Jun 2027 19:24:42.684,623.292
12,1 Jun 2027 20:55:30.176,1 Jun 2027 20:59:41.978,251.802
13,2 Jun 2027 03:30:30.534,2 Jun 2027 03:38:42.152,491.618
14,2 Jun 2027 05:06:13.160,2 Jun 2027 05:18:03.577,710.417
15,2 Jun 2027 06:42:12.257,2 Jun 2027 06:55:08.961,776.704
16,2 Jun 2027 08:18:06.643,2 Jun 2027 08:30:34.628,747.985
17,2 Jun 2027 09:53:40.928,2 Jun 2027 10:04:55.264,674.336
18,2 Jun 2027 11:28:36.541,2 Jun 2027 11:39:00.607,624.067
19,2 Jun 2027 13:02:49.803,2 Jun 2027 13:13:39.387,649.584
20,2 Jun 2027 14:36:58.406,2 Jun 2027 14:49:01.794,723.388
21,2 Jun 2027 16:11:55.934,2 Jun 2027 16:24:50.887,774.952
22,2 Jun 2027 17:48:21.779,2 Jun 2027 18:00:49.963,748.184
23,2 Jun 2027 19:26:48.223,2 Jun 2027 19:36:42.737,594.514
24,2 Jun 2027 21:08:51.333,2 Jun 2027 21:11:06.200,134.867
25,3 Jun 2027 03:42:27.971,3 Jun 2027 03:51:19.520,531.549
26,3 Jun 2027 05:18:15.014,3 Jun 2027 05:30:20.644,725.630
27,3 Jun 2027 06:54:14.339,3 Jun 2027 07:07:11.735,777.396
28,3 Jun 2027 08:30:07.100,3 Jun 2027 08:42:27.032,739.931
29,3 Jun 2027 10:05:37.529,3 Jun 2027 10:16:42.665,665.136
30,3 Jun 2027 11:40:27.260,3 Jun 2027 11:50:50.058,622.798
31,3 Jun 2027 13:14:37.052,3 Jun 2027 13:25:34.717,657.665
32,3 Jun 2027 14:48:49.062,3 Jun 2027 15:01:01.578,732.516
33,3 Jun 2027 16:23:55.904,3 Jun 2027 16:36:52.751,776.847
34,3 Jun 2027 18:00:35.129,3 Jun 2027 18:12:52.064,736.935
35,3 Jun 2027 19:39:19.803,3 Jun 2027 19:48:42.090,562.287
36,4 Jun 2027 03:54:26.566,4 Jun 2027 04:03:53.642,567.076
37,4 Jun 2027 05:30:17.020,4 Jun 2027 05:42:35.679,738.659
38,4 Jun 2027 07:06:16.313,4 Jun 2027 07:19:12.979,776.666
39,4 Jun 2027 08:42:07.212,4 Jun 2027 08:54:18.459,731.247
40,4 Jun 2027 10:17:33.458,4 Jun 2027 10:28:29.933,656.475
41,4 Jun 2027 11:52:17.273,4 Jun 2027 12:02:40.175,622.902
42,4 Jun 2027 13:26:24.329,4 Jun 2027 13:37:30.753,666.424
43,4 Jun 2027 15:00:40.620,4 Jun 2027 15:13:01.741,741.121
44,4 Jun 2027 16:35:57.358,4 Jun 2027 16:48:54.749,777.391
45,4 Jun 2027 18:12:50.449,4 Jun 2027 18:24:54.050,723.601
46,4 Jun 2027 19:51:54.374,4 Jun 2027 20:00:40.527,526.153
47,5 Jun 2027 02:31:54.972,5 Jun 2027 02:34:31.638,156.666
48,5 Jun 2027 04:06:26.043,5 Jun 2027 04:16:24.815,598.772
49,5 Jun 2027 05:42:19.139,5 Jun 2027 05:54:48.748,749.609
50,5 Jun 2027 07:18:18.160,5 Jun 2027 07:31:12.739,774.579
51,5 Jun 2027 08:54:06.929,5 Jun 2027 09:06:08.997,722.069
52,5 Jun 2027 10:29:28.676,5 Jun 2027 10:40:17.195,648.519
53,5 Jun 2027 12:04:06.628,5 Jun 2027 12:14:31.011,624.382
54,5 Jun 2027 13:38:11.754,5 Jun 2027 13:49:27.450,675.696
55,5 Jun 2027 15:12:33.170,5 Jun 2027 15:25:02.243,749.073
56,5 Jun 2027 16:48:00.356,5 Jun 2027 17:00:56.838,776.482
57,5 Jun 2027 18:25:07.813,5 Jun 2027 18:36:55.870,708.057
58,5 Jun 2027 20:04:32.248,5 Jun 2027 20:12:37.750,485.502
59,6 Jun 2027 02:43:23.810,6 Jun 2027 02:47:47.904,264.095
60,6 Jun 2027 04:18:26.188,6 Jun 2027 04:28:53.267,627.080
61,6 Jun 2027 05:54:21.323,6 Jun 2027 06:06:59.927,758.604
62,6 Jun 2027 07:30:19.843,6 Jun 2027 07:43:11.091,771.247
63,6 Jun 2027 09:06:06.224,6 Jun 2027 09:17:58.742,712.518
64,6 Jun 2027 10:41:23.167,6 Jun 2027 10:52:04.570,641.403
65,6 Jun 2027 12:15:55.398,6 Jun 2027 12:26:22.600,627.202
66,6 Jun 2027 13:49:59.454,6 Jun 2027 14:01:24.773,685.319
67,6 Jun 2027 15:24:26.796,6 Jun 2027 15:37:03.060,756.265
68,6 Jun 2027 17:00:04.956,6 Jun 2027 17:12:59.004,774.048
69,6 Jun 2027 18:37:27.307,6 Jun 2027 18:48:57.484,690.177
70,6 Jun 2027 20:17:13.907,6 Jun 2027 20:24:33.298,439.391
71,7 Jun 2027 02:55:07.937,7 Jun 2027 03:00:46.798,338.861
72,7 Jun 2027 04:30:26.858,7 Jun 2027 04:41:19.167,652.309
73,7 Jun 2027 06:06:23.551,7 Jun 2027 06:19:09.271,765.720
74,7 Jun 2027 07:42:21.334,7 Jun 2027 07:55:08.093,766.759
75,7 Jun 2027 09:18:05.058,7 Jun 2027 09:29:47.796,702.738
76,7 Jun 2027 10:53:16.892,7 Jun 2027 11:03:52.168,635.276
77,7 Jun 2027 12:27:43.655,7 Jun 2027 12:38:14.958,631.303
78,7 Jun 2027 14:01:47.536,7 Jun 2027 14:13:22.674,695.138
79,7 Jun 2027 15:36:21.575,7 Jun 2027 15:49:04.143,762.568
80,7 Jun 2027 17:12:11.215,7 Jun 2027 17:25:01.216,770.001
81,7 Jun 2027 18:49:49.020,7 Jun 2027 19:00:58.823,669.803
82,7 Jun 2027 20:30:00.124,7 Jun 2027 20:36:26.386,386.262
83,8 Jun 2027 03:06:58.242,8 Jun 2027 03:13:37.430,399.187
84,8 Jun 2027 04:42:27.944,8 Jun 2027 04:53:42.651,674.708
85,8 Jun 2027 06:18:25.776,8 Jun 2027 06:31:16.853,771.078
86,8 Jun 2027 07:54:22.609,8 Jun 2027 08:07:03.818,761.209
87,8 Jun 2027 09:30:03.374,8 Jun 2027 09:41:36.260,692.886
88,8 Jun 2027 11:05:09.838,8 Jun 2027 11:15:40.099,630.262
89,8 Jun 2027 12:39:31.492,8 Jun 2027 12:50:08.089,636.598
90,8 Jun 2027 14:13:36.117,8 Jun 2027 14:25:21.123,705.006
91,8 Jun 2027 15:48:17.584,8 Jun 2027 16:01:05.473,767.889
92,8 Jun 2027 17:24:19.199,8 Jun 2027 17:37:03.448,764.250
93,8 Jun 2027 19:02:13.055,8 Jun 2027 19:12:59.812,646.757
94,8 Jun 2027 20:42:52.343,8 Jun 2027 20:48:15.578,323.235
95,9 Jun 2027 03:18:52.001,9 Jun 2027 03:26:22.495,450.494
96,9 Jun 2027 04:54:29.356,9 Jun 2027 05:06:03.844,694.488
97,9 Jun 2027 06:30:27.980,9 Jun 2027 06:43:22.729,774.748
98,9 Jun 2027 08:06:23.637,9 Jun 2027 08:18:58.328,754.691
99,9 Jun 2027 09:42:01.143,9 Jun 2027 09:53:24.244,683.101
100,9 Jun 2027 11:17:02.010,9 Jun 2027 11:27:28.470,626.460
101,9 Jun 2027 12:51:19.022,9 Jun 2027 13:02:01.997,642.976
102,9 Jun 2027 14:25:25.314,9 Jun 2027 14:37:20.065,714.751
103,9 Jun 2027 16:00:14.888,9 Jun 2027 16:13:07.013,772.125
104,9 Jun 2027 17:36:28.968,9 Jun 2027 17:49:05.663,756.695
105,9 Jun 2027 19:14:39.533,9 Jun 2027 19:25:00.368,620.835
106,9 Jun 2027 20:55:53.949,9 Jun 2027 20:59:57.476,243.527
107,10 Jun 2027 03:30:47.993,10 Jun 2027 03:39:03.218,495.224
108,10 Jun 2027 05:06:31.025,10 Jun 2027 05:18:22.836,711.811
109,10 Jun 2027 06:42:30.136,10 Jun 2027 06:55:26.955,776.820
110,10 Jun 2027 08:18:24.381,10 Jun 2027 08:30:51.700,747.319
111,10 Jun 2027 09:53:58.324,10 Jun 2027 10:05:11.874,673.551
112,10 Jun 2027 11:28:53.418,10 Jun 2027 11:39:17.372,623.954
113,10 Jun 2027 13:03:06.352,10 Jun 2027 13:13:56.663,650.311
114,10 Jun 2027 14:37:15.228,10 Jun 2027 14:49:19.460,724.231
115,10 Jun 2027 16:12:13.562,10 Jun 2027 16:25:08.735,775.173
116,10 Jun 2027 17:48:40.571,10 Jun 2027 18:01:07.829,747.257
117,10 Jun 2027 19:27:08.601,10 Jun 2027 19:37:00.362,591.761
118,10 Jun 2027 21:09:19.117,10 Jun 2027 21:11:17.871,118.753
119,11 Jun 2027 03:42:45.539,11 Jun 2027 03:51:40.295,534.756
120,11 Jun 2027 05:18:32.891,11 Jun 2027 05:30:39.722,726.832
121,11 Jun 2027 06:54:32.207,11 Jun 2027 07:07:29.594,777.386
122,11 Jun 2027 08:30:24.803,11 Jun 2027 08:42:44.015,739.212
123,11 Jun 2027 10:05:54.865,11 Jun 2027 10:16:59.258,664.394
124,11 Jun 2027 11:40:44.072,11 Jun 2027 11:51:06.877,622.805
125,11 Jun 2027 13:14:53.599,11 Jun 2027 13:25:52.053,658.454
126,11 Jun 2027 14:49:05.960,11 Jun 2027 15:01:19.278,733.318
127,11 Jun 2027 16:24:13.659,11 Jun 2027 16:37:10.610,776.951
128,11 Jun 2027 18:00:54.093,11 Jun 2027 18:13:09.916,735.823
129,11 Jun 2027 19:39:40.436,11 Jun 2027 19:48:59.639,559.203
130,12 Jun 2027 03:54:44.216,12 Jun 2027 04:04:14.152,569.936
131,12 Jun 2027 05:30:34.905,12 Jun 2027 05:42:54.583,739.678
132,12 Jun 2027 07:06:34.168,12 Jun 2027 07:19:30.706,776.538
133,12 Jun 2027 08:42:24.879,12 Jun 2027 08:54:35.361,730.482
134,12 Jun 2027 10:17:50.731,12 Jun 2027 10:28:46.521,655.790
135,12 Jun 2027 11:52:34.025,12 Jun 2027 12:02:57.055,623.030
136,12 Jun 2027 13:26:40.889,12 Jun 2027 13:37:48.146,667.257
137,12 Jun 2027 15:00:57.603,12 Jun 2027 15:13:19.470,741.868
138,12 Jun 2027 16:36:15.246,12 Jun 2027 16:49:12.610,777.364
139,12 Jun 2027 18:13:09.585,12 Jun 2027 18:25:11.886,722.301
140,12 Jun 2027 19:52:15.287,12 Jun 2027 20:00:57.978,522.691
141,13 Jun 2027 02:32:08.779,13 Jun 2027 02:34:57.258,168.479
142,13 Jun 2027 04:06:43.754,13 Jun 2027 04:16:45.081,601.327
143,13 Jun 2027 05:42:37.027,13 Jun 2027 05:55:07.484,750.457
144,13 Jun 2027 07:18:36.000,13 Jun 2027 07:31:30.339,774.340
145,13 Jun 2027 08:54:24.557,13 Jun 2027 09:06:25.827,721.270
146,13 Jun 2027 10:29:45.889,13 Jun 2027 10:40:33.788,647.899
147,13 Jun 2027 12:04:23.325,13 Jun 2027 12:14:47.954,624.629
148,13 Jun 2027 13:38:28.329,13 Jun 2027 13:49:44.897,676.568
149,13 Jun 2027 15:12:50.244,13 Jun 2027 15:25:19.999,749.755
150,13 Jun 2027 16:48:18.383,13 Jun 2027 17:01:14.708,776.325
151,13 Jun 2027 18:25:27.139,13 Jun 2027 18:37:13.686,706.548
152,13 Jun 2027 20:04:53.476,13 Jun 2027 20:12:55.067,481.591
