dataset/facility_timing/facility_Facility-Murmansk1/Murmansk1-To-KinoSat_111302.csv

Acces,Start Time (UTCG),Stop Time (UTCG),Duration (sec)
1,1 Jun 2027 00:39:09.195,1 Jun 2027 00:45:45.364,396.169
2,1 Jun 2027 02:14:37.277,1 Jun 2027 02:25:51.162,673.885
3,1 Jun 2027 03:50:34.305,1 Jun 2027 04:03:25.125,770.820
4,1 Jun 2027 05:26:30.453,1 Jun 2027 05:39:11.890,761.437
5,1 Jun 2027 07:02:10.501,1 Jun 2027 07:13:44.428,693.927
6,1 Jun 2027 08:37:16.312,1 Jun 2027 08:47:48.655,632.343
7,1 Jun 2027 10:11:37.788,1 Jun 2027 10:22:16.923,639.134
8,1 Jun 2027 11:45:42.899,1 Jun 2027 11:57:29.808,706.909
9,1 Jun 2027 13:20:25.215,1 Jun 2027 13:33:13.735,768.520
10,1 Jun 2027 14:56:27.885,1 Jun 2027 15:09:11.100,763.214
11,1 Jun 2027 16:34:23.253,1 Jun 2027 16:45:06.461,643.209
12,1 Jun 2027 18:15:06.966,1 Jun 2027 18:20:18.483,311.516
13,2 Jun 2027 00:51:02.415,2 Jun 2027 00:58:30.220,447.804
14,2 Jun 2027 02:26:38.346,2 Jun 2027 02:38:12.016,693.670
15,2 Jun 2027 04:02:36.200,2 Jun 2027 04:15:30.729,774.529
16,2 Jun 2027 05:38:31.173,2 Jun 2027 05:51:06.214,755.041
17,2 Jun 2027 07:14:07.979,2 Jun 2027 07:25:32.303,684.324
18,2 Jun 2027 08:49:08.256,2 Jun 2027 08:59:36.925,628.669
19,2 Jun 2027 10:23:25.200,2 Jun 2027 10:34:10.651,645.451
20,2 Jun 2027 11:57:32.031,2 Jun 2027 12:09:28.499,716.468
21,2 Jun 2027 13:32:22.438,2 Jun 2027 13:45:14.991,772.553
22,2 Jun 2027 15:08:37.537,2 Jun 2027 15:21:12.993,755.456
23,2 Jun 2027 16:46:49.636,2 Jun 2027 16:57:06.609,616.973
24,2 Jun 2027 18:28:10.384,2 Jun 2027 18:31:58.005,227.621
25,3 Jun 2027 01:02:57.920,3 Jun 2027 01:11:10.699,492.779
26,3 Jun 2027 02:38:39.684,3 Jun 2027 02:50:30.685,711.001
27,3 Jun 2027 04:14:38.041,3 Jun 2027 04:27:34.696,776.656
28,3 Jun 2027 05:50:31.608,3 Jun 2027 06:02:59.414,747.807
29,3 Jun 2027 07:26:04.875,3 Jun 2027 07:37:19.826,674.951
30,3 Jun 2027 09:00:59.452,3 Jun 2027 09:11:25.716,626.264
31,3 Jun 2027 10:35:12.424,3 Jun 2027 10:46:05.120,652.696
32,3 Jun 2027 12:09:21.878,3 Jun 2027 12:21:27.636,725.758
33,3 Jun 2027 13:44:21.017,3 Jun 2027 13:57:16.416,775.398
34,3 Jun 2027 15:20:49.016,3 Jun 2027 15:33:14.833,745.817
35,3 Jun 2027 16:59:18.613,3 Jun 2027 17:09:06.172,587.558
36,3 Jun 2027 18:41:46.145,3 Jun 2027 18:43:07.225,81.080
37,4 Jun 2027 01:14:55.022,4 Jun 2027 01:23:47.504,532.482
38,4 Jun 2027 02:50:41.218,4 Jun 2027 03:02:47.265,726.047
39,4 Jun 2027 04:26:39.799,4 Jun 2027 04:39:37.102,777.303
40,4 Jun 2027 06:02:31.737,4 Jun 2027 06:14:51.574,739.836
41,4 Jun 2027 07:38:01.141,4 Jun 2027 07:49:07.114,665.973
42,4 Jun 2027 09:12:49.912,4 Jun 2027 09:23:15.099,625.187
43,4 Jun 2027 10:46:59.576,4 Jun 2027 10:58:00.304,660.728
44,4 Jun 2027 12:21:12.536,4 Jun 2027 12:33:27.186,734.650
45,4 Jun 2027 13:56:21.007,4 Jun 2027 14:09:17.993,776.986
46,4 Jun 2027 15:33:02.391,4 Jun 2027 15:45:16.588,734.197
47,4 Jun 2027 17:11:50.371,4 Jun 2027 17:21:04.989,554.618
48,5 Jun 2027 01:26:53.282,5 Jun 2027 01:36:21.080,567.798
49,5 Jun 2027 03:02:42.902,5 Jun 2027 03:15:01.840,738.937
50,5 Jun 2027 04:38:41.455,5 Jun 2027 04:51:37.991,776.535
51,5 Jun 2027 06:14:31.514,5 Jun 2027 06:26:42.778,731.264
52,5 Jun 2027 07:49:56.744,5 Jun 2027 08:00:54.281,657.537
53,5 Jun 2027 09:24:39.688,5 Jun 2027 09:35:05.143,625.454
54,5 Jun 2027 10:58:46.772,5 Jun 2027 11:09:56.173,669.400
55,5 Jun 2027 12:33:04.098,5 Jun 2027 12:45:27.104,743.006
56,5 Jun 2027 14:08:22.471,5 Jun 2027 14:21:19.697,777.226
57,5 Jun 2027 15:45:17.728,5 Jun 2027 15:57:18.221,720.493
58,5 Jun 2027 17:24:25.164,5 Jun 2027 17:33:02.825,517.661
59,6 Jun 2027 00:04:23.503,6 Jun 2027 00:06:58.415,154.912
60,6 Jun 2027 01:38:52.423,6 Jun 2027 01:48:51.729,599.306
61,6 Jun 2027 03:14:44.699,6 Jun 2027 03:27:14.468,749.769
62,6 Jun 2027 04:50:42.981,6 Jun 2027 05:03:37.423,774.442
63,6 Jun 2027 06:26:30.900,6 Jun 2027 06:38:33.115,722.216
64,6 Jun 2027 08:01:51.648,6 Jun 2027 08:12:41.452,649.804
65,6 Jun 2027 09:36:28.829,6 Jun 2027 09:46:55.892,627.063
66,6 Jun 2027 11:10:34.133,6 Jun 2027 11:21:52.690,678.557
67,6 Jun 2027 12:44:56.650,6 Jun 2027 12:57:27.351,750.702
68,6 Jun 2027 14:20:25.476,6 Jun 2027 14:33:21.487,776.010
69,6 Jun 2027 15:57:35.115,6 Jun 2027 16:09:19.676,704.561
70,6 Jun 2027 17:37:03.333,6 Jun 2027 17:44:59.356,476.023
71,7 Jun 2027 00:15:51.471,7 Jun 2027 00:20:14.644,263.173
72,7 Jun 2027 01:50:52.234,7 Jun 2027 02:01:19.681,627.447
73,7 Jun 2027 03:26:46.567,7 Jun 2027 03:39:25.232,758.665
74,7 Jun 2027 05:02:44.343,7 Jun 2027 05:15:35.469,771.126
75,7 Jun 2027 06:38:29.866,7 Jun 2027 06:50:22.680,712.814
76,7 Jun 2027 08:13:45.825,7 Jun 2027 08:24:28.745,642.919
77,7 Jun 2027 09:48:17.407,7 Jun 2027 09:58:47.379,629.972
78,7 Jun 2027 11:22:21.779,7 Jun 2027 11:33:49.817,688.038
79,7 Jun 2027 12:56:50.273,7 Jun 2027 13:09:27.908,757.634
80,7 Jun 2027 14:32:30.068,7 Jun 2027 14:45:23.347,773.278
81,7 Jun 2027 16:09:54.624,7 Jun 2027 16:21:20.912,686.287
82,7 Jun 2027 17:49:45.414,7 Jun 2027 17:56:54.067,428.652
83,8 Jun 2027 00:27:35.048,8 Jun 2027 00:33:13.204,338.156
84,8 Jun 2027 02:02:52.568,8 Jun 2027 02:13:45.100,652.532
85,8 Jun 2027 03:38:48.476,8 Jun 2027 03:51:34.184,765.708
86,8 Jun 2027 05:14:45.516,8 Jun 2027 05:27:32.187,766.671
87,8 Jun 2027 06:50:28.368,8 Jun 2027 07:02:11.568,703.200
88,8 Jun 2027 08:25:39.254,8 Jun 2027 08:36:16.264,637.011
89,8 Jun 2027 10:00:05.494,8 Jun 2027 10:10:39.622,634.128
90,8 Jun 2027 11:34:09.817,8 Jun 2027 11:45:47.510,697.693
91,8 Jun 2027 13:08:45.049,8 Jun 2027 13:21:28.721,763.672
92,8 Jun 2027 14:44:36.315,8 Jun 2027 14:57:25.246,768.931
93,8 Jun 2027 16:22:16.351,8 Jun 2027 16:33:21.855,665.504
94,8 Jun 2027 18:02:32.283,8 Jun 2027 18:08:46.071,373.788
95,9 Jun 2027 00:39:24.880,9 Jun 2027 00:46:03.441,398.561
96,9 Jun 2027 02:14:53.323,9 Jun 2027 02:26:08.124,674.802
97,9 Jun 2027 03:50:50.383,9 Jun 2027 04:03:41.395,771.012
98,9 Jun 2027 05:26:46.466,9 Jun 2027 05:39:27.650,761.184
99,9 Jun 2027 07:02:26.364,9 Jun 2027 07:13:59.885,693.521
100,9 Jun 2027 08:37:31.921,9 Jun 2027 08:48:04.116,632.195
101,9 Jun 2027 10:11:53.182,9 Jun 2027 10:22:32.627,639.445
102,9 Jun 2027 11:45:58.360,9 Jun 2027 11:57:45.737,707.377
103,9 Jun 2027 13:20:41.040,9 Jun 2027 13:33:29.774,768.735
104,9 Jun 2027 14:56:44.273,9 Jun 2027 15:09:27.160,762.886
105,9 Jun 2027 16:34:40.400,9 Jun 2027 16:45:22.432,642.031
106,9 Jun 2027 18:15:25.640,9 Jun 2027 18:20:33.670,308.030
107,10 Jun 2027 00:51:18.210,10 Jun 2027 00:58:48.082,449.872
108,10 Jun 2027 02:26:54.406,10 Jun 2027 02:38:28.879,694.474
109,10 Jun 2027 04:02:52.272,10 Jun 2027 04:15:46.925,774.652
110,10 Jun 2027 05:38:47.174,10 Jun 2027 05:51:21.918,754.744
111,10 Jun 2027 07:14:23.814,10 Jun 2027 07:25:47.742,683.928
112,10 Jun 2027 08:49:23.829,10 Jun 2027 08:59:52.410,628.582
113,10 Jun 2027 10:23:40.583,10 Jun 2027 10:34:26.389,645.806
114,10 Jun 2027 11:57:47.523,10 Jun 2027 12:09:44.447,716.924
115,10 Jun 2027 13:32:38.322,10 Jun 2027 13:45:31.033,772.711
116,10 Jun 2027 15:08:54.007,10 Jun 2027 15:21:29.049,755.041
117,10 Jun 2027 16:47:06.901,10 Jun 2027 16:57:22.552,615.652
118,10 Jun 2027 18:28:29.776,10 Jun 2027 18:32:12.566,222.790
119,11 Jun 2027 01:03:13.790,11 Jun 2027 01:11:28.388,494.598
120,11 Jun 2027 02:38:55.751,11 Jun 2027 02:50:47.452,711.702
121,11 Jun 2027 04:14:54.107,11 Jun 2027 04:27:50.819,776.712
122,11 Jun 2027 05:50:47.593,11 Jun 2027 06:03:15.070,747.477
123,11 Jun 2027 07:26:20.681,11 Jun 2027 07:37:35.253,674.572
124,11 Jun 2027 09:01:14.990,11 Jun 2027 09:11:41.227,626.237
125,11 Jun 2027 10:35:27.801,11 Jun 2027 10:46:20.890,653.089
126,11 Jun 2027 12:09:37.405,11 Jun 2027 12:21:43.599,726.194
127,11 Jun 2027 13:44:36.965,11 Jun 2027 13:57:32.466,775.501
128,11 Jun 2027 15:21:05.567,11 Jun 2027 15:33:30.882,745.316
129,11 Jun 2027 16:59:36.002,11 Jun 2027 17:09:22.079,586.077
130,11 Jun 2027 18:42:10.529,11 Jun 2027 18:43:16.885,66.356
131,12 Jun 2027 01:15:10.945,12 Jun 2027 01:24:05.043,534.098
132,12 Jun 2027 02:50:57.290,12 Jun 2027 03:03:03.941,726.651
133,12 Jun 2027 04:26:55.859,12 Jun 2027 04:39:53.155,777.296
134,12 Jun 2027 06:02:47.705,12 Jun 2027 06:15:07.184,739.479
135,12 Jun 2027 07:38:16.915,12 Jun 2027 07:49:22.532,665.617
136,12 Jun 2027 09:13:05.417,12 Jun 2027 09:23:30.638,625.221
137,12 Jun 2027 10:47:14.952,12 Jun 2027 10:58:16.104,661.152
138,12 Jun 2027 12:21:28.102,12 Jun 2027 12:33:43.166,735.064
139,12 Jun 2027 13:56:37.021,12 Jun 2027 14:09:34.048,777.027
140,12 Jun 2027 15:33:19.035,12 Jun 2027 15:45:32.629,733.595
141,12 Jun 2027 17:12:07.896,12 Jun 2027 17:21:20.851,552.956
142,13 Jun 2027 01:27:09.247,13 Jun 2027 01:36:38.480,569.233
143,13 Jun 2027 03:02:58.980,13 Jun 2027 03:15:18.422,739.442
144,13 Jun 2027 04:38:57.510,13 Jun 2027 04:51:53.972,776.462
145,13 Jun 2027 06:14:47.457,13 Jun 2027 06:26:58.351,730.894
146,13 Jun 2027 07:50:12.480,13 Jun 2027 08:01:09.700,657.220
147,13 Jun 2027 09:24:55.162,13 Jun 2027 09:35:20.713,625.551
148,13 Jun 2027 10:59:02.154,13 Jun 2027 11:10:11.998,669.844
149,13 Jun 2027 12:33:19.712,13 Jun 2027 12:45:43.097,743.385
150,13 Jun 2027 14:08:38.557,13 Jun 2027 14:21:35.749,777.192
151,13 Jun 2027 15:45:34.468,13 Jun 2027 15:57:34.252,719.783
152,13 Jun 2027 17:24:42.838,13 Jun 2027 17:33:18.633,515.795
