dataset/facility_timing/facility_Facility-Murmansk1/Murmansk1-To-KinoSat_110703.csv

Acces,Start Time (UTCG),Stop Time (UTCG),Duration (sec)
1,1 Jun 2027 00:52:54.966,1 Jun 2027 01:05:41.027,766.061
2,1 Jun 2027 02:28:51.431,1 Jun 2027 02:41:37.752,766.321
3,1 Jun 2027 04:04:33.516,1 Jun 2027 04:16:16.470,702.953
4,1 Jun 2027 05:39:43.434,1 Jun 2027 05:50:21.343,637.909
5,1 Jun 2027 07:14:09.017,1 Jun 2027 07:24:45.387,636.370
6,1 Jun 2027 08:48:13.685,1 Jun 2027 08:59:53.702,700.017
7,1 Jun 2027 10:22:50.172,1 Jun 2027 10:35:34.905,764.733
8,1 Jun 2027 11:58:43.275,1 Jun 2027 12:11:31.100,767.825
9,1 Jun 2027 13:36:25.820,1 Jun 2027 13:47:26.932,661.112
10,1 Jun 2027 15:16:46.897,1 Jun 2027 15:22:48.001,361.104
11,1 Jun 2027 21:53:31.947,1 Jun 2027 22:00:13.369,401.422
12,1 Jun 2027 23:29:00.063,1 Jun 2027 23:40:16.172,676.109
13,2 Jun 2027 01:04:56.647,2 Jun 2027 01:17:47.874,771.227
14,2 Jun 2027 02:40:52.141,2 Jun 2027 02:53:32.954,760.813
15,2 Jun 2027 04:16:31.252,2 Jun 2027 04:28:04.649,693.398
16,2 Jun 2027 05:51:35.860,2 Jun 2027 06:02:09.159,633.299
17,2 Jun 2027 07:25:56.579,2 Jun 2027 07:36:38.337,641.758
18,2 Jun 2027 09:00:02.230,2 Jun 2027 09:11:51.796,709.566
19,2 Jun 2027 10:34:46.220,2 Jun 2027 10:47:35.771,769.551
20,2 Jun 2027 12:10:51.310,2 Jun 2027 12:23:32.784,761.474
21,2 Jun 2027 13:48:50.013,2 Jun 2027 13:59:27.191,637.178
22,2 Jun 2027 15:29:41.649,2 Jun 2027 15:34:33.994,292.345
23,2 Jun 2027 22:05:25.133,2 Jun 2027 22:12:57.421,452.288
24,2 Jun 2027 23:41:00.928,2 Jun 2027 23:52:36.478,695.550
25,3 Jun 2027 01:16:58.303,3 Jun 2027 01:29:53.053,774.749
26,3 Jun 2027 02:52:52.604,3 Jun 2027 03:05:26.980,754.376
27,3 Jun 2027 04:28:28.441,3 Jun 2027 04:39:52.386,683.944
28,3 Jun 2027 06:03:27.536,3 Jun 2027 06:13:57.416,629.879
29,3 Jun 2027 07:37:43.873,3 Jun 2027 07:48:32.032,648.158
30,3 Jun 2027 09:11:51.404,3 Jun 2027 09:23:50.360,718.955
31,3 Jun 2027 10:46:43.559,3 Jun 2027 10:59:36.841,773.282
32,3 Jun 2027 12:23:01.117,3 Jun 2027 12:35:34.437,753.321
33,3 Jun 2027 14:01:16.667,3 Jun 2027 14:11:26.964,610.297
34,3 Jun 2027 15:42:49.001,3 Jun 2027 15:46:09.444,200.443
35,3 Jun 2027 22:17:20.533,3 Jun 2027 22:25:37.185,496.652
36,3 Jun 2027 23:53:02.043,4 Jun 2027 00:04:54.627,712.584
37,4 Jun 2027 01:28:59.906,4 Jun 2027 01:41:56.618,776.712
38,4 Jun 2027 03:04:52.777,4 Jun 2027 03:17:19.908,747.131
39,4 Jun 2027 04:40:25.050,4 Jun 2027 04:51:39.791,674.741
40,4 Jun 2027 06:15:18.480,4 Jun 2027 06:25:46.198,627.718
41,4 Jun 2027 07:49:31.004,4 Jun 2027 08:00:26.453,655.448
42,4 Jun 2027 09:23:41.306,4 Jun 2027 09:35:49.368,728.061
43,4 Jun 2027 10:58:42.250,4 Jun 2027 11:11:38.076,775.827
44,4 Jun 2027 12:35:12.750,4 Jun 2027 12:47:36.032,743.282
45,4 Jun 2027 14:13:45.940,4 Jun 2027 14:23:26.115,580.174
46,4 Jun 2027 22:29:17.490,4 Jun 2027 22:38:13.335,535.845
47,5 Jun 2027 00:05:03.359,5 Jun 2027 00:17:10.709,727.350
48,5 Jun 2027 01:41:01.428,5 Jun 2027 01:53:58.640,777.212
49,5 Jun 2027 03:16:52.642,5 Jun 2027 03:29:11.819,739.177
50,5 Jun 2027 04:52:21.028,5 Jun 2027 05:03:26.980,665.952
51,5 Jun 2027 06:27:08.706,5 Jun 2027 06:37:35.573,626.867
52,5 Jun 2027 08:01:18.085,5 Jun 2027 08:12:21.574,663.489
53,5 Jun 2027 09:35:32.022,5 Jun 2027 09:47:48.770,736.748
54,5 Jun 2027 11:10:42.358,5 Jun 2027 11:23:39.452,777.094
55,5 Jun 2027 12:47:26.279,5 Jun 2027 12:59:37.527,731.248
56,5 Jun 2027 14:26:18.038,5 Jun 2027 14:35:24.473,546.435
57,5 Jun 2027 22:41:15.576,5 Jun 2027 22:50:46.298,570.721
58,6 Jun 2027 00:17:04.826,6 Jun 2027 00:29:24.805,739.978
59,6 Jun 2027 01:53:02.843,6 Jun 2027 02:05:59.168,776.325
60,6 Jun 2027 03:28:52.148,6 Jun 2027 03:41:02.798,730.650
61,6 Jun 2027 05:04:16.344,6 Jun 2027 05:15:14.067,657.724
62,6 Jun 2027 06:38:58.266,6 Jun 2027 06:49:25.605,627.339
63,6 Jun 2027 08:13:05.231,6 Jun 2027 08:24:17.364,672.133
64,6 Jun 2027 09:47:23.655,6 Jun 2027 09:59:48.533,744.878
65,6 Jun 2027 11:22:43.937,6 Jun 2027 11:35:40.943,777.006
66,6 Jun 2027 12:59:41.776,6 Jun 2027 13:11:38.892,717.116
67,6 Jun 2027 14:38:53.220,6 Jun 2027 14:47:21.792,508.572
68,6 Jun 2027 21:18:43.581,6 Jun 2027 21:21:27.710,164.129
69,6 Jun 2027 22:53:14.523,6 Jun 2027 23:03:16.370,601.846
70,7 Jun 2027 00:29:06.394,7 Jun 2027 00:41:36.983,750.589
71,7 Jun 2027 02:05:04.122,7 Jun 2027 02:17:58.265,774.144
72,7 Jun 2027 03:40:51.271,7 Jun 2027 03:52:52.924,721.653
73,7 Jun 2027 05:16:10.973,7 Jun 2027 05:27:01.172,650.199
74,7 Jun 2027 06:50:47.211,7 Jun 2027 07:01:16.336,629.125
75,7 Jun 2027 08:24:52.560,7 Jun 2027 08:36:13.794,681.234
76,7 Jun 2027 09:59:16.274,7 Jun 2027 10:11:48.622,752.348
77,7 Jun 2027 11:34:47.049,7 Jun 2027 11:47:42.524,775.475
78,7 Jun 2027 13:11:59.316,7 Jun 2027 13:23:40.067,700.751
79,7 Jun 2027 14:51:31.877,7 Jun 2027 14:59:17.690,465.812
80,7 Jun 2027 21:30:12.955,7 Jun 2027 21:34:41.730,268.775
81,7 Jun 2027 23:05:14.135,7 Jun 2027 23:15:43.771,629.635
82,8 Jun 2027 00:41:08.038,8 Jun 2027 00:53:47.315,759.278
83,8 Jun 2027 02:17:05.234,8 Jun 2027 02:29:55.992,770.757
84,8 Jun 2027 03:52:49.968,8 Jun 2027 04:04:42.301,712.333
85,8 Jun 2027 05:28:04.876,8 Jun 2027 05:38:48.412,643.535
86,8 Jun 2027 07:02:35.610,8 Jun 2027 07:13:07.798,632.188
87,8 Jun 2027 08:36:40.190,8 Jun 2027 08:48:10.814,690.624
88,8 Jun 2027 10:11:09.976,8 Jun 2027 10:23:48.998,759.022
89,8 Jun 2027 11:46:51.748,8 Jun 2027 11:59:44.166,772.418
90,8 Jun 2027 13:24:18.981,8 Jun 2027 13:35:41.010,682.029
91,8 Jun 2027 15:04:14.595,8 Jun 2027 15:11:11.607,417.012
92,8 Jun 2027 21:41:56.765,8 Jun 2027 21:47:39.265,342.501
93,8 Jun 2027 23:17:14.261,8 Jun 2027 23:28:08.666,654.405
94,9 Jun 2027 00:53:09.714,9 Jun 2027 01:05:55.855,766.141
95,9 Jun 2027 02:29:06.160,9 Jun 2027 02:41:52.412,766.252
96,9 Jun 2027 04:04:48.200,9 Jun 2027 04:16:31.027,702.827
97,9 Jun 2027 05:39:58.041,9 Jun 2027 05:50:35.893,637.852
98,9 Jun 2027 07:14:23.548,9 Jun 2027 07:25:00.008,636.460
99,9 Jun 2027 08:48:28.227,9 Jun 2027 09:00:08.399,700.172
100,9 Jun 2027 10:23:04.823,9 Jun 2027 10:35:49.641,764.818
101,9 Jun 2027 11:58:58.101,9 Jun 2027 12:11:45.844,767.743
102,9 Jun 2027 13:36:40.880,9 Jun 2027 13:47:41.641,660.761
103,9 Jun 2027 15:17:02.380,9 Jun 2027 15:23:02.526,360.147
104,9 Jun 2027 21:53:46.576,9 Jun 2027 22:00:28.734,402.158
105,9 Jun 2027 23:29:14.802,9 Jun 2027 23:40:31.193,676.391
106,10 Jun 2027 01:05:11.393,10 Jun 2027 01:18:02.678,771.285
107,10 Jun 2027 02:41:06.865,10 Jun 2027 02:53:47.596,760.731
108,10 Jun 2027 04:16:45.925,10 Jun 2027 04:28:19.199,693.274
109,10 Jun 2027 05:51:50.452,10 Jun 2027 06:02:23.714,633.262
110,10 Jun 2027 07:26:11.105,10 Jun 2027 07:36:52.969,641.864
111,10 Jun 2027 09:00:16.781,10 Jun 2027 09:12:06.496,709.716
112,10 Jun 2027 10:35:00.889,10 Jun 2027 10:47:50.505,769.616
113,10 Jun 2027 12:11:06.160,10 Jun 2027 12:23:47.522,761.362
114,10 Jun 2027 13:49:05.107,10 Jun 2027 13:59:41.896,636.788
115,10 Jun 2027 15:29:57.270,10 Jun 2027 15:34:48.409,291.139
116,10 Jun 2027 22:05:39.795,10 Jun 2027 22:13:12.721,452.926
117,10 Jun 2027 23:41:15.669,10 Jun 2027 23:52:51.467,695.798
118,11 Jun 2027 01:17:13.047,11 Jun 2027 01:30:07.832,774.785
119,11 Jun 2027 02:53:07.323,11 Jun 2027 03:05:41.606,754.283
120,11 Jun 2027 04:28:43.105,11 Jun 2027 04:40:06.930,683.825
121,11 Jun 2027 06:03:42.116,11 Jun 2027 06:14:11.978,629.861
122,11 Jun 2027 07:37:58.395,11 Jun 2027 07:48:46.674,648.278
123,11 Jun 2027 09:12:05.964,11 Jun 2027 09:24:05.066,719.102
124,11 Jun 2027 10:46:58.246,11 Jun 2027 10:59:51.576,773.330
125,11 Jun 2027 12:23:15.992,11 Jun 2027 12:35:49.173,753.180
126,11 Jun 2027 14:01:31.799,11 Jun 2027 14:11:41.658,609.858
127,11 Jun 2027 15:43:04.923,11 Jun 2027 15:46:23.585,198.662
128,11 Jun 2027 22:17:35.219,11 Jun 2027 22:25:52.431,497.211
129,11 Jun 2027 23:53:16.787,12 Jun 2027 00:05:09.585,712.798
130,12 Jun 2027 01:29:14.647,12 Jun 2027 01:42:11.375,776.728
131,12 Jun 2027 03:05:07.490,12 Jun 2027 03:17:34.518,747.029
132,12 Jun 2027 04:40:39.704,12 Jun 2027 04:51:54.333,674.629
133,12 Jun 2027 06:15:33.048,12 Jun 2027 06:26:00.768,627.721
134,12 Jun 2027 07:49:45.524,12 Jun 2027 08:00:41.104,655.580
135,12 Jun 2027 09:23:55.877,12 Jun 2027 09:36:04.079,728.202
136,12 Jun 2027 10:58:56.957,12 Jun 2027 11:11:52.812,775.855
137,12 Jun 2027 12:35:27.648,12 Jun 2027 12:47:50.764,743.115
138,12 Jun 2027 14:14:01.114,12 Jun 2027 14:23:40.795,579.681
139,12 Jun 2027 22:29:32.193,12 Jun 2027 22:38:28.534,536.341
140,13 Jun 2027 00:05:18.104,13 Jun 2027 00:17:25.638,727.534
141,13 Jun 2027 01:41:16.166,13 Jun 2027 01:54:13.375,777.209
142,13 Jun 2027 03:17:07.348,13 Jun 2027 03:29:26.415,739.067
143,13 Jun 2027 04:52:35.670,13 Jun 2027 05:03:41.520,665.849
144,13 Jun 2027 06:27:23.263,13 Jun 2027 06:37:50.153,626.890
145,13 Jun 2027 08:01:32.604,13 Jun 2027 08:12:36.236,663.631
146,13 Jun 2027 09:35:46.605,13 Jun 2027 09:48:03.486,736.881
147,13 Jun 2027 11:10:57.086,13 Jun 2027 11:23:54.189,777.103
148,13 Jun 2027 12:47:41.210,13 Jun 2027 12:59:52.255,731.045
149,13 Jun 2027 14:26:33.255,13 Jun 2027 14:35:39.136,545.881
150,13 Jun 2027 22:41:30.292,13 Jun 2027 22:51:01.453,571.161
