dataset/area_work/orbit_13/ZorkySat_111309.csv

Acces,Start Time (UTCG),Stop Time (UTCG),Duration (sec)
1,1 Jun 2027 04:14:35.621,1 Jun 2027 04:15:01.062,25.441
2,1 Jun 2027 04:25:30.032,1 Jun 2027 04:28:59.614,209.582
3,1 Jun 2027 05:49:27.424,1 Jun 2027 05:52:21.298,173.874
4,1 Jun 2027 07:25:12.219,1 Jun 2027 07:29:29.145,256.925
5,1 Jun 2027 08:59:55.874,1 Jun 2027 09:07:28.376,452.502
6,1 Jun 2027 10:36:43.435,1 Jun 2027 10:43:04.928,381.493
7,2 Jun 2027 03:00:45.722,2 Jun 2027 03:08:06.580,440.858
8,2 Jun 2027 04:25:50.865,2 Jun 2027 04:27:15.970,85.104
9,2 Jun 2027 04:37:30.247,2 Jun 2027 04:38:56.487,86.240
10,2 Jun 2027 06:00:03.258,2 Jun 2027 06:01:03.530,60.272
11,2 Jun 2027 06:01:43.750,2 Jun 2027 06:04:48.507,184.757
12,2 Jun 2027 07:35:06.978,2 Jun 2027 07:36:28.065,81.088
13,2 Jun 2027 07:36:56.758,2 Jun 2027 07:41:48.819,292.060
14,2 Jun 2027 09:12:04.131,2 Jun 2027 09:19:28.607,444.476
15,2 Jun 2027 10:49:02.849,2 Jun 2027 10:54:54.378,351.529
16,2 Jun 2027 10:54:59.997,2 Jun 2027 10:55:10.967,10.970
17,3 Jun 2027 03:13:01.594,3 Jun 2027 03:20:03.699,422.105
18,3 Jun 2027 04:37:12.199,3 Jun 2027 04:39:27.167,134.968
19,3 Jun 2027 04:49:28.024,3 Jun 2027 04:50:23.661,55.637
20,3 Jun 2027 06:11:29.500,3 Jun 2027 06:12:50.440,80.940
21,3 Jun 2027 06:13:36.297,3 Jun 2027 06:17:03.357,207.060
22,3 Jun 2027 07:46:31.835,3 Jun 2027 07:54:08.145,456.310
23,3 Jun 2027 07:54:38.187,3 Jun 2027 07:55:08.510,30.323
24,3 Jun 2027 09:24:08.159,3 Jun 2027 09:31:32.317,444.157
25,3 Jun 2027 11:00:52.054,3 Jun 2027 11:07:32.742,400.689
26,4 Jun 2027 03:25:07.685,4 Jun 2027 03:31:55.275,407.591
27,4 Jun 2027 04:49:19.483,4 Jun 2027 04:51:13.966,114.483
28,4 Jun 2027 05:01:51.010,4 Jun 2027 05:01:55.202,4.192
29,4 Jun 2027 06:23:09.201,4 Jun 2027 06:29:08.353,359.152
30,4 Jun 2027 07:58:02.272,4 Jun 2027 08:06:16.336,494.064
31,4 Jun 2027 08:06:35.565,4 Jun 2027 08:07:35.345,59.780
32,4 Jun 2027 09:36:06.764,4 Jun 2027 09:43:33.970,447.206
33,4 Jun 2027 11:12:59.947,4 Jun 2027 11:18:09.703,309.757
34,4 Jun 2027 11:18:35.549,4 Jun 2027 11:19:29.283,53.735
35,5 Jun 2027 03:37:32.952,5 Jun 2027 03:42:27.299,294.346
36,5 Jun 2027 05:01:16.976,5 Jun 2027 05:03:34.330,137.354
37,5 Jun 2027 06:37:28.125,5 Jun 2027 06:40:58.853,210.728
38,5 Jun 2027 08:11:01.560,5 Jun 2027 08:18:32.029,450.469
39,5 Jun 2027 08:18:34.890,5 Jun 2027 08:19:35.620,60.729
40,5 Jun 2027 09:48:29.074,5 Jun 2027 09:55:18.692,409.618
41,5 Jun 2027 11:25:28.778,5 Jun 2027 11:29:58.454,269.675
42,5 Jun 2027 11:30:04.595,5 Jun 2027 11:31:20.192,75.597
43,6 Jun 2027 03:49:27.656,6 Jun 2027 03:54:20.446,292.790
44,6 Jun 2027 05:13:06.936,6 Jun 2027 05:15:45.711,158.775
45,6 Jun 2027 06:49:33.831,6 Jun 2027 06:53:08.462,214.631
46,6 Jun 2027 08:21:43.796,6 Jun 2027 08:21:53.012,9.216
47,6 Jun 2027 08:23:40.625,6 Jun 2027 08:30:28.244,407.619
48,6 Jun 2027 08:30:31.831,6 Jun 2027 08:31:31.785,59.955
49,6 Jun 2027 10:00:38.706,6 Jun 2027 10:07:23.155,404.449
50,6 Jun 2027 11:37:56.298,6 Jun 2027 11:42:03.865,247.567
51,6 Jun 2027 11:42:06.288,6 Jun 2027 11:42:44.307,38.018
52,7 Jun 2027 04:02:41.202,7 Jun 2027 04:06:14.358,213.156
53,7 Jun 2027 05:25:14.913,7 Jun 2027 05:28:17.255,182.341
54,7 Jun 2027 07:01:43.043,7 Jun 2027 07:05:21.928,218.885
55,7 Jun 2027 08:36:53.834,7 Jun 2027 08:43:34.064,400.229
56,7 Jun 2027 10:13:12.881,7 Jun 2027 10:19:29.617,376.736
57,7 Jun 2027 11:50:36.374,7 Jun 2027 11:55:08.047,271.673
58,8 Jun 2027 04:13:48.965,8 Jun 2027 04:14:26.537,37.572
59,8 Jun 2027 04:14:55.288,8 Jun 2027 04:17:21.396,146.108
60,8 Jun 2027 05:37:16.290,8 Jun 2027 05:40:25.622,189.332
61,8 Jun 2027 07:13:44.114,8 Jun 2027 07:17:09.902,205.788
62,8 Jun 2027 08:48:56.706,8 Jun 2027 08:55:36.321,399.615
63,8 Jun 2027 10:24:51.913,8 Jun 2027 10:31:10.199,378.286
64,9 Jun 2027 04:14:49.744,9 Jun 2027 04:15:17.642,27.899
65,9 Jun 2027 04:25:45.835,9 Jun 2027 04:29:14.268,208.432
66,9 Jun 2027 05:49:42.743,9 Jun 2027 05:52:38.963,176.220
67,9 Jun 2027 07:25:27.901,9 Jun 2027 07:29:46.645,258.744
68,9 Jun 2027 09:00:11.793,9 Jun 2027 09:07:44.616,452.823
69,9 Jun 2027 10:37:01.419,9 Jun 2027 10:43:20.575,379.156
70,10 Jun 2027 03:01:02.233,10 Jun 2027 03:08:22.055,439.822
71,10 Jun 2027 04:26:06.593,10 Jun 2027 04:27:32.334,85.741
72,10 Jun 2027 04:37:46.484,10 Jun 2027 04:39:11.872,85.387
73,10 Jun 2027 06:00:17.966,10 Jun 2027 06:01:19.007,61.042
74,10 Jun 2027 06:01:59.858,10 Jun 2027 06:05:05.389,185.530
75,10 Jun 2027 07:35:21.201,10 Jun 2027 07:36:40.323,79.123
76,10 Jun 2027 07:37:12.031,10 Jun 2027 07:42:05.205,293.175
77,10 Jun 2027 09:12:19.958,10 Jun 2027 09:19:44.472,444.514
78,10 Jun 2027 10:49:18.035,10 Jun 2027 10:55:10.931,352.896
79,10 Jun 2027 10:55:14.672,10 Jun 2027 10:55:26.353,11.681
80,11 Jun 2027 03:13:18.489,11 Jun 2027 03:20:19.851,421.362
81,11 Jun 2027 04:37:27.594,11 Jun 2027 04:39:43.964,136.369
82,11 Jun 2027 04:49:43.848,11 Jun 2027 04:50:39.168,55.320
83,11 Jun 2027 06:11:42.511,11 Jun 2027 06:13:06.845,84.334
84,11 Jun 2027 06:13:50.562,11 Jun 2027 06:17:19.679,209.117
85,11 Jun 2027 07:46:45.474,11 Jun 2027 07:54:24.617,459.143
86,11 Jun 2027 07:54:53.857,11 Jun 2027 07:55:24.914,31.057
87,11 Jun 2027 09:24:21.957,11 Jun 2027 09:31:48.212,446.255
88,11 Jun 2027 11:01:07.895,11 Jun 2027 11:07:14.669,366.774
89,11 Jun 2027 11:07:24.804,11 Jun 2027 11:07:49.137,24.334
90,12 Jun 2027 03:25:24.879,12 Jun 2027 03:32:10.086,405.207
91,12 Jun 2027 04:49:35.475,12 Jun 2027 04:51:30.075,114.600
92,12 Jun 2027 05:02:08.288,12 Jun 2027 05:02:10.699,2.411
93,12 Jun 2027 06:23:24.986,12 Jun 2027 06:29:24.328,359.342
94,12 Jun 2027 07:58:17.052,12 Jun 2027 08:06:32.853,495.802
95,12 Jun 2027 08:06:51.302,12 Jun 2027 08:07:51.609,60.306
96,12 Jun 2027 09:36:22.745,12 Jun 2027 09:43:49.947,447.202
97,12 Jun 2027 11:13:17.018,12 Jun 2027 11:18:24.343,307.325
98,12 Jun 2027 11:18:50.442,12 Jun 2027 11:19:44.483,54.041
99,13 Jun 2027 03:38:02.437,13 Jun 2027 03:42:43.580,281.143
100,13 Jun 2027 05:01:31.669,13 Jun 2027 05:03:50.895,139.225
101,13 Jun 2027 06:37:44.341,13 Jun 2027 06:41:16.095,211.753
102,13 Jun 2027 08:11:17.631,13 Jun 2027 08:18:48.710,451.079
103,13 Jun 2027 08:18:50.355,13 Jun 2027 08:19:51.453,61.099
104,13 Jun 2027 09:48:48.688,13 Jun 2027 09:55:34.870,406.182
105,13 Jun 2027 11:25:44.936,13 Jun 2027 11:30:14.669,269.734
106,13 Jun 2027 11:30:20.272,13 Jun 2027 11:31:36.363,76.091
