dataset/area_work/orbit_13/ZorkySat_111307.csv

Acces,Start Time (UTCG),Stop Time (UTCG),Duration (sec)
1,1 Jun 2027 03:08:05.659,1 Jun 2027 03:15:14.164,428.505
2,1 Jun 2027 04:32:56.349,1 Jun 2027 04:34:30.714,94.365
3,1 Jun 2027 04:44:40.048,1 Jun 2027 04:45:39.778,59.730
4,1 Jun 2027 06:06:55.569,1 Jun 2027 06:08:01.593,66.025
5,1 Jun 2027 06:08:52.393,1 Jun 2027 06:12:06.977,194.584
6,1 Jun 2027 07:41:53.899,1 Jun 2027 07:43:47.720,113.820
7,1 Jun 2027 07:43:57.332,1 Jun 2027 07:49:13.152,315.820
8,1 Jun 2027 07:49:51.739,1 Jun 2027 07:50:14.293,22.554
9,1 Jun 2027 09:19:21.890,1 Jun 2027 09:26:39.786,437.896
10,1 Jun 2027 10:56:07.613,1 Jun 2027 11:02:38.309,390.696
11,2 Jun 2027 03:20:07.609,2 Jun 2027 03:27:08.880,421.271
12,2 Jun 2027 04:44:29.507,2 Jun 2027 04:46:35.674,126.167
13,2 Jun 2027 04:56:45.847,2 Jun 2027 04:57:13.221,27.374
14,2 Jun 2027 06:18:32.378,2 Jun 2027 06:19:48.766,76.387
15,2 Jun 2027 06:20:37.359,2 Jun 2027 06:24:19.915,222.556
16,2 Jun 2027 07:53:21.760,2 Jun 2027 08:01:24.003,482.243
17,2 Jun 2027 08:01:44.804,2 Jun 2027 08:02:42.398,57.594
18,2 Jun 2027 09:31:15.076,2 Jun 2027 09:38:39.991,444.915
19,2 Jun 2027 11:07:58.934,2 Jun 2027 11:13:51.002,352.068
20,2 Jun 2027 11:13:58.645,2 Jun 2027 11:14:43.329,44.684
21,3 Jun 2027 03:32:30.942,3 Jun 2027 03:37:38.823,307.881
22,3 Jun 2027 04:56:25.718,3 Jun 2027 04:58:42.686,136.968
23,3 Jun 2027 06:32:25.857,3 Jun 2027 06:36:19.496,233.638
24,3 Jun 2027 08:06:13.709,3 Jun 2027 08:13:32.266,438.557
25,3 Jun 2027 08:13:44.494,3 Jun 2027 08:14:44.711,60.217
26,3 Jun 2027 09:43:22.495,3 Jun 2027 09:50:41.117,438.622
27,3 Jun 2027 11:20:36.705,3 Jun 2027 11:25:09.154,272.450
28,3 Jun 2027 11:25:18.855,3 Jun 2027 11:26:30.217,71.362
29,4 Jun 2027 03:44:56.912,4 Jun 2027 03:49:38.411,281.499
30,4 Jun 2027 05:08:18.947,4 Jun 2027 05:10:52.185,153.238
31,4 Jun 2027 06:44:41.032,4 Jun 2027 06:48:09.520,208.489
32,4 Jun 2027 08:18:37.191,4 Jun 2027 08:25:41.585,424.394
33,4 Jun 2027 08:25:42.641,4 Jun 2027 08:26:43.488,60.847
34,4 Jun 2027 09:55:48.158,4 Jun 2027 10:02:28.790,400.632
35,4 Jun 2027 11:32:48.943,4 Jun 2027 11:37:07.470,258.527
36,4 Jun 2027 11:37:07.724,4 Jun 2027 11:38:13.476,65.752
37,5 Jun 2027 03:57:14.603,5 Jun 2027 04:01:16.474,241.871
38,5 Jun 2027 05:20:11.517,5 Jun 2027 05:22:55.054,163.537
39,5 Jun 2027 06:56:45.198,5 Jun 2027 07:00:18.617,213.419
40,5 Jun 2027 08:31:54.092,5 Jun 2027 08:37:38.456,344.365
41,5 Jun 2027 08:37:40.928,5 Jun 2027 08:38:41.155,60.227
42,5 Jun 2027 10:08:14.089,5 Jun 2027 10:14:36.070,381.980
43,5 Jun 2027 11:45:48.702,5 Jun 2027 11:50:08.176,259.474
44,6 Jun 2027 04:08:59.802,6 Jun 2027 04:09:33.917,34.115
45,6 Jun 2027 04:09:48.360,6 Jun 2027 04:12:48.414,180.054
46,6 Jun 2027 05:32:20.733,6 Jun 2027 05:35:32.093,191.360
47,6 Jun 2027 07:08:55.853,6 Jun 2027 07:12:24.322,208.469
48,6 Jun 2027 08:44:05.942,6 Jun 2027 08:50:41.618,395.675
49,6 Jun 2027 10:20:26.811,6 Jun 2027 10:26:37.027,370.216
50,6 Jun 2027 11:57:43.617,6 Jun 2027 12:00:00.000,136.383
51,7 Jun 2027 04:20:56.679,7 Jun 2027 04:21:36.755,40.076
52,7 Jun 2027 04:21:54.785,7 Jun 2027 04:24:32.179,157.393
53,7 Jun 2027 05:44:53.653,7 Jun 2027 05:47:36.377,162.724
54,7 Jun 2027 07:20:43.797,7 Jun 2027 07:24:52.255,248.458
55,7 Jun 2027 08:55:36.691,7 Jun 2027 09:02:50.769,434.078
56,7 Jun 2027 10:32:05.562,7 Jun 2027 10:38:29.366,383.803
57,8 Jun 2027 03:00:00.000,8 Jun 2027 03:03:29.947,209.947
58,8 Jun 2027 04:21:32.909,8 Jun 2027 04:22:38.601,65.692
59,8 Jun 2027 04:32:52.961,8 Jun 2027 04:34:33.654,100.692
60,8 Jun 2027 04:35:34.224,8 Jun 2027 04:35:35.887,1.663
61,8 Jun 2027 05:55:28.216,8 Jun 2027 05:56:32.430,64.214
62,8 Jun 2027 05:57:03.389,8 Jun 2027 06:00:10.385,186.996
63,8 Jun 2027 07:30:59.860,8 Jun 2027 07:31:50.669,50.809
64,8 Jun 2027 07:32:28.829,8 Jun 2027 07:37:06.862,278.033
65,8 Jun 2027 09:07:19.287,8 Jun 2027 09:14:51.660,452.373
66,8 Jun 2027 10:44:25.973,8 Jun 2027 10:50:45.251,379.278
67,9 Jun 2027 03:08:22.049,9 Jun 2027 03:15:30.343,428.293
68,9 Jun 2027 04:33:12.174,9 Jun 2027 04:34:46.859,94.685
69,9 Jun 2027 04:44:56.336,9 Jun 2027 04:45:55.236,58.901
70,9 Jun 2027 06:07:11.172,9 Jun 2027 06:08:17.127,65.955
71,9 Jun 2027 06:09:06.652,9 Jun 2027 06:12:23.567,196.915
72,9 Jun 2027 07:42:08.363,9 Jun 2027 07:44:04.177,115.814
73,9 Jun 2027 07:44:12.964,9 Jun 2027 07:49:29.845,316.880
74,9 Jun 2027 07:50:07.283,9 Jun 2027 07:50:30.775,23.493
75,9 Jun 2027 09:19:37.502,9 Jun 2027 09:26:55.926,438.424
76,9 Jun 2027 10:56:22.101,9 Jun 2027 11:02:34.925,372.824
77,9 Jun 2027 11:02:39.377,9 Jun 2027 11:02:54.824,15.447
78,10 Jun 2027 03:20:24.127,10 Jun 2027 03:27:24.035,419.908
79,10 Jun 2027 04:44:45.631,10 Jun 2027 04:46:51.748,126.117
80,10 Jun 2027 04:57:01.590,10 Jun 2027 04:57:29.221,27.631
81,10 Jun 2027 06:18:43.335,10 Jun 2027 06:20:03.166,79.832
82,10 Jun 2027 06:20:52.097,10 Jun 2027 06:24:36.480,224.383
83,10 Jun 2027 07:53:36.857,10 Jun 2027 08:01:40.329,483.472
84,10 Jun 2027 08:02:00.751,10 Jun 2027 08:02:58.770,58.019
85,10 Jun 2027 09:31:31.041,10 Jun 2027 09:38:55.560,444.519
86,10 Jun 2027 11:08:15.113,10 Jun 2027 11:14:59.193,404.080
87,11 Jun 2027 03:32:48.322,11 Jun 2027 03:37:56.391,308.068
88,11 Jun 2027 04:56:41.515,11 Jun 2027 04:58:58.256,136.741
89,11 Jun 2027 06:32:42.099,11 Jun 2027 06:36:35.154,233.054
90,11 Jun 2027 08:06:30.034,11 Jun 2027 08:13:48.571,438.536
91,11 Jun 2027 08:13:52.309,11 Jun 2027 08:15:00.561,68.252
92,11 Jun 2027 09:43:39.416,11 Jun 2027 09:50:57.012,437.596
93,11 Jun 2027 11:20:53.897,11 Jun 2027 11:25:24.953,271.056
94,11 Jun 2027 11:25:34.687,11 Jun 2027 11:26:45.881,71.194
95,12 Jun 2027 03:45:12.235,12 Jun 2027 03:49:52.786,280.551
96,12 Jun 2027 05:08:34.407,12 Jun 2027 05:11:08.789,154.382
97,12 Jun 2027 06:44:55.192,12 Jun 2027 06:48:25.348,210.156
98,12 Jun 2027 08:18:56.225,12 Jun 2027 08:25:57.020,420.794
99,12 Jun 2027 08:25:58.503,12 Jun 2027 08:26:59.300,60.798
100,12 Jun 2027 09:56:04.591,12 Jun 2027 10:02:45.937,401.345
101,12 Jun 2027 11:33:02.778,12 Jun 2027 11:38:27.839,325.060
102,13 Jun 2027 03:57:31.062,13 Jun 2027 04:01:33.864,242.801
103,13 Jun 2027 05:20:34.504,13 Jun 2027 05:23:10.618,156.114
104,13 Jun 2027 06:57:01.287,13 Jun 2027 07:00:34.208,212.921
105,13 Jun 2027 08:32:09.958,13 Jun 2027 08:37:54.918,344.961
106,13 Jun 2027 08:37:56.271,13 Jun 2027 08:38:57.932,61.661
107,13 Jun 2027 10:08:30.435,13 Jun 2027 10:14:52.407,381.972
108,13 Jun 2027 11:46:04.489,13 Jun 2027 11:50:25.822,261.333
